{"id":9132509577,"url":"http://farm6.staticflickr.com/5330/9132509577_77ae7d456d.jpg","path":"182/cac/182cacbfc52e0b280681c972658fefa.jpg","date":"2013-06-24","year":2013,"month":6,"lon":27.12101,"lat":68.09997,"tags":"bscrally,rentier,s4","S2CellId":"8893000000000000","result":8521,"accuracy":0.05030434,"title":"Mottenmutterschiff"}
{"id":4978600377,"url":"http://farm5.staticflickr.com/4083/4978600377_3054e1caee.jpg","path":"5ca/595/5ca595a44821e227b3babf9f5187f223.jpg","date":"2009-08-23","year":2009,"month":8,"lon":27.42436,"lat":68.41973,"tags":"finland,inari,lapin+l%C3%A4%C3%A4ni,lapland+province,saariselk%C3%A4","S2CellId":"45d4000000000000","result":2755,"accuracy":0.3240275,"title":"Inari+-+Saariselk%C3%A4"}
{"id":8380631495,"url":"http://farm9.staticflickr.com/8377/8380631495_328255daf8.jpg","path":"fd2/02b/fd202bd022654ed8a8718eb239e804d.jpg","date":"2013-01-01","year":2013,"month":1,"lon":27.27356,"lat":68.84073,"tags":"finland,husky+dogs,husky+sledge,inari,jan2013,lapland,wild+spirit+park","S2CellId":"45d4000000000000","result":2755,"accuracy":0.6952449,"title":"Inari%2C+Finland_2013-01-01_11-48_01"}
{"id":6441412283,"url":"http://farm8.staticflickr.com/7024/6441412283_65e6ce479d.jpg","path":"358/c9a/358c9a18972e9dcc8a9bd9e0569ba47.jpg","date":"2011-03-22","year":2011,"month":3,"lon":27.42436,"lat":68.41973,"tags":"couch%C3%A9,de,finlande,laponie,soleil","S2CellId":"5240000000000000","result":5966,"accuracy":0.05492153,"title":"Couch%C3%A9+de+soleil+Saariselka"}
{"id":12654157515,"url":"http://farm8.staticflickr.com/7431/12654157515_1e8815c929.jpg","path":"823/eb7/823eb7c240953453498b332e6a103c1.jpg","date":"2013-07-24","year":2013,"month":7,"lon":27.893944,"lat":68.98266,"tags":"inarij%C3%A4rvi,lapland,suomi","S2CellId":"469c000000000000","result":3042,"accuracy":0.080030665,"title":"Suomi"}
{"id":2095673575,"url":"http://farm3.staticflickr.com/2350/2095673575_3af0cc3007.jpg","path":"ccd/ad2/ccdad227d8249a9e2b79ea1257523c5.jpg","date":"2005-03-15","year":2005,"month":3,"lon":27.337074,"lat":68.33311,"tags":"arancio,arancione,arctic,blu,blue,blue+flowers,colour,europa,europe,finland,flowers,frame,lapland,nature,orange,red+flowers,snow,winter,wood,wood+frame,woodden+decoration","S2CellId":"40b5000000000000","result":2687,"accuracy":0.007719019,"title":"wood+and+flowers","description":"home+decoration+in+kakslauttanen%2C+saariselka%2C+finland"}
{"id":8548046744,"url":"http://farm9.staticflickr.com/8243/8548046744_c07e47d13c.jpg","path":"eb7/7ea/eb77ea5fc72bb51d1dc07703b439b.jpg","date":"2013-03-11","year":2013,"month":3,"lon":27.410288,"lat":68.41965,"tags":"instagram+app,iphoneography,square,square+format","S2CellId":"8852c00000000000","result":8415,"accuracy":0.009256098,"title":"Hrrr"}
{"id":8380413343,"url":"http://farm9.staticflickr.com/8231/8380413343_21d0307f3e.jpg","path":"796/0ae/7960aefeb91ec19c3bc28967604f52.jpg","date":"2013-01-06","year":2013,"month":1,"lon":27.028084,"lat":68.90727,"tags":"finland,hotelli+inari,inari,jan2013,lapland","S2CellId":"467c000000000000","result":2949,"accuracy":0.04804169,"title":"Inari%2C+Finland_2013-01-06_12-21"}
{"id":8381553850,"url":"http://farm9.staticflickr.com/8473/8381553850_84db2245b5.jpg","path":"41b/bc8/41bbc8ff1c51ac04451f87b1c3c6835.jpg","date":"2013-01-02","year":2013,"month":1,"lon":27.021852,"lat":68.90865,"tags":"finland,inari,jan2013,lapland","S2CellId":"45d4000000000000","result":2755,"accuracy":0.31794584,"title":"Inari%2C+Finland_2013-01-02_12-24_02"}
{"id":6441277489,"url":"http://farm8.staticflickr.com/7015/6441277489_afc993f3c7.jpg","path":"c5e/1d0/c5e1d0be24da19979b74907986d45fbe.jpg","date":"2011-03-20","year":2011,"month":3,"lon":27.42436,"lat":68.41973,"tags":"finlande,laponie,rennes","S2CellId":"45d4000000000000","result":2755,"accuracy":0.2804766,"title":"Rennes"}
{"id":8381711472,"url":"http://farm9.staticflickr.com/8224/8381711472_0805bd638f.jpg","path":"572/8ed/5728ed0be117de01c34d9ed5849d877.jpg","date":"2013-01-01","year":2013,"month":1,"lon":27.27356,"lat":68.84073,"tags":"finland,husky+dogs,husky+sledge,inari,jan2013,lapland,wild+spirit+park","S2CellId":"45d4000000000000","result":2755,"accuracy":0.69520557,"title":"Inari%2C+Finland_2013-01-01_11-55_09"}
{"id":9084632488,"url":"http://farm6.staticflickr.com/5343/9084632488_300d896078.jpg","path":"4d4/49c/4d449cc045bdeebc573fa4e81fd4a78d.jpg","date":"2013-06-11","year":2013,"month":6,"lon":27.43784,"lat":68.41958,"tags":"bw,fell,finland,nature,small+tree","S2CellId":"534e400000000000","result":6028,"accuracy":0.24829435,"title":"Dried-up+small+tree","description":"Dried-up+small+tree+on+top+of+the+Iisakkip%C3%A4%C3%A4+fell+in+Saariselk%C3%A4%2C+Finland.+Shot+in+BW."}
{"id":5117498421,"url":"http://farm5.staticflickr.com/4128/5117498421_8c83b01ffa.jpg","path":"e88/179/e8817945bd185667f59ae02087d62d2.jpg","date":"2009-08-26","year":2009,"month":8,"lon":27.42436,"lat":68.41973,"tags":"finland,inari,lapin+l%C3%A4%C3%A4ni,lapin+l%C5%A1%C5%A1ni,lapland+province","S2CellId":"45cc000000000000","result":2754,"accuracy":0.078877226,"title":"Inari+-+Saariselk%C3%A4"}
{"id":5206981693,"url":"http://farm6.staticflickr.com/5243/5206981693_70964cd525.jpg","path":"e22/2de/e222de3382682be88de350ea4afa1a.jpg","date":"2010-11-19","year":2010,"month":11,"lon":27.23648,"lat":68.31104,"tags":"art,column,contemporary+art,finland,lapland,resort,santa%27s","S2CellId":"80d1000000000000","result":7267,"accuracy":0.010105044,"title":"P1030829"}
