{"id":10547567414,"url":"http://farm3.staticflickr.com/2885/10547567414_3ba4af13be.jpg","path":"ae4/fd9/ae4fd95bf585932211e3a8275ede24b8.jpg","date":"2013-06-12","year":2013,"month":6,"lon":13.348108,"lat":68.03453,"tags":"flakstad%C3%B8ya,gravdal,harvey+barrison,hbarrison,land+of+the+midnight+sun,lofoten+archipelago,norway,nusfjord,princess+cruises,vestv%C3%A5g%C3%B8ya","S2CellId":"45df000000000000","result":2759,"accuracy":0.46535167,"title":"Gravdal_2013+06+12_2924","description":"Nusfjord+is+one+of+Norway%E2%80%99s+oldest+and+best-preserved+fishing+hamlets+with+a+long-standing+tradition+of+%E2%80%9CLofotfiske%E2%80%9D%2C+or+seasonal+cod+fishing."}
{"id":4945946787,"url":"http://farm5.staticflickr.com/4128/4945946787_32062b3e1f.jpg","path":"ab7/06b/ab706b4e727a14731457585943a6e1e0.jpg","date":"2010-07-23","year":2010,"month":7,"lon":13.650488,"lat":68.30744,"tags":"eggum,kleppstad,lofoten,lofoty,nor,nordland,norge,norway,norwegia,p%C3%B3%C5%82noc+kwitnie,wakacje,wakacje+2010","S2CellId":"864ed00000000000","result":7641,"accuracy":0.4042507,"title":"Norwegia","description":"P%C3%B3%C5%82noc+kwitnie+na+fioletowo"}
{"id":1428645609,"url":"http://farm2.staticflickr.com/1243/1428645609_d2a5a5901a.jpg","path":"cb1/fd4/cb1fd4bd239f96da198eed959fbc9c8c.jpg","date":"2007-07-27","year":2007,"month":7,"lon":13.635063,"lat":68.082855,"tags":"karen,lofoten,norway","S2CellId":"488c400000000000","result":5764,"accuracy":0.13863824,"title":"DSCN4011"}
{"id":4948281625,"url":"http://farm5.staticflickr.com/4094/4948281625_522d8157aa.jpg","path":"dfd/bcb/dfdbcb89b8482e4c955946717cb5e5f.jpg","date":"2010-07-24","year":2010,"month":7,"lon":13.78518,"lat":68.24397,"tags":"b%C3%B8stad,borge,bostad,lofoten,lofoty,muzeum+wiking%C3%B3w,nor,nordland,norge,norway,norwegia,wakacje,wakacje+2010","S2CellId":"3470400000000000","result":2237,"accuracy":0.044696864,"title":"Norwegia"}
{"id":6044830490,"url":"http://farm7.staticflickr.com/6197/6044830490_0c7d9cbdf5.jpg","path":"447/89d/44789d99596be13a9e3b6ff2df79bdc9.jpg","date":"2011-07-26","year":2011,"month":7,"lon":13.579895,"lat":68.28746,"tags":"artscape,eggum,lofoten,nordland,skulpturlandskap,summer,vacation","S2CellId":"4889300000000000","result":5756,"accuracy":0.30674142,"title":"Art+in+the+Wild","description":"This+statue%2C+a+part+of+the+series+Skulpturlandskap+Nordland%2C+is+shaped+as+a+head.+And+depending+on+what+angle+you+see+it+from%2C+it%27s+either+upside+down%2C+or+the+right+way.+It+is%2C+however%2C+always+overlooking+the+seas..."}
{"id":4509789275,"url":"http://farm3.staticflickr.com/2395/4509789275_973e2a40e9.jpg","path":"eb3/825/eb38251f9ee6c7bf2983c2dfe69db.jpg","date":"2010-04-01","year":2010,"month":4,"lon":13.3465,"lat":68.037025,"tags":"canon,fileccia,isole,light,lofoten,norvegia,norway,vincenzo","S2CellId":"4ec0000000000000","result":5959,"accuracy":0.032121334,"title":"LOFOTEN_10-04-01_0010"}
{"id":7588752802,"url":"http://farm8.staticflickr.com/7108/7588752802_65854099f7.jpg","path":"84f/6fe/84f6fee006f4dd23a857bc43b8e8.jpg","date":"2012-06-27","year":2012,"month":6,"lon":13.550122,"lat":68.123474,"tags":"cruises,gravdal-leknes,lofoten+islands,mountains,norway,norway+june%2Fjuly+2012,sky","S2CellId":"488c400000000000","result":5764,"accuracy":0.15754011,"title":"Lofoten+Islands-17"}
{"id":6111253567,"url":"http://farm7.staticflickr.com/6063/6111253567_8050bceea0.jpg","path":"ff6/d24/ff6d249e192b5ef1b982a70c7afdca.jpg","date":"2011-07-28","year":2011,"month":7,"lon":13.688428,"lat":68.309975,"tags":"eggum,lofoten,summer,vacation","S2CellId":"4651000000000000","result":2842,"accuracy":0.014844335,"title":"Relaxing"}
{"id":2732360808,"url":"http://farm4.staticflickr.com/3277/2732360808_3239db6e24.jpg","path":"21a/f87/21af87ca38b9e9489b474784e39d82.jpg","date":"2008-07-17","year":2008,"month":7,"lon":13.757406,"lat":68.24563,"tags":"20080717,dag13,scandinavi%C3%AB","S2CellId":"880e2b7000000000","result":8112,"accuracy":0.006082864,"title":"Viking+Museum"}
{"id":7588817816,"url":"http://farm8.staticflickr.com/7249/7588817816_0093520f9f.jpg","path":"6d5/6ba/6d56ba9b450d1d8dcf211d6b44dcf7.jpg","date":"2012-06-27","year":2012,"month":6,"lon":13.550122,"lat":68.123474,"tags":"cruises,gravdal-leknes,lofoten+islands,mountains,norway,norway+june%2Fjuly+2012","S2CellId":"bc50000000000000","result":9959,"accuracy":0.29609948,"title":"Lofoten+Islands-10"}
{"id":2788465311,"url":"http://farm4.staticflickr.com/3012/2788465311_fc7724667c.jpg","path":"6eb/cd4/6ebcd42f1b7570bf5fdcb88993b8473.jpg","date":"2008-08-05","year":2008,"month":8,"lon":13.051757,"lat":68.0733,"tags":"norway","S2CellId":"12dcc00000000000","result":939,"accuracy":0.032324545,"title":"Lonely+house"}
{"id":6702430091,"url":"http://farm8.staticflickr.com/7142/6702430091_5fb9ab865e.jpg","path":"aed/a2c/aeda2c50202a81a2795155647aedbd7a.jpg","date":"2012-01-15","year":2012,"month":1,"lon":13.524169,"lat":68.26125,"tags":"drying,fish,fishing,norway","S2CellId":"4716b00000000000","result":3225,"accuracy":0.011272649,"title":"fish","description":"Fish+drying+after+a+catch"}
{"id":3690812662,"url":"http://farm4.staticflickr.com/3575/3690812662_bbd3a0f45b.jpg","path":"444/c5e/444c5e1e56829f8d602ba7c54bd0dbfc.jpg","date":"2006-07-21","year":2006,"month":7,"lon":13.367614,"lat":68.05176,"tags":"lofoten","S2CellId":"45df000000000000","result":2759,"accuracy":0.5638222,"title":"IMG_0305","description":"Late+hiking+on+the+Lofoten%2C+summer+2006"}
{"id":2731558671,"url":"http://farm4.staticflickr.com/3069/2731558671_cc84f297bc.jpg","path":"8b9/5f0/8b95f0743777e9fd6a1d7b92c7acbd2e.jpg","date":"2008-07-17","year":2008,"month":7,"lon":13.316893,"lat":68.09452,"tags":"20080717,dag13,scandinavi%C3%AB","S2CellId":"45df000000000000","result":2759,"accuracy":0.4660001,"title":"Lofoten"}
{"id":7932308050,"url":"http://farm9.staticflickr.com/8031/7932308050_f67686968e.jpg","path":"6c3/ec1/6c3ec1bce04f6783ff3df4bc1cbf93b8.jpg","date":"2011-07-24","year":2011,"month":7,"lon":13.665769,"lat":68.30988,"tags":"eggum,lofoten,summer,vacation","S2CellId":"486ab00000000000","result":4916,"accuracy":0.10161469,"title":"Northern+sunset","description":"Sunset+in+Lofoten"}
{"id":11189685586,"url":"http://farm3.staticflickr.com/2816/11189685586_08780c49e8.jpg","path":"c6d/780/c6d780a183cfc2e794f196a6bbf18ae3.jpg","date":"2013-07-25","year":2013,"month":7,"lon":13.348689,"lat":68.036385,"tags":"building,flakstad,harbor,lofoten,nordland,norge,norra,norway,nusfjord,red,village,water","S2CellId":"45df000000000000","result":2759,"accuracy":0.59137267,"title":"Nusfjord%2C+1","description":"Nusfjord+is+a+small+harbor+with+traditional+rorbus."}
{"id":5542165153,"url":"http://farm6.staticflickr.com/5138/5542165153_86e782382e.jpg","path":"b64/0bf/b640bf924cc9035242bf9becd28392.jpg","date":"2008-07-04","year":2008,"month":7,"lon":13.349676,"lat":68.03403,"tags":"gelb,haus,house,lofoten,norway,norwegen,nusfjord,scandinavia,skandinavien,yellow","S2CellId":"45df000000000000","result":2759,"accuracy":0.59534705,"title":"Nusfjord","description":"Lofoten%2C+Norway"}
{"id":5825084289,"url":"http://farm6.staticflickr.com/5234/5825084289_a3bc2ae2a7.jpg","path":"ad6/987/ad6987d89fefb6c8b19b5af1aea630.jpg","date":"2011-06-06","year":2011,"month":6,"lon":13.298649,"lat":68.10271,"tags":"raw","S2CellId":"4f40000000000000","result":5960,"accuracy":0.44273126}
{"id":3710619108,"url":"http://farm3.staticflickr.com/2589/3710619108_6121452f2e.jpg","path":"3da/89f/3da89f0bca88c83abd7916bb7d93c.jpg","date":"2009-06-23","year":2009,"month":6,"lon":13.608558,"lat":68.10106,"tags":"lofoten,norway,norwegen","S2CellId":"4b70000000000000","result":5827,"accuracy":0.074615814,"title":"0906_Kreuzfahrt_Norwegen_1118","description":"Abfahrt+von+den+Lofoten"}
{"id":9297320959,"url":"http://farm8.staticflickr.com/7281/9297320959_b7907782e7.jpg","path":"7fe/04c/7fe04c8e1b423cbe93669e20966916ae.jpg","date":"2013-06-27","year":2013,"month":6,"lon":13.297663,"lat":68.007385,"tags":"animaux,randonn%C3%A9e","S2CellId":"9aab000000000000","result":9926,"accuracy":0.01361401,"title":"20130627-152213"}
{"id":10510801446,"url":"http://farm4.staticflickr.com/3730/10510801446_557795d7c3.jpg","path":"14b/31b/14b31b9055ccb2e8ed3fca91a4189e5.jpg","date":"2010-08-11","year":2010,"month":8,"lon":13.23595,"lat":68.09464,"tags":"bicyclette,bike,coucher,lofoten,norvege,norway,rando,recumbent,travel,trek,v%C3%A9lo,voyage","S2CellId":"45df000000000000","result":2759,"accuracy":0.9654816,"title":"IMG_1627"}
{"id":5879990963,"url":"http://farm6.staticflickr.com/5264/5879990963_52be3fa8bb.jpg","path":"3ce/e27/3cee2767ad62536887501969553c4d4e.jpg","date":"2011-06-05","year":2011,"month":6,"lon":13.350211,"lat":68.03423,"tags":"norway","S2CellId":"45df000000000000","result":2759,"accuracy":0.15802996,"title":"IMG_6530"}
