{"id":3764059065,"url":"http://farm4.staticflickr.com/3511/3764059065_a1823ef750.jpg","path":"1e1/f3f/1e1f3fe6c9da203ea5178bbf35fa34b.jpg","date":"2009-07-24","year":2009,"month":7,"lon":-159.35265,"lat":21.95937,"tags":"hawaii,kalapaki,kauai","S2CellId":"6c40000000000000","result":6780,"accuracy":0.24610223,"title":"Kalapaki+Beach+-+02","description":"Kalapaki+Beach+near+the+Marriott+Kauai+Resort+%26+Beach+Club"}
{"id":76051809,"url":"http://farm1.staticflickr.com/43/76051809_84cb410c45.jpg","path":"40a/e6b/40ae6b3757495ef7e75b88334eb01de.jpg","date":"2005-11-10","year":2005,"month":11,"lon":-159.49239,"lat":21.886515,"tags":"flowers,garden,honeymoon,kauai","S2CellId":"8620af4000000000","result":7522,"accuracy":0.20262401,"title":"Red+Blossoms","description":"Rich+red+blossoms+in+the+botanical+garden."}
{"id":1856874111,"url":"http://farm3.staticflickr.com/2336/1856874111_2f75b141a9.jpg","path":"99e/198/99e1982c42bc85f09e2d3382484db40.jpg","date":"2007-11-04","year":2007,"month":11,"lon":-159.45525,"lat":21.873207,"tags":"hawaii,kauai,poipu,sunset","S2CellId":"7c07400000000000","result":6898,"accuracy":0.32345355,"title":"Sunrise+in+Poipu"}
{"id":3850709515,"url":"http://farm4.staticflickr.com/3466/3850709515_893e41956b.jpg","path":"673/84c/67384c54fc3ccfd5fad363eec284d4.jpg","date":"2009-08-23","year":2009,"month":8,"lon":-159.34981,"lat":21.961191,"tags":"ahukini+recreation+pier+state+park,ef-s18-55mm+f%2F3.5-5.6+is,hawaii,kauai,pacific+ocean","S2CellId":"7951000000000000","result":6861,"accuracy":0.12672706,"title":"Ahukini+Recreation+Pier+State+Park"}
{"id":3283437105,"url":"http://farm4.staticflickr.com/3269/3283437105_84eb62b6d3.jpg","path":"feb/64e/feb64ef74914ae5411780ca9b8b6ac.jpg","date":"2009-02-15","year":2009,"month":2,"lon":-159.34207,"lat":21.992676,"tags":"duckling,grass,hawaii,kauai,nikon,nikon+d300,usa,vr18-200","S2CellId":"94ce59f000000000","result":9723,"accuracy":0.008416509,"title":"Cute+duckling","description":"I+spotted+this+little+guy+together+with+%3Ca+href%3D%22http%3A%2F%2Fwww.flickr.com%2Fphotos%2Fchristaleye%2F3271602288%2F%22%3Ehis+family%3C%2Fa%3E.+The+duckling+was+quite+a+bit+away+from+the+mother%2C+so+a+good+opportunity+for+a+close-up.+Well%2C+as+close+as+you+need+and+should+be+with+a+300mm+lens."}
{"id":4006181298,"url":"http://farm3.staticflickr.com/2560/4006181298_9a50b7cbaa.jpg","path":"119/63c/11963c65fef18de8577f291a1214b3.jpg","date":"2009-10-06","year":2009,"month":10,"lon":-159.44127,"lat":21.873528,"tags":"hawaii,kauai,poipu,shipwreck+beach,sunrise","S2CellId":"3b05000000000000","result":2531,"accuracy":0.054537006,"title":"Sunrise"}
{"id":511986843,"url":"http://farm1.staticflickr.com/211/511986843_b334d8f033.jpg","path":"3e8/e9d/3e8e9db1e936e382fe531abc83331518.jpg","date":"2007-05-22","year":2007,"month":5,"lon":-159.45332,"lat":21.873154,"tags":"2007,kauai","S2CellId":"9aab000000000000","result":9926,"accuracy":0.06205102,"title":"IMG_0741"}
{"id":5099327039,"url":"http://farm2.staticflickr.com/1084/5099327039_b0c72bdc26.jpg","path":"c7a/cc9/c7acc972674e33114c04822feb0ad2a.jpg","date":"2010-10-11","year":2010,"month":10,"lon":-159.40567,"lat":21.894333,"tags":"hawaii,honeymoons,kauai,nature,outdoors,tropical","S2CellId":"8e85000000000000","result":9491,"accuracy":0.083571956,"title":"Lithified+Cliffs+hike","description":"Hike+along+the+lithified+sand+dunes+near+Po%27ipu"}
{"id":292837741,"url":"http://farm1.staticflickr.com/102/292837741_bc5f994dc8.jpg","path":"776/c96/776c96c4941f861434f7256986b6689.jpg","date":"2006-11-08","year":2006,"month":11,"lon":-159.43987,"lat":21.877588,"tags":"hawaii,kauai","S2CellId":"7955400000000000","result":6875,"accuracy":0.05210278,"title":"160.jpg"}
{"id":5246292812,"url":"http://farm6.staticflickr.com/5203/5246292812_c26fdd0f1f.jpg","path":"5e1/6d3/5e16d32cbc72e1d9f1cebd45c57f034.jpg","date":"2010-12-08","year":2010,"month":12,"lon":-159.70868,"lat":21.96329,"tags":"beach,kauai","S2CellId":"2dd2470000000000","result":1549,"accuracy":0.0304296,"title":"Waves+and+Sunset"}
{"id":6597545607,"url":"http://farm8.staticflickr.com/7021/6597545607_e46b2b5e55.jpg","path":"a8e/831/a8e8316e3a796c9b80f7ded4ef77bbb3.jpg","date":"2011-12-20","year":2011,"month":12,"lon":-159.44716,"lat":21.871218,"tags":"hanukkah","S2CellId":"80db100000000000","result":7313,"accuracy":0.011566342}
{"id":768218495,"url":"http://farm2.staticflickr.com/1014/768218495_43cba620a5.jpg","path":"665/eb6/665eb6eae13132132dcbbd7bb6c58.jpg","date":"2007-07-10","year":2007,"month":7,"lon":-159.49387,"lat":21.885288,"tags":"kauai,kauai%2C+hawaii,kauai%2C+hw","S2CellId":"4860400000000000","result":4839,"accuracy":0.10480761,"title":"day5_05"}
{"id":2675681313,"url":"http://farm4.staticflickr.com/3053/2675681313_c892d308f4.jpg","path":"719/617/71961759660c4ea57bd75208d99f0cf.jpg","date":"2008-07-10","year":2008,"month":7,"lon":-159.38145,"lat":21.942986,"tags":"2008,hawaii,kauai,lighthouse,vacation","S2CellId":"217d000000000000","result":1486,"accuracy":0.084290065,"title":"Kipu+Ranch","description":"Overlooking+the+Huleia+Valley.+The+Menehune+Fish+Pond+is+a+little+easier+to+see+in+this+one."}
{"id":3883673368,"url":"http://farm3.staticflickr.com/2522/3883673368_39065a5fc4.jpg","path":"5ce/724/5ce724a0c0e81eef15931922595c1ffa.jpg","date":"2009-08-06","year":2009,"month":8,"lon":-159.34131,"lat":21.994307,"tags":"bay,beach,hanamaulu,honeymoon,kauai,ocean","S2CellId":"7c06c00000000000","result":6897,"accuracy":0.100330524,"title":"Hanama%27ulu+Bay","description":"Some+of+the+calmest+and+safest+water+on+the+island.++A+lot+of+movies+filmed+scenes+here%2C+including+Donovan%27s+Reef.++In+the+distance+you+can+see+an+old+light+beacon."}
{"id":452836709,"url":"http://farm1.staticflickr.com/217/452836709_3d41696d6c.jpg","path":"9e3/c5d/9e3c5d4b67699a5541fc33261d3eff9.jpg","date":"2007-04-09","year":2007,"month":4,"lon":-159.37042,"lat":21.978706,"tags":"hawaii","S2CellId":"7c06400000000000","result":6896,"accuracy":0.1293088,"title":"Picture+357"}
{"id":4659761012,"url":"http://farm5.staticflickr.com/4041/4659761012_f0fc83aa4d.jpg","path":"7da/e13/7dae13effbe052553c27f87f89eba.jpg","date":"2010-05-19","year":2010,"month":5,"lon":-159.39214,"lat":21.97135,"tags":"carvings,hawai%27i,kaua%27i,kaua%27i+county,kilohana+plantation,lihu%27e,luau,luau+kalamaku,tiki,tiki+carvings,wood+carving","S2CellId":"88dd900000000000","result":8636,"accuracy":0.0069892886,"title":"Kaua%27i%3A+Luau+Kalamaku+-+Tiki"}
{"id":2460473145,"url":"http://farm4.staticflickr.com/3132/2460473145_5cdd9b8a63.jpg","path":"3ab/4e2/3ab4e26b6cbe30faa68ceed2137c748.jpg","date":"2008-05-02","year":2008,"month":5,"lon":-159.72441,"lat":21.96933,"tags":"girl,hawaii,kauai,surfer,surfing,vacation,woman","S2CellId":"7f00000000000000","result":6901,"accuracy":0.028521592,"title":"kauai_west-0090","description":"Taken+outside+Waimea%2C+Kauai"}
{"id":2976517599,"url":"http://farm4.staticflickr.com/3293/2976517599_24fe5f7992.jpg","path":"86e/dd1/86edd12e969a229fba2e76b396622423.jpg","date":"2008-10-12","year":2008,"month":10,"lon":-159.66309,"lat":21.952314,"tags":"%E2%80%9Cflickrtravelaward%E2%80%9D,2008,almostanythiing,almostanything,clouds,hawaii,hawaiisunset,kauai,kauaihawaii,photo,picture,rocks,russiafortelizabeth,russian+fort+elizabeth,russianfort,shadows,sky,sunset,tree","S2CellId":"7c00500000000000","result":6879,"accuracy":0.0918719,"title":"Russian+Fort+At+Sunset","description":"Kauai+Hawaii."}
{"id":7424368410,"url":"http://farm8.staticflickr.com/7114/7424368410_c19ee50e7a.jpg","path":"c7e/edf/c7eedff0231a2ff1c5ff3f73db8b59.jpg","date":"2012-05-16","year":2012,"month":5,"lon":-159.50835,"lat":21.90425,"tags":"bloom,green,white","S2CellId":"46f9000000000000","result":3115,"accuracy":0.015848078,"title":"Green+and+White+Bloom","description":"This+plant+grew+in+the+shade+of+large+trees+in+McBryde+Garden."}
{"id":4994591947,"url":"http://farm5.staticflickr.com/4092/4994591947_ab4d9a3600.jpg","path":"d66/acf/d66acfde48e167e54697d3c86605db1.jpg","date":"2010-09-03","year":2010,"month":9,"lon":-159.35385,"lat":21.959045,"tags":"as,travel","S2CellId":"8f4c400000000000","result":9516,"accuracy":0.07017547,"title":"Kauai+2010"}
{"id":5447387146,"url":"http://farm6.staticflickr.com/5013/5447387146_9e780fe87c.jpg","path":"914/ff6/914ff62df9f826fd985c050b734f150.jpg","date":"2010-10-11","year":2010,"month":10,"lon":-159.40567,"lat":21.894333,"tags":"kauai","S2CellId":"7c07400000000000","result":6898,"accuracy":0.27988768,"title":"Lithified+Cliffs+hike","description":"Third+day+of+honeymoon%2C+mainly+in+Po%27ipu+Third+day+of+honeymoon%2C+mainly+in+Po%27ipu+Third+day+of+honeymoon%2C+mainly+in+Po%27ipu+Hike+along+the+South+Shore+of+Kauai%2C+HI+through+lithified+sand+dunes+and+a+prehistoric+landscape+Third+day+of+honeymoon%2C+mainly+in+Po%27ipu++Third+day+of+honeymoon%2C+mainly+in+Po%27ipu++Third+day+of+honeymoon%2C+mainly+in+Po%27ipu++Third+day+of+honeymoon%2C+mainly+in+Po%27ipu++Third+day+of+honeymoon%2C+mainly+in+Po%27ipu++Third+day+of+honeymoon%2C+mainly+in+Po%27ipu++Third+day+of+honeymoon%2C+mainly+in+Po%27ipu++Third+day+of+honeymoon%2C+mainly+in+Po%27ipu++Third+day+of+honeymoon%2C+mainly+in+Po%27ipu"}
{"id":573540023,"url":"http://farm2.staticflickr.com/1280/573540023_c19ef437cf.jpg","path":"b0c/940/b0c940cbf9f15410c3fcde2d7e1b1.jpg","date":"2007-06-19","year":2007,"month":6,"lon":-159.45442,"lat":21.873049,"tags":"underwater","S2CellId":"3b30000000000000","result":2535,"accuracy":0.17496416,"title":"Manini","description":"Original+photo+by+Mike+McGrath"}
{"id":2806556662,"url":"http://farm4.staticflickr.com/3263/2806556662_420094707c.jpg","path":"a9b/1ff/a9b1ff4dc6f8a864a6f0c6e02fbdb063.jpg","date":"2008-06-28","year":2008,"month":6,"lon":-159.3651,"lat":21.990486,"tags":"kauai,peachick,pheasant,photo","S2CellId":"4875f40000000000","result":5179,"accuracy":0.03509406,"title":"DSC00271","description":"Peachicks%0AKamokila+Hawaiian+VIllage%0AJune+28%2C+2008"}
{"id":5275225843,"url":"http://farm6.staticflickr.com/5041/5275225843_4351005c2f.jpg","path":"4f9/071/4f9071e14b63f113f5eafbe9b9f7075.jpg","date":"2009-06-20","year":2009,"month":6,"lon":-159.50774,"lat":21.925842,"tags":"beach,child,cousin,daughter,family,father,glovebox,green,hanalei,hanapepe,hannah+joyal,hawaii,hotel,jackson,kauai,lava,mother,ocean,overlook,photography,pier,princeton,sand,sister,steven,surf,trading,volcano,waimea,wave","S2CellId":"80c9400000000000","result":7256,"accuracy":0.017633174,"title":"KAUAI+-+100","description":"Pit+Stop%0A%0AHannah+Joyal%0A-%0AFamous+to+my+family%2C+the+%22Wave%22+off+of+Kaumualii+Hwy"}
{"id":5321204404,"url":"http://farm6.staticflickr.com/5081/5321204404_271cb3808a.jpg","path":"396/e69/396e69933d83e394375cad227d06cf1.jpg","date":"2010-12-17","year":2010,"month":12,"lon":-159.67438,"lat":21.955912,"tags":"dawn,hawaii,sunrise,waimea","S2CellId":"3a52400000000000","result":2515,"accuracy":0.023644947,"title":"GTC_0580","description":"Sunrise+at+Waimea+on+not+quite+the+solstice+-+December+2010"}
{"id":573242416,"url":"http://farm2.staticflickr.com/1302/573242416_12e30edeac.jpg","path":"4bf/5bd/4bf5bd76153766951b4d9cf798b6725e.jpg","date":"2007-05-23","year":2007,"month":5,"lon":-159.47638,"lat":21.88167,"tags":"underwater","S2CellId":"3210000000000000","result":1886,"accuracy":0.051465683,"title":"Lawai+cleaner+wrasse+and+unicorn+fish","description":"Original+photo+by+Mike+McGrath"}
{"id":2821515523,"url":"http://farm4.staticflickr.com/3048/2821515523_0ba84366e9.jpg","path":"126/7e8/1267e8d40d4344a7151acebf5f73edd.jpg","date":"2008-06-29","year":2008,"month":6,"lon":-159.46527,"lat":21.877588,"tags":"flower,kauai,morning,photo","S2CellId":"89c2f34000000000","result":9103,"accuracy":0.022615094,"title":"DSC00482","description":"Flower%0AMorning+at+the+Resort%0AJune+29%2C+2008"}
{"id":212361042,"url":"http://farm1.staticflickr.com/90/212361042_0f51ac8f94.jpg","path":"526/0ac/5260acca49df42ab5f9886ef6f03dd.jpg","date":"2006-08-10","year":2006,"month":8,"lon":-159.46559,"lat":21.90361,"tags":"hawaii,kauai,koloa","S2CellId":"548ff00000000000","result":6177,"accuracy":0.014085795,"title":"Great+sign","description":"%22Stupidity+is+not+a+handicap.%0APark+elsewhere.%22"}
{"id":4994610561,"url":"http://farm5.staticflickr.com/4111/4994610561_aff4a8e345.jpg","path":"806/9c7/8069c74cbcde4ad96a18b78a60f8c5ef.jpg","date":"2010-09-03","year":2010,"month":9,"lon":-159.44237,"lat":21.872131,"tags":"as,travel","S2CellId":"7c07400000000000","result":6898,"accuracy":0.22258922,"title":"Kauai+2010"}
{"id":2522690004,"url":"http://farm3.staticflickr.com/2011/2522690004_8396d83b27.jpg","path":"2aa/e27/2aae2717ae707c7668c8612e6c84bc47.jpg","date":"2008-05-18","year":2008,"month":5,"lon":-159.46173,"lat":21.876698,"tags":"2008,hawaii,kauai","S2CellId":"7955400000000000","result":6875,"accuracy":0.38863924,"title":"Torch+Lighting+Ceremony+at+Sheraton"}
{"id":2311333927,"url":"http://farm4.staticflickr.com/3014/2311333927_73904babf6.jpg","path":"297/e39/297e3959afd31bc759314bf659649a.jpg","date":"2008-02-23","year":2008,"month":2,"lon":-159.67198,"lat":21.95689,"tags":"contest,contests,festival,festivals,hawaii,hawaiian+islands,ice+cream,kauai,kauaitrip2008,waimea,waimea+town+celebration","S2CellId":"89b7b79b00000000","result":8861,"accuracy":0.06460491,"title":"Ready%2C+set%2C+brain+freeze","description":"Lappert%27s+Ice+Cream+eating+contest."}
{"id":573239446,"url":"http://farm2.staticflickr.com/1334/573239446_fc30989b0d.jpg","path":"c6f/6f1/c6f6f14f217bceb14318f0db12e093a8.jpg","date":"2007-05-23","year":2007,"month":5,"lon":-159.47638,"lat":21.88167,"tags":"underwater","S2CellId":"3b30000000000000","result":2535,"accuracy":0.32120782,"title":"cigar+wrasse","description":"Original+photo+by+Mike+McGrath"}
{"id":2666694570,"url":"http://farm4.staticflickr.com/3258/2666694570_4780152026.jpg","path":"187/7a8/1877a8d835ed227e79f364eb555ddd61.jpg","date":"2008-06-07","year":2008,"month":6,"lon":-159.47575,"lat":21.881416,"tags":"vacation+hawaii+kauai+2008","S2CellId":"7954400000000000","result":6868,"accuracy":0.062445965,"title":"06619_07Jun2008_12-42-05"}
{"id":3196572553,"url":"http://farm4.staticflickr.com/3328/3196572553_44a9ff6b8a.jpg","path":"244/778/2447780d66d5c17b9e842426ce0f786.jpg","date":"2009-01-14","year":2009,"month":1,"lon":-159.60887,"lat":21.900068,"tags":"alohagroup,beach,clouds,hawaii,kauai,nikon,nikon+d300,ocean,rock,saltpond+beach,seascape,surf,usa,vr18-200","S2CellId":"6b15000000000000","result":6711,"accuracy":0.020991556,"title":"Salt+Pond+Beach+at+dusk","description":"This+shot+was+taken+in+late+afternoon+at+Kauai%27s+Salt+Pond+Beach.+The+rock+has+hundreds+of+little+hollows+that+evaporate+the+seawater+and+collect+the+remaining+salt+during+hot+days.%0A%0AThe+photo+was+taken+almost+against+the+sun+painting+dark+shadows+over+the+front+side+of+the+rock.+This+is+not+a+HDR+as+you+can+see+from+the+sharpness+of+the+surf+tops.+It+was+taken+in+RAW+and+the+dark+colors+were+lifted+a+bit."}
{"id":6161480915,"url":"http://farm7.staticflickr.com/6172/6161480915_943fcd1eb9.jpg","path":"d68/a40/d68a40b7a09af975f8277864738baf93.jpg","date":"2011-09-12","year":2011,"month":9,"lon":-159.41399,"lat":21.889326,"tags":"beach,hawaii,kauai,pacific","S2CellId":"7c00500000000000","result":6879,"accuracy":0.03870602,"title":"_DSC2760.jpg"}
{"id":8038181219,"url":"http://farm9.staticflickr.com/8313/8038181219_457a9c4a81.jpg","path":"6dd/5a2/6dd5a21278315bbddbc537a76d7a3774.jpg","date":"2012-09-06","year":2012,"month":9,"lon":-159.3916,"lat":21.970938,"tags":"hawaii,lihue,united+states","S2CellId":"88d9d00000000000","result":8604,"accuracy":0.008122142,"title":"DSC_4433.jpg","description":"Flowers+at+the+Kawai+Plantation+Railway"}
{"id":8725750578,"url":"http://farm8.staticflickr.com/7425/8725750578_f10f0c1802.jpg","path":"bec/042/bec042951d4f30959d22dc1ce4f5fd4.jpg","date":"2013-05-09","year":2013,"month":5,"lon":-159.40742,"lat":21.892536,"tags":"2013365","S2CellId":"34e5100000000000","result":2246,"accuracy":0.04311598,"title":"2013%2F365%2F129+SPLASH%21","description":"Maha%27ulepo+Beach"}
{"id":2766884839,"url":"http://farm4.staticflickr.com/3005/2766884839_a25c9f84c8.jpg","path":"b3a/c5c/b3ac5ce4dd3d75ff5cffcf57495df6b.jpg","date":"2008-08-10","year":2008,"month":8,"lon":-159.44156,"lat":21.872044,"tags":"hawaii,kauai","S2CellId":"8f4fc00000000000","result":9526,"accuracy":0.26052043,"title":"Kauai+132"}
{"id":2052341809,"url":"http://farm3.staticflickr.com/2186/2052341809_774624cdfd.jpg","path":"74c/173/74c17394bb9489274427ee87c801290.jpg","date":"2007-01-11","year":2007,"month":1,"lon":-159.3906,"lat":21.97023,"tags":"bird,birds,chicken,gallus,gallus+gallus,gaylords,hawaii,hawaiian+islands,kauai,kilohana,rooster,usa,wildlife","S2CellId":"487604db00000000","result":5253,"accuracy":0.02154352,"title":"Crumbs...+crumbs+anyone%3F","description":"Nobody+eating+lunch+at+Gaylords+wanted+to+drop+a+poor+rooster+some+crumbs."}
{"id":5099360209,"url":"http://farm2.staticflickr.com/1151/5099360209_a381e97952.jpg","path":"6c1/72a/6c172a122cceedc173215bd7beb4ef.jpg","date":"2010-10-12","year":2010,"month":10,"lon":-159.672,"lat":21.9953,"tags":"canyon,hawaii,honeymoons,kauai,mountains,nature,outdoors,tropical,valleys,weimea+canyon","S2CellId":"7c06c00000000000","result":6897,"accuracy":0.567174,"title":"Waimea+Canyon+-+68","description":"Waimea+Canyon"}
{"id":9464184030,"url":"http://farm6.staticflickr.com/5323/9464184030_6d8900fa67.jpg","path":"795/c39/795c39dace7c5328f82757e39a52ed.jpg","date":"2013-07-27","year":2013,"month":7,"lon":-159.50333,"lat":21.89738,"tags":"hawaii,kauai,mcbryde+garden","S2CellId":"6ad642a400000000","result":6620,"accuracy":0.004366172,"title":"Pale+Yellow+Flowers"}
{"id":8110788694,"url":"http://farm9.staticflickr.com/8470/8110788694_33d0b2ce1e.jpg","path":"ad9/d6a/ad9d6a18a4583df861eb52763938033.jpg","date":"2012-10-20","year":2012,"month":10,"lon":-159.44952,"lat":21.872192,"tags":"photo+stream","S2CellId":"1453000000000000","result":1198,"accuracy":0.01940113,"title":"a+little+help+here%3F"}
{"id":3420733340,"url":"http://farm4.staticflickr.com/3656/3420733340_8e35b6bd34.jpg","path":"a3f/bd1/a3fbd15acf8479c8bfbf09fa7b0c0d0.jpg","date":"2009-04-05","year":2009,"month":4,"lon":-159.4351,"lat":21.874365,"tags":"hawaii,kauai,lithified+cliffs,poipu+beach","S2CellId":"8c43000000000000","result":9436,"accuracy":0.097912915,"title":"Poipu+Beach%2C+Kauai"}
{"id":211576461,"url":"http://farm1.staticflickr.com/68/211576461_6f80fe463d.jpg","path":"a2c/502/a2c502c7ca5ba803390d3c191bcf314.jpg","date":"2006-08-08","year":2006,"month":8,"lon":-159.45383,"lat":21.872944,"tags":"hawaii,kauai,poipu,travel","S2CellId":"8f5d000000000000","result":9533,"accuracy":0.09331009,"title":"Poipu+beach"}
{"id":5099929922,"url":"http://farm2.staticflickr.com/1176/5099929922_627e8b4490.jpg","path":"7e8/0de/7e80de4c942951034a81db4dc4a7a38.jpg","date":"2010-10-11","year":2010,"month":10,"lon":-159.40567,"lat":21.894333,"tags":"hawaii,honeymoons,kauai,nature,outdoors,tropical","S2CellId":"7c07400000000000","result":6898,"accuracy":0.42637867,"title":"Lithified+Cliffs+hike","description":"Hike+along+the+lithified+sand+dunes+near+Po%27ipu"}
{"id":5970569883,"url":"http://farm7.staticflickr.com/6027/5970569883_17e8aa1b43.jpg","path":"c4e/fba/c4efba84f31d9fdc6eec888f57572f71.jpg","date":"2011-07-22","year":2011,"month":7,"lon":-159.43636,"lat":21.874811,"tags":"nick","S2CellId":"2190000000000000","result":1487,"accuracy":0.07939202,"title":"Nick+at+Shipwreck+Beach"}
{"id":305518325,"url":"http://farm1.staticflickr.com/99/305518325_72fda142b7.jpg","path":"12d/f4e/12df4e147d5ee435fba1bc9ba1c56d5.jpg","date":"2006-11-15","year":2006,"month":11,"lon":-159.4251,"lat":21.881014,"tags":"bryce,hawaii,kauai","S2CellId":"3470400000000000","result":2237,"accuracy":0.2110803,"title":"Walkabout"}
{"id":2990079783,"url":"http://farm4.staticflickr.com/3291/2990079783_bb5e2c6193.jpg","path":"4d4/d39/4d4d397337ef07f41355efec736b3.jpg","date":"2008-10-31","year":2008,"month":10,"lon":-159.357,"lat":21.954,"tags":"autostitch","S2CellId":"5470000000000000","result":6094,"accuracy":0.0396691,"title":"Kauai+docks1","description":"Panorama+of+the+Lihue%2C+Kauai+docks+from+about+the+middle+of+the+ship"}
{"id":7475626958,"url":"http://farm8.staticflickr.com/7247/7475626958_23d24d8bf2.jpg","path":"361/0df/3610dfac3fb4cd4e1a6d57326abbbed.jpg","date":"2012-06-30","year":2012,"month":6,"lon":-159.36595,"lat":21.971737,"tags":"food,hamura+saimin+stand,hawaii,hawaii2012,hi,hudson,instagram,instagram+app,iphone,iphone4s,iphoneapp,iphoneography,kauai,lihue,ramen,restaurant,saimin,snapseed,square,square+format","S2CellId":"304ac40000000000","result":1594,"accuracy":0.0024240122,"title":"super-duper+special+ramen+%28er%2C+saimin%29"}
{"id":5387706073,"url":"http://farm6.staticflickr.com/5013/5387706073_75716a72a2.jpg","path":"12a/cbf/12acbfa6fc50141b6336b00c0d1d6b1.jpg","date":"2010-12-24","year":2010,"month":12,"lon":-159.45883,"lat":21.877333,"tags":"kauai","S2CellId":"9aab000000000000","result":9926,"accuracy":0.10475697,"title":"Inside+the+Russian+Fort"}
{"id":2329926187,"url":"http://farm4.staticflickr.com/3022/2329926187_508dc17a5b.jpg","path":"a29/662/a2966248e712947e6c6026149496162.jpg","date":"2005-09-20","year":2005,"month":9,"lon":-159.45769,"lat":21.877062,"tags":"hawaii,kauai","S2CellId":"80dd317000000000","result":7376,"accuracy":0.03746112,"title":"Hotel+Gecko","description":"At+the+Kiahuna+Plantation+Resort%2C+Kauai+%0A%28IMG_0584_edited-1%29"}
{"id":445824608,"url":"http://farm1.staticflickr.com/237/445824608_aedb96e467.jpg","path":"b01/243/b0124321bec114a59d4645b74a905632.jpg","date":"2007-04-03","year":2007,"month":4,"lon":-159.44527,"lat":21.871853,"tags":"d50,hawaii,kauai,nikon,poipu+beach,silhouette,sunset","S2CellId":"7c00724000000000","result":6892,"accuracy":0.081049405,"title":"_DSC04230017"}
{"id":2323747750,"url":"http://farm3.staticflickr.com/2333/2323747750_5224ec4f77.jpg","path":"b3a/fd4/b3afd4a3dbb41a9e636a4c679ed31336.jpg","date":"2005-09-15","year":2005,"month":9,"lon":-159.48825,"lat":21.884129,"tags":"hawaii,kauai","S2CellId":"7c00500000000000","result":6879,"accuracy":0.14130896,"title":"Big+Surf","description":"Storm+conditions+brought+the+waves.+At+Kukui%27ula+Small+Boat+Harbor.+%0A%28IMG_0419%29"}
{"id":9294823945,"url":"http://farm8.staticflickr.com/7358/9294823945_45286d9ddb.jpg","path":"347/9b0/3479b0d0a11bf315a9459c8555de2168.jpg","date":"2013-07-15","year":2013,"month":7,"lon":-159.43568,"lat":21.874622,"tags":"cliff,ocean,shipwreck%27s+cliff","S2CellId":"8900400000000000","result":8768,"accuracy":0.019786796}
{"id":2181822613,"url":"http://farm3.staticflickr.com/2022/2181822613_5a7eb25998.jpg","path":"db0/9c5/db09c5c4c3a5a2013fafad962e61e2.jpg","date":"2008-01-09","year":2008,"month":1,"lon":-159.67726,"lat":21.957195,"tags":"kauai,waimea","S2CellId":"7955400000000000","result":6875,"accuracy":0.426794,"title":"Sunset%2C+Day+2"}
{"id":3876538653,"url":"http://farm3.staticflickr.com/2656/3876538653_504b9967af.jpg","path":"ba6/c98/ba6c989817e9d95729d8b8a1a977cc4.jpg","date":"2009-08-14","year":2009,"month":8,"lon":-159.64885,"lat":21.966652,"tags":"hawaii,hi,kauai,pentax+18-250mm,pentax+k20d,waimea+canyon,waterfall","S2CellId":"7c06c00000000000","result":6897,"accuracy":0.5632913,"title":"Waimea+Canyon","description":"%3Cb%3EWaimea+Canyon%0AKauai%2C+Hawaii%3C%2Fb%3E"}
{"id":37023718,"url":"http://farm1.staticflickr.com/30/37023718_313269683b.jpg","path":"f1e/d38/f1ed3861c6344ad88319c07410a8fba.jpg","date":"2005-08-25","year":2005,"month":8,"lon":-159.41331,"lat":21.88939,"tags":"at-x124prodxii,eos350d,hawaii,honeymoon,lenstagged,rebelxt,tokina12-24f4","S2CellId":"8f4fc00000000000","result":9526,"accuracy":0.16392703,"title":"MahaulepuBeach1"}
{"id":5230160192,"url":"http://farm6.staticflickr.com/5285/5230160192_0faeb06aa4.jpg","path":"dcf/0b9/dcf0b98dff84465caa2a2e0878b021.jpg","date":"2010-12-03","year":2010,"month":12,"lon":-159.54475,"lat":21.958496,"tags":"jurassic,kauai,park,waterfall","S2CellId":"1950000000000000","result":1435,"accuracy":0.061371326,"title":"Jurassic_Waterfall","description":"We+landed+at+the+waterfall+on+Friday+December+3+2010.+Very+windy%2C+very+rainy+%28and+very+muddy%2C+white+pants+now+brown%29."}
{"id":5253932806,"url":"http://farm6.staticflickr.com/5089/5253932806_20b0d8847f.jpg","path":"62a/31a/62a31ab09acc9f6cc282f51df4f6963.jpg","date":"2010-12-05","year":2010,"month":12,"lon":-159.44688,"lat":21.928967,"tags":"adventure,backroads,hawaii,kauai,tour","S2CellId":"4878300000000000","result":5450,"accuracy":0.008771105,"title":"_MG_1583","description":"Kauai+Backroad+Adventure"}
{"id":231370387,"url":"http://farm1.staticflickr.com/87/231370387_6f49a3f899.jpg","path":"3ce/ae0/3ceae0c96f885aee2f336be85b59778.jpg","date":"2006-08-27","year":2006,"month":8,"lon":-159.45145,"lat":21.874084,"tags":"2006,august,hawaii,kauai,kauai06,surf,surfing","S2CellId":"9aab000000000000","result":9926,"accuracy":0.14801979,"title":"Surfing+Out+Front","description":"There+was+a+nice+right+out+front+of+the+hotel.++This+dude+was+shredding+all+morning."}
{"id":6202458135,"url":"http://farm7.staticflickr.com/6174/6202458135_4a36436fd0.jpg","path":"2da/731/2da7312812ee8d6cbafc12b9f1ac622d.jpg","date":"2011-08-11","year":2011,"month":8,"lon":-159.33594,"lat":21.960121,"tags":"helicopter,kauai","S2CellId":"7c06c00000000000","result":6897,"accuracy":0.7754719,"title":"_MG_5056+as+Smart+Object-1_2048w"}
{"id":6202966530,"url":"http://farm7.staticflickr.com/6008/6202966530_b44e5ab4dd.jpg","path":"7fb/c6f/7fbc6fc932b293f210e5656850b3ecf4.jpg","date":"2011-08-11","year":2011,"month":8,"lon":-159.33534,"lat":21.959126,"tags":"helicopter,kauai","S2CellId":"7c06c00000000000","result":6897,"accuracy":0.5014917,"title":"_MG_4780-4791_2048W"}
{"id":172395580,"url":"http://farm1.staticflickr.com/62/172395580_df5c45009e.jpg","path":"0fe/d67/0fed6788cd4a7a9ea92452816edc3.jpg","date":"2004-01-01","year":2004,"month":1,"lon":-159.64783,"lat":21.93572,"tags":"2004,hawaii","S2CellId":"7955400000000000","result":6875,"accuracy":0.09581474,"title":"hi04_villas_sunset3","description":"SI+Exif"}
{"id":217507642,"url":"http://farm1.staticflickr.com/71/217507642_7fa511eaa0.jpg","path":"1aa/d86/1aad86e448fe2c7bd1efda1be6abf0dc.jpg","date":"2006-08-16","year":2006,"month":8,"lon":-159.38754,"lat":21.972021,"tags":"gaylord%27s,hawaii,history,kauai","S2CellId":"7c07400000000000","result":6898,"accuracy":0.03350101,"title":"A+view+from+the+back+of+the+carriage"}
{"id":2767700034,"url":"http://farm4.staticflickr.com/3096/2767700034_e4e2b13751.jpg","path":"6b3/83b/6b383bf2b0469a5059c6bbe38786e10.jpg","date":"2008-08-10","year":2008,"month":8,"lon":-159.44136,"lat":21.872684,"tags":"hawaii,iphoto+original,kauai","S2CellId":"7c07400000000000","result":6898,"accuracy":0.19604051,"title":"Kauai+121"}
{"id":8874402329,"url":"http://farm8.staticflickr.com/7415/8874402329_ab93b0bcb9.jpg","path":"30f/9d5/30f9d54fc5e36094eaf668188f7cae.jpg","date":"2012-02-23","year":2012,"month":2,"lon":-159.73257,"lat":21.971283,"tags":"beach,coast,hawaii,hi,honeymoon,island,kauai,kekaha+beach,ocean,outside,pacific+ocean,sand,vacation,water,waves","S2CellId":"8fa7000000000000","result":9567,"accuracy":0.040694285,"title":"Kekaha+Beach","description":"Kauai%2C+Hawaii"}
{"id":1356531240,"url":"http://farm2.staticflickr.com/1340/1356531240_00aeeeb077.jpg","path":"7bb/d17/7bbd17b622e1173f1d9cb6a72ca6f75.jpg","date":"2007-09-01","year":2007,"month":9,"lon":-159.67189,"lat":21.957205,"tags":"2007,kauai","S2CellId":"8819ad0000000000","result":8204,"accuracy":0.040331427,"title":"2007+09+01+Kauai_Trip+110"}
{"id":5913332249,"url":"http://farm6.staticflickr.com/5313/5913332249_7167e82e79.jpg","path":"b05/acd/b05acdc9d596347ea55ba3d4913d18b.jpg","date":"2011-07-07","year":2011,"month":7,"lon":-159.67195,"lat":21.995277,"tags":"instagram+app,iphoneography,square,square+format,x-pro+ii","S2CellId":"7c06c00000000000","result":6897,"accuracy":0.65806013,"title":"Waimea+Canyon"}
{"id":2804607649,"url":"http://farm4.staticflickr.com/3234/2804607649_5208ba13f3.jpg","path":"4d2/bec/4d2bec0444bcab24b7a7f7133a72256.jpg","date":"2007-10-28","year":2007,"month":10,"lon":-159.34106,"lat":21.983244,"tags":"hawaii,kauai,lynne,me,people,portrait","S2CellId":"7c07400000000000","result":6898,"accuracy":0.43772298,"title":"after+a+great+ride%21"}
{"id":6734295997,"url":"http://farm8.staticflickr.com/7015/6734295997_22a136fdea.jpg","path":"c1b/e4c/c1be4cdd3d3f8f6da6399c52f6941df.jpg","date":"2008-03-18","year":2008,"month":3,"lon":-159.49539,"lat":21.963425,"tags":"david+gordillo,gordillo+vacations,hawaii,kahuai","S2CellId":"2bfc000000000000","result":1527,"accuracy":0.0425315,"title":"Kauai+-+Hawaii","description":"Add+a+description..."}
{"id":3876916470,"url":"http://farm4.staticflickr.com/3501/3876916470_e44d4a1251.jpg","path":"e96/4e1/e964e110b5fce18ebbb69bb170754678.jpg","date":"2009-08-13","year":2009,"month":8,"lon":-159.39233,"lat":21.971832,"tags":"apple+iphone+3g,hawaii,hi,kauai,kilohana+plantation,lihue,luau,mansion","S2CellId":"7f00000000000000","result":6901,"accuracy":0.12919502,"title":"Mansion","description":"%3Cb%3EKilohana+Plantation+Luau%0ALihue%2C+Kauai%2C+Hawaii%3C%2Fb%3E"}
{"id":244770585,"url":"http://farm1.staticflickr.com/85/244770585_33cc9ca207.jpg","path":"45f/51d/45f51dfffafbc23aa93a64727cd2ec69.jpg","date":"2006-08-05","year":2006,"month":8,"lon":-159.42981,"lat":21.879307,"tags":"kathyanderic,kauai","S2CellId":"8e85000000000000","result":9491,"accuracy":0.12060097,"title":"Kauai%3A+Spouting+Horn+and+Cliff+Hike"}
{"id":8046564567,"url":"http://farm9.staticflickr.com/8177/8046564567_663e88f726.jpg","path":"311/315/3113158f090fae3dd95b0108e5bc0c.jpg","date":"2012-09-07","year":2012,"month":9,"lon":-159.56119,"lat":21.899994,"tags":"hawaii,kalaheo,united+states","S2CellId":"8085874500000000","result":6974,"accuracy":0.042986203,"title":"DSC_4666.jpg","description":"Bird+of+Paradise+flower+at+the+Kauai+Coffee+Vistor+Center"}
{"id":9474076083,"url":"http://farm8.staticflickr.com/7318/9474076083_e006462cf2.jpg","path":"9ee/3ef/9ee3ef2d47bd654b9ea2fcd6126c3f7b.jpg","date":"2013-08-09","year":2013,"month":8,"lon":-159.35066,"lat":21.962,"tags":"kauai","S2CellId":"7c07400000000000","result":6898,"accuracy":0.32003993,"title":"Kauai+Marriott"}
{"id":2767714410,"url":"http://farm4.staticflickr.com/3093/2767714410_cb9009a416.jpg","path":"dcf/2af/dcf2af31411ddfcdc0b8f7e0d5abd0e5.jpg","date":"2008-08-10","year":2008,"month":8,"lon":-159.4434,"lat":21.869211,"tags":"hawaii,iphoto+original,kauai","S2CellId":"7c07400000000000","result":6898,"accuracy":0.543233,"title":"Kauai+246"}
{"id":2665716604,"url":"http://farm4.staticflickr.com/3225/2665716604_41aefa9b4b.jpg","path":"cbe/5cf/cbe5cfa3327471f47e5913de6171ce.jpg","date":"2008-06-07","year":2008,"month":6,"lon":-159.47575,"lat":21.881416,"tags":"vacation+hawaii+kauai+2008","S2CellId":"7c00724000000000","result":6892,"accuracy":0.059236154,"title":"06609_07Jun2008_12-39-31"}
{"id":9223140693,"url":"http://farm6.staticflickr.com/5523/9223140693_1ec212c87e.jpg","path":"53e/ad6/53ead6bf69f631498c4b4e62a385da12.jpg","date":"2012-02-24","year":2012,"month":2,"lon":-159.49359,"lat":21.884928,"tags":"coast,hawaii,hi,honeymoon,island,kauai,nature,ocean,outdoors,pacific+ocean,shore,spouting+horn+park,sunset,vacation","S2CellId":"7954400000000000","result":6868,"accuracy":0.19089516,"title":"Spouting+Horn+Park","description":"Kauai%2C+Hawaii"}
{"id":3588549862,"url":"http://farm4.staticflickr.com/3649/3588549862_a42033bd7e.jpg","path":"e02/068/e0206874b0888a34588e5dc28ef518e.jpg","date":"2005-05-15","year":2005,"month":5,"lon":-159.60663,"lat":21.899689,"tags":"alaea,black+clay,clay,family+tradition,hanapepe,hawaiian+salt,hawaiian+tradition,kuulei,paakai,red+salt,salt+patch,salt+pond","S2CellId":"89b8900000000000","result":8910,"accuracy":0.17617479,"title":"DSC00075"}
{"id":2750190537,"url":"http://farm4.staticflickr.com/3282/2750190537_d8575ce391.jpg","path":"5aa/11e/5aa11efd661b8c54519ee7fe9961f452.jpg","date":"2008-08-09","year":2008,"month":8,"lon":-159.34462,"lat":21.990244,"tags":"hawaii,kauai","S2CellId":"7c07400000000000","result":6898,"accuracy":0.03685281,"title":"DSC_3247"}
{"id":4278790997,"url":"http://farm5.staticflickr.com/4067/4278790997_4eccd3aab8.jpg","path":"b35/830/b358303f6df8534195b7dd2de6c0c7e9.jpg","date":"2009-12-27","year":2009,"month":12,"lon":-159.4759,"lat":21.88129,"tags":"2009-12+-+kauai+-+hill+pix,hawaii,kauai,kauai%2C+hawaii,kawai%2C+hawaii","S2CellId":"6b12adc000000000","result":6679,"accuracy":0.12435454,"title":"P1060161","description":"People+waiting+out+on+the+lawn+fro+the+sunset+at+the+Beach+House."}
{"id":3420770306,"url":"http://farm4.staticflickr.com/3384/3420770306_eaafd7ecaf.jpg","path":"dab/5a7/dab5a7ab1341434e3b96330e0df6e1f.jpg","date":"2009-04-05","year":2009,"month":4,"lon":-159.50227,"lat":21.892893,"tags":"allerton+gardens,hawaii,kaua,kauai,national+tropical+botanical+gardens","S2CellId":"7952400000000000","result":6862,"accuracy":0.05103103,"title":"National+Tropical+Botanical+Garden%2C+Kauai"}
{"id":512005887,"url":"http://farm1.staticflickr.com/224/512005887_fb87c47087.jpg","path":"7c5/cdb/7c5cdb8f1d637613bd7855685d6126b.jpg","date":"2007-05-22","year":2007,"month":5,"lon":-159.46048,"lat":21.877573,"tags":"2007,kauai","S2CellId":"80e9500000000000","result":7405,"accuracy":0.02042938,"title":"IMG_0762"}
{"id":2792163283,"url":"http://farm4.staticflickr.com/3193/2792163283_90f7e34365.jpg","path":"7af/52a/7af52af66ab7ab4b653d5b7422758171.jpg","date":"2008-06-28","year":2008,"month":6,"lon":-159.3651,"lat":21.990486,"tags":"%27opeaka%27a+falls,kauai,photo,waterfall","S2CellId":"7953b00000000000","result":6865,"accuracy":0.104463294,"title":"DSC00111","description":"%27Opeaka%27a+Falls%0AJune+28%2C+2008"}
{"id":2814446562,"url":"http://farm4.staticflickr.com/3224/2814446562_ee10b60424.jpg","path":"714/dfa/714dfafbf1619766fcbee357b4b3ef1a.jpg","date":"2008-06-28","year":2008,"month":6,"lon":-159.46527,"lat":21.877588,"tags":"beach,kauai,photo","S2CellId":"7954400000000000","result":6868,"accuracy":0.25635397,"title":"DSC00394","description":"Chasing+the+Sunset+along+the+Beach%0AJune+28%2C+2008"}
{"id":8875024996,"url":"http://farm3.staticflickr.com/2867/8875024996_b6fea03708.jpg","path":"e4a/21d/e4a21dd932e9db735989e6bb3468dc.jpg","date":"2012-02-23","year":2012,"month":2,"lon":-159.7328,"lat":21.971952,"tags":"beach,coast,hawaii,hi,honeymoon,island,kauai,kekaha+beach,ocean,outside,pacific+ocean,vacation,water,waves","S2CellId":"7c00500000000000","result":6879,"accuracy":0.072272286,"title":"Kekaha+Beach","description":"Kauai%2C+Hawaii"}
{"id":2828574078,"url":"http://farm4.staticflickr.com/3282/2828574078_1089d44e3e.jpg","path":"128/972/128972e6b1c19401151381178811fbd.jpg","date":"2008-06-29","year":2008,"month":6,"lon":-159.46527,"lat":21.877588,"tags":"beach,kauai,monk+seal,photo","S2CellId":"7954400000000000","result":6868,"accuracy":0.13300017,"title":"DSC00620","description":"Monk+Seal%0AMorning+at+the+Beach%0AJune+29%2C+2008"}
{"id":2483909486,"url":"http://farm3.staticflickr.com/2308/2483909486_15d696a6c7.jpg","path":"3df/181/3df181ae15b77fa89ab70d852b834.jpg","date":"2008-04-15","year":2008,"month":4,"lon":-159.59485,"lat":21.90806,"tags":"%D0%BA%D0%BD%D0%B8%D0%B6%D0%BD%D1%8B%D0%B9+%D0%BC%D0%B0%D0%B3%D0%B0%D0%B7%D0%B8%D0%BD,%D9%85%D9%83%D8%AA%D8%A8%D8%A9,%E0%A4%95%E0%A4%BF%E0%A4%A4%E0%A4%BE%E0%A4%AC%E0%A5%8B%E0%A4%82+%E0%A4%95%E0%A5%80+%E0%A4%A6%E0%A5%81%E0%A4%95%E0%A4%BE%E0%A4%A8,%E4%B9%A6%E5%BA%97,best_hi08,books,bookshelf,bookshop,bookstore,bookstores,buchhandlung,cat,hanapepe,hawaii,hi%C3%AA%CC%A3u+sa%CD%81ch,kauai,kitabevi,librairie,libreria,librerias,red,secondhand,talk+story","S2CellId":"548ff00000000000","result":6177,"accuracy":0.010604117,"title":"Ed+and+Cynthia+-+Talk+Story+Bookstore","description":"Shortly+after+I+told+Ed+and+Cynthia+about+Flickr+-+where+they+discovered+a+few+photos+of+their+bookshop.%0A%0A%3Ca+href%3D%22http%3A%2F%2Fwww.talkstorybookstore.com%2F%22%3ETalk+Story+Bookstore%3C%2Fa%3E%0AOne+bookstore%0ATwo+great+people%0AThree+fine+bookstore+cats%0AA+multitude+of+books+to+choose+from%0A%0AWorth+a+visit+whenever+you+are+on+Kauai%0A%0A1041708+235"}
{"id":5702898872,"url":"http://farm6.staticflickr.com/5101/5702898872_9ed5f7b8ef.jpg","path":"e57/af3/e57af38958c90787d4a4b3a31f69ec0.jpg","date":"2010-11-17","year":2010,"month":11,"lon":-159.46893,"lat":21.878101,"tags":"hawaii,kauai,koloa,locationsnotfromgps,poipu,selected,united+states,usa","S2CellId":"8f4c400000000000","result":9516,"accuracy":0.033429105,"title":"Scuba+diving+at+Koloa+Landing"}
{"id":6256073227,"url":"http://farm7.staticflickr.com/6231/6256073227_b4d1f03efd.jpg","path":"9bf/a19/9bfa19a9aa1e9d609470d3c9eda28d9c.jpg","date":"2011-10-01","year":2011,"month":10,"lon":-159.45517,"lat":21.873333,"tags":"2011,by+sarah,kauai,october","S2CellId":"7c07400000000000","result":6898,"accuracy":0.15859027,"title":"IMG_1755.jpg"}
{"id":9658185169,"url":"http://farm8.staticflickr.com/7311/9658185169_de20fe8694.jpg","path":"7aa/b54/7aab54b79b869b5a47b217435d40cab3.jpg","date":"2013-08-27","year":2013,"month":8,"lon":-159.50735,"lat":21.902369,"tags":"compost+pile,kauai,mcbryde+garden","S2CellId":"864e640000000000","result":7620,"accuracy":0.031158203,"title":"P1050297"}
{"id":2346743890,"url":"http://farm3.staticflickr.com/2409/2346743890_773c40e3dc.jpg","path":"ff3/115/ff31157b45a914f788c08049217ec.jpg","date":"2008-03-18","year":2008,"month":3,"lon":-159.4936,"lat":21.885065,"tags":"hawaii,kauai,nature+beach","S2CellId":"0d7c000000000000","result":608,"accuracy":0.0031875225,"title":"_MG_8545"}
{"id":4659130111,"url":"http://farm5.staticflickr.com/4006/4659130111_6553c0eb63.jpg","path":"eee/323/eee323d675dfe4443f9ed6a4adc30c9.jpg","date":"2010-05-19","year":2010,"month":5,"lon":-159.39214,"lat":21.97135,"tags":"ceremony,hawai%27i,imu,imu+ceremony,kalua+pig,kalua+pork,kaua%27i,kaua%27i+county,kilohana+plantation,lihu%27e,luau,luau+kalamaku,pig,pig+ceremony,pork,pug","S2CellId":"68c0000000000000","result":6578,"accuracy":0.048343908,"title":"Kaua%27i%3A+Luau+Kalamaku+-+Imu+Ceremony"}
{"id":3588490850,"url":"http://farm3.staticflickr.com/2450/3588490850_21edf0360b.jpg","path":"af2/752/af27524febab4764b743ca5a640b563.jpg","date":"2007-05-27","year":2007,"month":5,"lon":-159.60663,"lat":21.899689,"tags":"alaea,black+clay,clay,family+tradition,hanapepe,hawaiian+salt,hawaiian+tradition,kuulei,paakai,red+salt,salt+patch,salt+pond","S2CellId":"92b0000000000000","result":9640,"accuracy":0.022173036,"title":"salt+pond+083"}
{"id":232434697,"url":"http://farm1.staticflickr.com/93/232434697_d872654e33.jpg","path":"fdc/373/fdc37388a69bf1d7a1f65964e6592a.jpg","date":"2006-01-05","year":2006,"month":1,"lon":-159.49234,"lat":21.886988,"tags":"gardens,hawaii,kauai,mcbryde+gardens,national+tropical+botanical+gardens","S2CellId":"47d8f40000000000","result":4466,"accuracy":0.027160529,"title":"McBryde+Gardens+54+Flower"}
{"id":11507938146,"url":"http://farm4.staticflickr.com/3743/11507938146_70346a619b.jpg","path":"861/91f/86191fe376b3c576ad06fb84c9246ea.jpg","date":"2013-12-23","year":2013,"month":12,"lon":-159.44383,"lat":21.877007,"tags":"instagram+app,iphoneography,square,square+format","S2CellId":"2190000000000000","result":1487,"accuracy":0.2378817,"title":"%23canyon+induced+%23vertigo"}
{"id":3588657558,"url":"http://farm4.staticflickr.com/3402/3588657558_00c00e71dc.jpg","path":"851/939/8519396d936197af7a47bf641b5835c.jpg","date":"2006-07-16","year":2006,"month":7,"lon":-159.60663,"lat":21.899689,"tags":"alaea,black+clay,clay,family+tradition,hanapepe,hawaiian+salt,hawaiian+tradition,kuulei,paakai,red+salt,salt+patch,salt+pond","S2CellId":"534fc00000000000","result":6031,"accuracy":0.031473197,"title":"DSC01537"}
{"id":6256600672,"url":"http://farm7.staticflickr.com/6053/6256600672_3ea099ac8e.jpg","path":"481/ec6/481ec61fd279d9ce6d16eb3a13f05447.jpg","date":"2011-10-01","year":2011,"month":10,"lon":-159.45517,"lat":21.873333,"tags":"2011,by+sarah,kauai,october","S2CellId":"80dc030000000000","result":7325,"accuracy":0.09991251,"title":"IMG_1729.jpg"}
{"id":2767752730,"url":"http://farm4.staticflickr.com/3116/2767752730_b7e4a6ed25.jpg","path":"4a6/6b0/4a66b06503ac9fd414715de4ff92ae.jpg","date":"2008-08-11","year":2008,"month":8,"lon":-159.4385,"lat":21.876295,"tags":"grand+hyatt+kauai,hawaii,kauai","S2CellId":"7955400000000000","result":6875,"accuracy":0.19207424,"title":"Kauai+322"}
{"id":3877372254,"url":"http://farm3.staticflickr.com/2499/3877372254_49c965936f.jpg","path":"756/4eb/7564eb2b7d84196547e2dc3bb2b78b.jpg","date":"2009-08-14","year":2009,"month":8,"lon":-159.64885,"lat":21.966652,"tags":"hawaii,hi,kauai,pentax+18-250mm,pentax+k20d,waimea+canyon","S2CellId":"7c06c00000000000","result":6897,"accuracy":0.6778164,"title":"Waimea+Canyon","description":"%3Cb%3EWaimea+Canyon%0AKauai%2C+Hawaii%3C%2Fb%3E"}
{"id":452819426,"url":"http://farm1.staticflickr.com/237/452819426_8605ad6547.jpg","path":"9c9/5b3/9c95b353c721a4931e3d036ad51fa47.jpg","date":"2007-04-09","year":2007,"month":4,"lon":-159.37042,"lat":21.978706,"tags":"hawaii","S2CellId":"601dc00000000000","result":6555,"accuracy":0.015970504,"title":"Picture+372"}
{"id":2675688975,"url":"http://farm4.staticflickr.com/3071/2675688975_a7ac31ef82.jpg","path":"60f/a52/60fa52ae3b2cd4c73d132617d153588e.jpg","date":"2008-07-10","year":2008,"month":7,"lon":-159.39249,"lat":21.943583,"tags":"2008,hawaii,kauai,vacation","S2CellId":"009bd5c000000000","result":41,"accuracy":0.017437981,"title":"Kipu+Ranch","description":"One+of+our+guides+getting+crazy+with+the+Raiders+rope+swing.+He%27s+about+12+feet+off+the+ground+here."}
{"id":232250470,"url":"http://farm1.staticflickr.com/95/232250470_7d2ea4162f.jpg","path":"803/7c3/8037c3478b67f5309482cd83f0f6ed.jpg","date":"2006-01-03","year":2006,"month":1,"lon":-159.41934,"lat":21.88627,"tags":"gillian%27s+beach,hawaii,kauai","S2CellId":"2300000000000000","result":1490,"accuracy":0.11523177,"title":"Gillins+Beach+14"}
{"id":211576402,"url":"http://farm1.staticflickr.com/62/211576402_49547fbb7e.jpg","path":"795/944/795944e241d60cbb1338943d94c1ff6.jpg","date":"2006-08-08","year":2006,"month":8,"lon":-159.45383,"lat":21.872944,"tags":"hawaii,kauai,poipu,travel","S2CellId":"217d000000000000","result":1486,"accuracy":0.2671667,"title":"Poipu+beach"}
{"id":3492624471,"url":"http://farm4.staticflickr.com/3660/3492624471_9121e018c5.jpg","path":"403/0ce/4030ce6b79c24d2c94f56d25715bc46b.jpg","date":"2009-01-17","year":2009,"month":1,"lon":-159.45538,"lat":21.869205,"tags":"800,adventure,blue,camera,canon,fish,fishies,hawaii,is,kauai,kauai+sea+riders,ocean,sd,snorkeling,underwater,wp-dc9","S2CellId":"6500000000000000","result":6575,"accuracy":0.08299348,"title":"Underwater+Fishes+10","description":"Some+underwater+shots+in+the+Pacific+Ocean+off+the+South+coast+of+Kauai%2C+Hawaii+with+%3Ca+href%3D%22http%3A%2F%2Fwww.kauaisearider.com%22%3EKauai+Sea+Rider%3C%2Fa%3E.%0A%0ATaken+with+a+Canon+SD800+IS+with+the+Canon+WP-DC9+waterproof+camera+case.%0A%0AThis+tour+is+run+by+Tara%2C+a+Marine+Biologist+who+really+knows+the+oceans+the+creatures+and+loves+what+she+does.++There+is+no+better+tour."}
{"id":5278676601,"url":"http://farm6.staticflickr.com/5008/5278676601_1f75d3989a.jpg","path":"234/b12/234b127428b3b15664b6e14d75f46e.jpg","date":"2010-12-20","year":2010,"month":12,"lon":-159.4665,"lat":21.903,"tags":"bike+hugger,hawaii,kauai,vacation","S2CellId":"2dd23d0000000000","result":1544,"accuracy":0.0030987707,"title":"Kauai%3A+Dirty+Socks","description":"Vacation+in+Kauai%2C+riding+bikes%2C+relaxing."}
{"id":2767758712,"url":"http://farm4.staticflickr.com/3225/2767758712_a6f217a4f6.jpg","path":"c0f/f6d/c0ff6d17297c85319c661c56494824f0.jpg","date":"2008-08-11","year":2008,"month":8,"lon":-159.4385,"lat":21.876295,"tags":"grand+hyatt+kauai,hawaii,kauai","S2CellId":"80dc030000000000","result":7325,"accuracy":0.039880097,"title":"Kauai+356"}
{"id":4680471527,"url":"http://farm5.staticflickr.com/4057/4680471527_129059fd9e.jpg","path":"9dc/831/9dc8311ec1bd86998d1dd678522b.jpg","date":"2010-05-21","year":2010,"month":5,"lon":-159.3517,"lat":21.96038,"tags":"beach,hawai%27i,hotel,kalapaki+beach,kaua%27i,kaua%27i+county,kaua%27i+marriot,kaua%27i+marriot+resort,kaua%27i+marriot+resort+and+beach+club,lihu%27e","S2CellId":"7c00100000000000","result":6878,"accuracy":0.37697017,"title":"Kaua%27i+-+Lihu%27e%3A+Kalapaki+Beach","description":"Kalapaki+Beach%2C+along+Rice+Road%2C+fronts+the+Kaua%27i+Marriot+Resort+and+Beach+Club.++The+crescent-shaped+sand+beach+opens+out+to+Nawilwili+Bay+and+Harbor%2C+and+the+Hoary+Head+Mountains."}
