{"id":5745462040,"url":"http://farm6.staticflickr.com/5065/5745462040_3d1dd265d4.jpg","path":"b2e/27d/b2e27d83bff8ca26fe3157a13c4d73c4.jpg","date":"2011-01-19","year":2011,"month":1,"lon":115.91267,"lat":28.679832,"tags":"iphoto+%E5%8E%9F%E5%A7%8B,snowdays","S2CellId":"88dd7fac00000000","result":8631,"accuracy":0.037280962,"title":"image0013"}
{"id":5745713234,"url":"http://farm6.staticflickr.com/5265/5745713234_7d326353bd.jpg","path":"348/61e/34861e68d58720bba1a92933707c60.jpg","date":"2010-12-20","year":2010,"month":12,"lon":115.96616,"lat":28.676167,"tags":"iphoto+%E5%8E%9F%E5%A7%8B,pentax+k-r+photos","S2CellId":"89c2589300000000","result":8971,"accuracy":0.13823056,"title":"IMGP0136+2"}
{"id":5061648701,"url":"http://farm5.staticflickr.com/4091/5061648701_c63c81b213.jpg","path":"265/249/265249d1f6b86bcfe6f65bcd5fbbabbc.jpg","date":"2010-05-16","year":2010,"month":5,"lon":115.97305,"lat":29.586742,"tags":"%E4%B8%AD%E5%9C%8B,%E5%BB%AC%E5%B1%B1,%E6%B1%9F%E8%A5%BF,china,jiangxi,lushan","S2CellId":"8859400000000000","result":8434,"accuracy":0.042057745,"title":"IMGP2901"}
{"id":5744938903,"url":"http://farm4.staticflickr.com/3231/5744938903_1626b3c76f.jpg","path":"dc9/acd/dc9acd84d4ab12a43aa2bf7f662ec473.jpg","date":"2010-12-26","year":2010,"month":12,"lon":115.95233,"lat":28.653833,"tags":"iphoto+%E5%8E%9F%E5%A7%8B,pentax+k-r+photos","S2CellId":"4786f00000000000","result":3612,"accuracy":0.0049796877,"title":"IMGP0320+2"}
{"id":5061840601,"url":"http://farm5.staticflickr.com/4113/5061840601_f11f66c030.jpg","path":"ab8/b77/ab8b77ddea4e6cfb63b463cf349d89.jpg","date":"2010-05-16","year":2010,"month":5,"lon":115.97305,"lat":29.586742,"tags":"%E4%B8%AD%E5%9C%8B,%E5%BB%AC%E5%B1%B1,%E6%B1%9F%E8%A5%BF,china,jiangxi,lushan","S2CellId":"487c700000000000","result":5612,"accuracy":0.07426829,"title":"IMGP2950"}
{"id":5745909436,"url":"http://farm3.staticflickr.com/2334/5745909436_034bef7feb.jpg","path":"4ee/4d2/4ee4d2b2e24dfbaf3bd2e89eaad23c37.jpg","date":"2011-04-05","year":2011,"month":4,"lon":115.859,"lat":28.700167,"tags":"55-300mm%E9%95%BF%E7%84%A6,iphoto+%E5%8E%9F%E5%A7%8B","S2CellId":"2dd7000000000000","result":1556,"accuracy":0.02868156,"title":"IMGP3495+2"}
{"id":12134386126,"url":"http://farm4.staticflickr.com/3750/12134386126_637d288b4b.jpg","path":"74b/dd7/74bdd788c1bac134b8e753657ca34898.jpg","date":"2014-01-12","year":2014,"month":1,"lon":114.36266,"lat":28.100363,"tags":"%23china,%23epicfireworks,%23fireworks,%23m1000","S2CellId":"312f000000000000","result":1733,"accuracy":0.017160518,"title":"%23epicfireworks+%23fireworks+%23china+%23M1000"}
{"id":9524604304,"url":"http://farm6.staticflickr.com/5473/9524604304_a36ae459ba.jpg","path":"fe6/1f3/fe61f39af46fbadf527351c14f27bf8e.jpg","date":"2013-08-16","year":2013,"month":8,"lon":115.99092,"lat":29.72221,"tags":"%E4%B9%9D%E6%B1%9F,%E5%AF%8C%E5%A3%AB,%E6%97%81%E8%BB%B8,%E6%97%85%E8%A1%8C,%E7%99%BD%E9%B9%BF%E6%B4%9E%E6%9B%B8%E9%99%A2,%E7%A6%AE%E8%81%96%E6%AE%BF,%E8%86%A0%E7%89%87,6x7,film,filmisnotdead,fujifilm,gf670,jiujiang,rangfinder,travel,velvia,velvia50","S2CellId":"8085877000000000","result":6979,"accuracy":0.29068887,"title":"Vevleia50-002","description":"Gear%3A+Fujifilm+GF670%0AFilm%3A+Fujifilm+Velvia50+%2FRVP50%0ALocation%3A+School+of+Bailudong%2C+Jiujiang%2C+JX"}
{"id":5062054143,"url":"http://farm5.staticflickr.com/4092/5062054143_499643cb32.jpg","path":"3c7/c63/3c7c63ffb0a79d7ba2d5f4f5d3fb369.jpg","date":"2010-05-18","year":2010,"month":5,"lon":115.97305,"lat":29.586742,"tags":"%E4%B8%AD%E5%9C%8B,%E5%BB%AC%E5%B1%B1,%E6%B1%9F%E8%A5%BF,china,jiangxi,lushan","S2CellId":"3434000000000000","result":2025,"accuracy":0.060406797,"title":"IMGP3144"}
