{"id":8587318041,"url":"http://farm9.staticflickr.com/8379/8587318041_3d02755bb7.jpg","path":"12b/da5/12bda51b1648b24785b4a3289a5a1c32.jpg","date":"2013-03-21","year":2013,"month":3,"lon":-75.59457,"lat":35.90671,"tags":"bank,barrier,beach.+sea,hills,historic,island,kill+devil+hill,kitty+hawk,nags+head,nc,north+carolina,obx,ocean,oceanfront,outer+banks,roanoke,sand,shore,shorefront,site","S2CellId":"89c0b00000000000","result":8924,"accuracy":0.08085216,"title":"Outer+Banks%2C+NC","description":"Outer+Banks%2C+North+Carolina"}
{"id":9230609411,"url":"http://farm3.staticflickr.com/2817/9230609411_f65445181b.jpg","path":"889/1c2/8891c2f264d8f22b34fedccd3ce26bc.jpg","date":"2013-07-02","year":2013,"month":7,"lon":-75.50517,"lat":35.36375,"tags":"avon%2C+nc,clouds,outer+banks,pamlico+sound,rain","S2CellId":"346c400000000000","result":2192,"accuracy":0.025145717,"title":"Rain+Storm+over+Pamlico+Sound"}
{"id":5871662040,"url":"http://farm7.staticflickr.com/6032/5871662040_e69ee8ae4d.jpg","path":"25c/568/25c5683f0ab80a3d0aaf0733e4f41b.jpg","date":"2011-06-14","year":2011,"month":6,"lon":-75.70303,"lat":35.207355,"tags":"2011,outdoors","S2CellId":"89a4000000000000","result":8776,"accuracy":0.5943213,"title":"North+Carolina+-+2011+-+369","description":"Outer+Banks%2C+North+Carolina"}
{"id":3698588435,"url":"http://farm3.staticflickr.com/2613/3698588435_af58700b36.jpg","path":"309/2da/3092daa2eea47cf8b0c45df5bd70b2f8.jpg","date":"2009-06-27","year":2009,"month":6,"lon":-75.63257,"lat":35.96387,"tags":"2009,duck,glider,hanggliding,jockeysridge,killdevilhills,kittyhawk,northcarolina,outer+banks,southernshores,wind","S2CellId":"80ec400000000000","result":7409,"accuracy":0.049770556,"title":"Hang+Gliding+at+Kitty+Hawk"}
{"id":4923500274,"url":"http://farm5.staticflickr.com/4122/4923500274_84f6983c33.jpg","path":"e17/ca2/e17ca282b856f19cee4fc74b1a8f72.jpg","date":"2010-08-21","year":2010,"month":8,"lon":-75.422516,"lat":35.818577,"tags":"canon+ef+300mm+f%2F4l+is+usm,canon+ef+extender+1.4x+ii,canon+eos+rebel+xsi,nature,outdoors,wildlife","S2CellId":"89a4000000000000","result":8776,"accuracy":0.105100974,"title":"Audubon%27s+Shearwater"}
{"id":5766960504,"url":"http://farm4.staticflickr.com/3047/5766960504_59dc9e656d.jpg","path":"19d/217/19d217524b3fa2d2bccd0f1ff17c31d.jpg","date":"2011-05-27","year":2011,"month":5,"lon":-75.52912,"lat":35.25097,"tags":"cape+hatteras+lighthouse","S2CellId":"89a4000000000000","result":8776,"accuracy":0.34191555}
{"id":90067152,"url":"http://farm1.staticflickr.com/13/90067152_73556df4b8.jpg","path":"fe8/a54/fe8a545f1b1b1d9bedd7da32360e9a6.jpg","date":"2005-09-22","year":2005,"month":9,"lon":-75.987305,"lat":35.111237,"tags":"beach,blackbeard,nc,ocean,ocracoke,shipwreck,summer","S2CellId":"8140000000000000","result":7413,"accuracy":0.04986389,"title":"ocock04+142"}
{"id":5871591890,"url":"http://farm6.staticflickr.com/5160/5871591890_5a56ec267f.jpg","path":"37a/aa5/37aaa52ceaa3f19e80106bbb397feba8.jpg","date":"2011-06-12","year":2011,"month":6,"lon":-75.631386,"lat":35.9596,"tags":"2011,outdoors","S2CellId":"07b4000000000000","result":115,"accuracy":0.03886465,"title":"North+Carolina+-+2011+-+032","description":"Outer+Banks%2C+North+Carolina"}
{"id":13930627546,"url":"http://farm4.staticflickr.com/3781/13930627546_ccdda3f48f.jpg","path":"17b/79d/17b79da5f19de0e674d75e4a795ba9.jpg","date":"2014-04-09","year":2014,"month":4,"lon":-75.597885,"lat":35.256554,"tags":"banks,cape,carolina,hatteras,north,obx,outer","S2CellId":"87d8b54000000000","result":8008,"accuracy":0.0065848166,"title":"IMG_1590"}
{"id":13930687841,"url":"http://farm8.staticflickr.com/7048/13930687841_9f6d8e1688.jpg","path":"d5f/5c2/d5f5c2c5fe252cfe70883c3380a015bf.jpg","date":"2014-04-09","year":2014,"month":4,"lon":-75.597885,"lat":35.256554,"tags":"banks,cape,carolina,hatteras,north,obx,outer","S2CellId":"80dead0000000000","result":7390,"accuracy":0.006043503,"title":"IMG_1427"}
{"id":9353719875,"url":"http://farm6.staticflickr.com/5495/9353719875_ba4fe9426f.jpg","path":"ff3/884/ff388466fc7e6c7dac3dc0e94685be.jpg","date":"2013-04-27","year":2013,"month":4,"lon":-75.6961,"lat":35.212788,"tags":"2013,asitrac,hatteras,north+carolina,travel,us,usa","S2CellId":"4651000000000000","result":2842,"accuracy":0.088751,"title":"Hatteras+Sands+Campground"}
{"id":3686271723,"url":"http://farm3.staticflickr.com/2583/3686271723_c644c6d9d1.jpg","path":"9a2/62a/9a262a41fc3c3633f569e631b9313dfe.jpg","date":"2009-06-30","year":2009,"month":6,"lon":-75.49327,"lat":35.71562,"tags":"beach,coast,nc,north+carolina,pea+island+refuge,turtles","S2CellId":"94ce59f000000000","result":9723,"accuracy":0.012044397,"title":"Turtles+North+Pond+Trail+Pea+Island+Wildlife+Refuge+OBX+NC+0417"}
{"id":2284525009,"url":"http://farm4.staticflickr.com/3175/2284525009_5cf88570ba.jpg","path":"8b9/0fc/8b90fcd4bde17d659c744a88bd468d8.jpg","date":"2007-12-27","year":2007,"month":12,"lon":-75.63263,"lat":35.96314,"tags":"d50,nikon,outer+banks,sand+dunes,wide+angle","S2CellId":"8085940000000000","result":6982,"accuracy":0.04702768,"title":"dunes1","description":"Jockey%27s+Ridge+park%3B+Outer+Banks%2C+NC"}
{"id":3685572553,"url":"http://farm3.staticflickr.com/2457/3685572553_5566622ee5.jpg","path":"e7c/a64/e7ca64973e59d1713e8f22fa256a640.jpg","date":"2009-06-29","year":2009,"month":6,"lon":-75.915375,"lat":35.836132,"tags":"alligator+river,nc,north+carolina,sandy+ridge+trail","S2CellId":"88d0a631cabb5071","result":8563,"accuracy":0.10523219,"title":"Creek+Reflection+Sandy+Ridge+Wildlife+Trail+Alligator+River+Wildlife+Refuge+NC++0274"}
{"id":1825257952,"url":"http://farm3.staticflickr.com/2296/1825257952_29cf918458.jpg","path":"5c1/c2c/5c1c2c5ddda797cfe102df1aa41cfb0.jpg","date":"2007-10-21","year":2007,"month":10,"lon":-75.475815,"lat":35.534462,"tags":"albemarle+sound,atlantic+ocean,banks,barrier+islands,beach,beach+front,beaches,destination,graveyard+of+the+atlantic,north+carolina,ocean,outer,outer+banks,pamlico+sound,sand,sound,sun,sunrise,sunset,surf,tourism,tourist,vacation,virginia,waves","S2CellId":"80dc010000000000","result":7324,"accuracy":0.024616726,"title":"Sunrise+on+the+Outer+Banks+%5B5%5D","description":"Outer+Banks+October+2007"}
{"id":3758175098,"url":"http://farm4.staticflickr.com/3536/3758175098_bf2a99bf8e.jpg","path":"cec/74a/cec74a94aa5b3165c5c82d234f689625.jpg","date":"2009-07-18","year":2009,"month":7,"lon":-75.63516,"lat":35.96008,"tags":"2009,daytime,desert,duck,largest+on+east+coast,nags+head%2C+north+carolina,nature,north+carolina,obx,outdoors,outer+banks,portraits,sand,sand+dunes,summer","S2CellId":"0d54c00000000000","result":454,"accuracy":0.34759045,"title":"DSC01798"}
{"id":2819606876,"url":"http://farm4.staticflickr.com/3043/2819606876_e0d5b259fe.jpg","path":"74a/28c/74a28c7c68891be01e511fecfff88a3b.jpg","date":"2008-08-31","year":2008,"month":8,"lon":-75.97355,"lat":35.102493,"tags":"aug+2008,get+out+philadelphia,ocracoke+beach+camping","S2CellId":"89c6700000000000","result":9138,"accuracy":0.09787632,"title":"Tent+packing"}
{"id":3167201029,"url":"http://farm2.staticflickr.com/1010/3167201029_68b652b2fc.jpg","path":"99c/776/99c77689b543fd3ba5f89ce6649ea549.jpg","date":"2008-12-29","year":2008,"month":12,"lon":-75.70122,"lat":35.207092,"tags":"cape+hatteras","S2CellId":"487b450000000000","result":5565,"accuracy":0.04942482,"title":"Hatteras+New+Years+08-09"}
{"id":90067352,"url":"http://farm1.staticflickr.com/18/90067352_77774f8383.jpg","path":"e3b/b5e/e3bb5e061e23fdcddec45a92b93742c.jpg","date":"2005-09-22","year":2005,"month":9,"lon":-75.987305,"lat":35.111237,"tags":"beach,blackbeard,nc,ocean,ocracoke,shipwreck,summer","S2CellId":"872f000000000000","result":7782,"accuracy":0.023718009,"title":"ocock04+176"}
{"id":3922654117,"url":"http://farm4.staticflickr.com/3232/3922654117_43263bd0ce.jpg","path":"1df/8f7/1df8f7f620c7caec68b0e0c28bc0b7.jpg","date":"2009-09-14","year":2009,"month":9,"lon":-75.514496,"lat":35.297886,"tags":"atlantic,beach,cape-hatteras,obx,ocean,outer-banks,sunset","S2CellId":"80dc070000000000","result":7326,"accuracy":0.13828412,"title":"Sunset+%3F%3Fsideways%3F%3F","description":"may+have+gotten+bored"}
{"id":4098245131,"url":"http://farm3.staticflickr.com/2468/4098245131_0f9a8cdb28.jpg","path":"8b1/1ef/8b11efffd9c7f12f7fcaf779bd704496.jpg","date":"2009-11-12","year":2009,"month":11,"lon":-75.46573,"lat":35.60809,"tags":"12,20091112storm,cape,hatteras,hwy12,ida,miro+beach,ne,ne%27ster,obx,overwash,rodanthe,storm,topical+depression","S2CellId":"1331c00000000000","result":1122,"accuracy":0.014627478,"title":"BRYANELKUS_93627","description":"%3Ca+href%3D%22http%3A%2F%2Fwww.bryanelkus.com%2F2009%2F11%2Fnester-hits-cape-hatteras-nc.html%22+rel%3D%22nofollow%22%3ENE%27ster+Hits+Cape+Hatteras%3C%2Fa%3E"}
{"id":8902602419,"url":"http://farm3.staticflickr.com/2887/8902602419_b49fff925b.jpg","path":"72d/3e0/72d3e07439c2721ebdfb17d9a7715e8a.jpg","date":"2013-05-26","year":2013,"month":5,"lon":-75.582664,"lat":35.884167,"tags":"beach,memorial+day+2013,nags+head,outer+banks","S2CellId":"8824b00000000000","result":8226,"accuracy":0.014851603,"title":"Outer+Banks+Vacation+-+Memorial+Day+2013","description":"Standing+on+the+balcony%2C+toasting+Tim%27s+40th.+L+to+R%3A+Lauren%2C+Chad+and+Kasey."}
{"id":4949130010,"url":"http://farm5.staticflickr.com/4085/4949130010_0431c5186e.jpg","path":"ec7/9c1/ec79c1b915191fd3ad7ff4e17fff25cd.jpg","date":"2010-07-29","year":2010,"month":7,"lon":-75.50676,"lat":35.32587,"tags":"avon,beach,clouds,hatteras,horizon,north+carolina,obx,ocean,outer+banks,sand,sea,shore,sky","S2CellId":"89a4000000000000","result":8776,"accuracy":0.035750587,"title":"Atlantic+Sky"}
{"id":5871661638,"url":"http://farm4.staticflickr.com/3249/5871661638_e2230929d0.jpg","path":"95a/a14/95aa14d2309a26b0d11fda674fa0a3f4.jpg","date":"2011-06-14","year":2011,"month":6,"lon":-75.70303,"lat":35.207355,"tags":"2011,outdoors","S2CellId":"89a4000000000000","result":8776,"accuracy":0.53263766,"title":"North+Carolina+-+2011+-+367","description":"Outer+Banks%2C+North+Carolina"}
{"id":283759239,"url":"http://farm1.staticflickr.com/116/283759239_179347a7d9.jpg","path":"bdf/630/bdf63047859b02cad526fb53d1e198.jpg","date":"2006-10-16","year":2006,"month":10,"lon":-75.53238,"lat":35.239204,"tags":"cape+hatteras+lighthouse,lighthouse","S2CellId":"89a4000000000000","result":8776,"accuracy":0.1492119,"title":"Cape+Hatteras+Lighthouse","description":"Standing+in+the+shade+of+a+giant+makes+for+a+good+pic."}
{"id":2986127478,"url":"http://farm4.staticflickr.com/3013/2986127478_9644d98d3e.jpg","path":"593/51d/59351d1bff7ef40525857341d9349e.jpg","date":"2008-10-15","year":2008,"month":10,"lon":-75.75193,"lat":35.20271,"tags":"albemarle+sound,atlantic+ocean,banks,barrier+islands,beach,beach+front,beaches,cape+hatteras,destination,graveyard+of+the+atlantic,hatteras,north+carolina,ocean,outer,outer+banks,pamlico+sound,sand,sound,sun,sunrise,sunset,surf,tourism,tourist,vacation,virginia,waves","S2CellId":"48761ca550000000","result":5339,"accuracy":0.041944597,"title":"Mandy+%26+Nellie+meet+Whiskey+018","description":"taken+from+Hatteras-Ocracoke+Ferry+en+route%0A%0AHatteras+2008"}
{"id":12120671786,"url":"http://farm4.staticflickr.com/3726/12120671786_ce6526b88d.jpg","path":"cd9/522/cd9522bffe29214629844f3ff92245f.jpg","date":"2014-01-20","year":2014,"month":1,"lon":-75.49427,"lat":35.720036,"tags":"abandoned,beach,beached,blue+sky,circular+polarizer,cpl,d600,graveyard+of+the+atlantic,low+pov,nd,nikon,obx,outer+banks,pea+island,polarizer,sail+boat,sand,shells,shipwreck,windy","S2CellId":"47def00000000000","result":4511,"accuracy":0.026160538,"title":"Graveyard+of+the+Atlantic+%7C+Outer+Banks%2C+NC","description":"Back+in+October%2C+two+sailboats+ran+aground+near+Pea+Island+on+the+Outer+Banks.+Story+goes%2C+a+man+was+towing+a+Hurricane+Sandy-damaged+one+to+Florida+from+New+Jersey+when+at+night%2C+they+ran+aground+and+washed+ashore.+At+some+point+in+the+following+months%2C+one+of+the+boats+began+to+break+apart+on+the+beach+and+was+cut+up+and+removed.+The+other%2C+%27Belle%2C%27+remains.+The+man+attempted+to+get+them+both+afloat+again+in+the+months+after+running+aground%2C+but+has+given+up+and+supposedly+left+the+area.+The+Graveyard+of+the+Atlantic+has+claimed+another.+%0A%0A%3Ca+href%3D%22http%3A%2F%2Fwww.facebook.com%2Fuprootedphotographer%22+rel%3D%22nofollow%22%3EFacebook%3C%2Fa%3E+%7C+%3Ca+href%3D%22http%3A%2F%2Fwww.uprootedphotographer.com%22+rel%3D%22nofollow%22%3Ewww.uprootedphotographer.com%3C%2Fa%3E+%7C+%3Ca+href%3D%22http%3A%2F%2Fwww.gplus.to%2Fuprootedphotographer%22+rel%3D%22nofollow%22%3EGoogle%2B%3C%2Fa%3E+%7C+%3Ca+href%3D%22http%3A%2F%2Fwww.500px.com%2FUprootedPhotographer%22+rel%3D%22nofollow%22%3E500px%3C%2Fa%3E%0A%0A%C2%A92014+Zach+Frailey"}
{"id":2310951167,"url":"http://farm4.staticflickr.com/3226/2310951167_c1ed44f44e.jpg","path":"f01/eea/f01eeaa9f2f0a1693126d8dcbe46ed2.jpg","date":"2007-12-27","year":2007,"month":12,"lon":-75.63263,"lat":35.96314,"tags":"d50,nikon,outer+banks,sand+dunes,wide+angle","S2CellId":"808587c000000000","result":6980,"accuracy":0.066877335,"title":"girls","description":"Jockey%27s+Ridge+park%3B+Outer+Banks%2C+NC"}
{"id":1185367041,"url":"http://farm2.staticflickr.com/1368/1185367041_bd78124f11.jpg","path":"f01/2bf/f012bff80cee51a97ba9cc1f860b9cf.jpg","date":"2006-08-07","year":2006,"month":8,"lon":-75.93389,"lat":35.118294,"tags":"beach,cape+haterras+national+seashore,island,nc,north+carolina,obx,ocean,ocracoke,outer+banks,sand,sun","S2CellId":"464f400000000000","result":2826,"accuracy":0.07699139,"title":"The+Beach+On+Ocracoke+Island","description":"On+the+beach+at+Ocracoke%2C+along+the+Outer+Banks+of+North+Carolina.+Selected+in+2007+as+best+beach+in+the+U.S."}
{"id":3922344264,"url":"http://farm3.staticflickr.com/2497/3922344264_8859e7fe39.jpg","path":"a08/bfe/a08bfe149359b448b59c38a144c21dc6.jpg","date":"2009-09-14","year":2009,"month":9,"lon":-75.63119,"lat":35.95786,"tags":"atlantic,beach,blue-skies,desert,dunes,jockeys-ridge,largest-sand-dune,obx,ocean,outer-banks,park,sand,sand-dunes,seashore,sun","S2CellId":"07f0000000000000","result":124,"accuracy":0.13762411,"title":"Jockey%27s+Ridge+State+Park"}
{"id":6185407800,"url":"http://farm7.staticflickr.com/6168/6185407800_cf1f1ea4c1.jpg","path":"299/6d4/2996d47962366075cc3717d77390e324.jpg","date":"2011-09-23","year":2011,"month":9,"lon":-75.48383,"lat":35.686928,"tags":"hurricane+irene,nc+12,ncdot,obx,pea+island,rodanthe,temporary+bridge","S2CellId":"88e0a40000000000","result":8645,"accuracy":0.09684393,"title":"Temporary+Bridge+on+NC+12+at+Pea+Island+-+Weekend+Work","description":"Concrete+Formwork+for+Bent+3+Footings"}
{"id":189079595,"url":"http://farm1.staticflickr.com/64/189079595_a7d136410e.jpg","path":"d28/c8a/d28c8a6da6343a176bf9f6cc65c0.jpg","date":"2006-07-04","year":2006,"month":7,"lon":-75.602585,"lat":35.921307,"tags":"nagshead","S2CellId":"133a400000000000","result":1132,"accuracy":0.19736283,"title":"CRW_2384.jpg"}
{"id":3167300787,"url":"http://farm4.staticflickr.com/3125/3167300787_7d25167623.jpg","path":"35e/616/35e6163db84167e4fe871fa7d177b21.jpg","date":"2009-01-01","year":2009,"month":1,"lon":-75.70122,"lat":35.207092,"tags":"cape+hatteras","S2CellId":"89a4000000000000","result":8776,"accuracy":0.041150242,"title":"Hatteras+New+Years+08-09"}
{"id":189145090,"url":"http://farm1.staticflickr.com/67/189145090_6335efbc98.jpg","path":"3a4/885/3a4885e871d4db3103b1c6a8ed6d0a.jpg","date":"2006-07-02","year":2006,"month":7,"lon":-75.602585,"lat":35.921307,"tags":"nagshead","S2CellId":"89a4000000000000","result":8776,"accuracy":0.08651228,"title":"PICT0054.jpg"}
{"id":1825177820,"url":"http://farm3.staticflickr.com/2403/1825177820_6309a833b7.jpg","path":"b22/080/b22080f49a1aeb498ace58ea6c1a7ff.jpg","date":"2007-10-23","year":2007,"month":10,"lon":-75.475815,"lat":35.534462,"tags":"albemarle+sound,atlantic+ocean,banks,barrier+islands,beach,beach+front,beaches,destination,graveyard+of+the+atlantic,north+carolina,ocean,outer,outer+banks,pamlico+sound,sand,sound,sun,sunrise,sunset,surf,tourism,tourist,vacation,virginia,waves","S2CellId":"88c3500000000000","result":8543,"accuracy":0.023352819,"title":"Sunset+on+Pamlico+Sound","description":"Outer+Banks+October+2007"}
{"id":7012194977,"url":"http://farm7.staticflickr.com/6216/7012194977_f63ac0ce82.jpg","path":"dd8/d4d/dd8d4df48a5c5ca269b576ea2521c760.jpg","date":"2012-03-24","year":2012,"month":3,"lon":-75.77783,"lat":35.190834,"tags":"north+carolina,the+outer+banks","S2CellId":"07f0000000000000","result":124,"accuracy":0.05762981,"title":"Ocracoke+Island"}
{"id":2380576454,"url":"http://farm3.staticflickr.com/2053/2380576454_deac5b32d9.jpg","path":"a95/40d/a9540d49595636fa6a487e6811b9.jpg","date":"2008-03-28","year":2008,"month":3,"lon":-75.47468,"lat":35.65081,"tags":"beach,bird,flight,obx,seagull","S2CellId":"866c000000000000","result":7681,"accuracy":0.04417221,"title":"Seagull"}
{"id":189143157,"url":"http://farm1.staticflickr.com/60/189143157_882c316f64.jpg","path":"375/515/3755153b6a75508c2f62416bfc0e273.jpg","date":"2006-07-08","year":2006,"month":7,"lon":-75.602585,"lat":35.921307,"tags":"nagshead","S2CellId":"89a4000000000000","result":8776,"accuracy":0.28085208,"title":"Focus+Shmocus","description":"As+shot+-+direct+from+the+camera.+++Taken+about+5%3A00+a.m.+using+the+light+from+the+single+houselight+next+door.++The+camera+was+sitting+on+a+chair+for+the+photo+-+I+think+it+was+wind+shaking+the+camera+that+caused+the+blur."}
{"id":3603949739,"url":"http://farm4.staticflickr.com/3634/3603949739_7b5b744853.jpg","path":"53f/2fa/53f2fa6edc231586e245cbc8f92635be.jpg","date":"2005-01-03","year":2005,"month":1,"lon":-75.50354,"lat":35.34154,"tags":"2009,beach,north+carolina,vacation","S2CellId":"536c000000000000","result":6045,"accuracy":0.081751205,"title":"100_2378+2"}
{"id":189140126,"url":"http://farm1.staticflickr.com/66/189140126_9c500551fd.jpg","path":"5d6/09e/5d609e9410d2704e85197f6b7e337f3.jpg","date":"2006-07-03","year":2006,"month":7,"lon":-75.602585,"lat":35.921307,"tags":"nagshead","S2CellId":"8900c00000000000","result":8769,"accuracy":0.13990957,"title":"CRW_2285.jpg"}
{"id":5871676160,"url":"http://farm6.staticflickr.com/5268/5871676160_5cd998159e.jpg","path":"a4e/4f6/a4e4f66e9fa4342c95dce4a36c3a49e.jpg","date":"2011-06-16","year":2011,"month":6,"lon":-75.59922,"lat":35.916374,"tags":"2011,outdoors","S2CellId":"88d0a631cabb5071","result":8563,"accuracy":0.036003187,"title":"North+Carolina+-+2011+-+438","description":"Outer+Banks%2C+North+Carolina"}
{"id":4515534083,"url":"http://farm5.staticflickr.com/4001/4515534083_4103c71020.jpg","path":"ff9/e4e/ff9e4e879deb2fb2a629e49f762a114.jpg","date":"2005-06-23","year":2005,"month":6,"lon":-75.64087,"lat":35.96314,"tags":"jockeys+ridge+state+park,kitty+hawk,sand+dunes","S2CellId":"0d54c00000000000","result":454,"accuracy":0.1950359,"title":"IMG_1155"}
{"id":3311459741,"url":"http://farm4.staticflickr.com/3451/3311459741_77cbbda31c.jpg","path":"cbb/2ae/cbb2ae8a917be2788920333c3c36fbba.jpg","date":"2009-02-21","year":2009,"month":2,"lon":-75.6328,"lat":35.962307,"tags":"dunes,jim+liestman,outer+banks","S2CellId":"1c70000000000000","result":1446,"accuracy":0.09808649,"title":"Jockey%27s+Ridge+State+Park","description":"Located+in+Nag%27s+Head%2C+North+Carolina+on+the+Outer+Banks."}
{"id":5430955006,"url":"http://farm6.staticflickr.com/5298/5430955006_392136bcb8.jpg","path":"6de/496/6de496e8024db2b2be1b1cc28b13459.jpg","date":"2011-01-23","year":2011,"month":1,"lon":-75.85201,"lat":35.846344,"tags":"aligatorriver,downeast,nc,nwr,outdoors","S2CellId":"88d0a631cabb5071","result":8563,"accuracy":0.009535775,"title":"Ice+Closeup+Alligator+River+Wildlife+Refuge+NC++0632"}
{"id":2712994288,"url":"http://farm4.staticflickr.com/3097/2712994288_3135b8a11e.jpg","path":"42a/a1b/42aa1bc01988f738676aa65e53e93ff6.jpg","date":"2008-07-27","year":2008,"month":7,"lon":-75.50062,"lat":35.352543,"tags":"beach,cape+hatteras,carolina,hatteras,nags+head,nc,obx,outer+banks,vacation","S2CellId":"89a4000000000000","result":8776,"accuracy":0.32412812,"title":"pretty+beach+house"}
{"id":8587315239,"url":"http://farm9.staticflickr.com/8240/8587315239_0c3e77ae34.jpg","path":"544/d7e/544d7e15f17694cbe3e409e625c9d71.jpg","date":"2013-03-21","year":2013,"month":3,"lon":-75.59457,"lat":35.90671,"tags":"bank,barrier,beach.+sea,hills,historic,island,kill+devil+hill,kitty+hawk,nags+head,nc,north+carolina,obx,ocean,oceanfront,outer+banks,roanoke,sand,shore,shorefront,site","S2CellId":"89a4000000000000","result":8776,"accuracy":0.11663353,"title":"Outer+Banks%2C+NC","description":"Outer+Banks%2C+North+Carolina"}
{"id":6000949014,"url":"http://farm7.staticflickr.com/6123/6000949014_fa98755d29.jpg","path":"cfd/d44/cfdd44d56f303ee6f8471e69f79bf1e3.jpg","date":"2011-05-29","year":2011,"month":5,"lon":-75.50282,"lat":35.366573,"tags":"banks,kayak,outer,sound,sunset","S2CellId":"487f500000000000","result":5668,"accuracy":0.023538152,"title":"Sunset+kayaking"}
{"id":4922949511,"url":"http://farm5.staticflickr.com/4082/4922949511_b7befd546a.jpg","path":"6ee/c8c/6eec8cd9d0ed9df050d5a7421ffd1f7.jpg","date":"2010-08-22","year":2010,"month":8,"lon":-75.422516,"lat":35.818577,"tags":"canon+ef+300mm+f%2F4l+is+usm,canon+ef+extender+1.4x+ii,canon+eos+rebel+xsi,nature,outdoors,wildlife","S2CellId":"89a4000000000000","result":8776,"accuracy":0.065294124,"title":"Great+Shearwater"}
{"id":233197113,"url":"http://farm1.staticflickr.com/93/233197113_54454b7dd5.jpg","path":"bac/aa7/bacaa7da66d6f556eb83dcf294c11.jpg","date":"2006-09-03","year":2006,"month":9,"lon":-75.60674,"lat":35.903137,"tags":"bjnok,nano,north+carolina,outer+banks,road+trip,road+trip+2006,shane,zachs+perspective","S2CellId":"6ab7000000000000","result":6606,"accuracy":0.01806725,"title":"Hands+in+the+Pants","description":"*Photo+courtesy+of+Zach+Bushnell"}
{"id":8904600412,"url":"http://farm3.staticflickr.com/2828/8904600412_a2bc4151fc.jpg","path":"7fb/1d2/7fb1d2e54d398f3f396368a181c9f.jpg","date":"2013-05-27","year":2013,"month":5,"lon":-75.61533,"lat":35.24383,"tags":"obx,violet+brashier","S2CellId":"87cb000000000000","result":7985,"accuracy":0.039243728}
{"id":6407352499,"url":"http://farm8.staticflickr.com/7008/6407352499_6a60b3370e.jpg","path":"161/a42/161a424db492d0373fea333460572f52.jpg","date":"2011-11-18","year":2011,"month":11,"lon":-75.66765,"lat":35.760162,"tags":"2011,banks,carolina,nc,north,outer,sailboat,wanchese","S2CellId":"468b000000000000","result":2955,"accuracy":0.053316846,"title":"Outer+Banks","description":"S%2FV+Dorothy+Ann+escapes+from+Wanchese%2C+NC."}
{"id":4025342465,"url":"http://farm3.staticflickr.com/2478/4025342465_daa55eda55.jpg","path":"a24/8f4/a248f45395e12598db33867ba5fdb7.jpg","date":"2009-10-19","year":2009,"month":10,"lon":-75.62759,"lat":35.2281,"tags":"beach,frisco,hatteras,sunrise","S2CellId":"88fd000000000000","result":8754,"accuracy":0.05146657,"title":"DSC_0297","description":"Offshore+breeze+at+sunrise%2C+Frisco%2C+NC+10-19-2009"}
{"id":3857486531,"url":"http://farm4.staticflickr.com/3487/3857486531_a80db4934e.jpg","path":"bae/a35/baea351e9fca74264364daf228ffe94.jpg","date":"2009-05-23","year":2009,"month":5,"lon":-75.87164,"lat":35.14838,"tags":"horse,obx,ocracoke,outer+banks","S2CellId":"48cd000000000000","result":5785,"accuracy":0.06476187,"title":"Horse+Portrait","description":"Ocracoke+Island+Horses"}
{"id":272670872,"url":"http://farm1.staticflickr.com/83/272670872_e2a882c10b.jpg","path":"8ab/83f/8ab83f2fa8e2aae778c70a67f7ae49.jpg","date":"2006-10-15","year":2006,"month":10,"lon":-75.71256,"lat":35.938908,"tags":"banks,carolina,duck,elizabethan,gardens,manteo,north,october,outer,trip,vacation","S2CellId":"6d2d000000000000","result":6809,"accuracy":0.19383688,"title":"Tillandsia+usneoides","description":"Spanish+Moss"}
{"id":17870319,"url":"http://farm1.staticflickr.com/13/17870319_bc4b689409.jpg","path":"651/f6c/651f6c6dea2a92a9b2de1d9e928f3a1a.jpg","date":"2005-05-23","year":2005,"month":5,"lon":-75.98435,"lat":35.114994,"tags":"obx,ocracoke,theparadigmshifter","S2CellId":"89a8c00000000000","result":8777,"accuracy":0.10713592,"title":"stop","description":"watch+out+for+that+bay+there.++you+don%27t+want+to+drive+there"}
{"id":11474198524,"url":"http://farm6.staticflickr.com/5483/11474198524_a1548609a1.jpg","path":"a32/e41/a32e41dbdff9071e5bf7ff81066c7.jpg","date":"2013-11-28","year":2013,"month":11,"lon":-75.62971,"lat":35.97759,"tags":"airborne,kite,kite+surfing,north+carolina,obx,outer+banks,waves","S2CellId":"47acc00000000000","result":3959,"accuracy":0.02848189,"title":"Shredding+2","description":"As+I+took+my+picture+of+the+crooked+house%2C+this+kite+surfer+swooped+by."}
{"id":3611224075,"url":"http://farm4.staticflickr.com/3405/3611224075_5d81c9425b.jpg","path":"455/426/45542648f04f8f71b0a66235a1a099fe.jpg","date":"2009-05-08","year":2009,"month":5,"lon":-75.63915,"lat":35.22427,"tags":"2009,boy,east+coast,frisco,north+carolina,obx,ocean,outer+banks,spring,swimming,usa,vacation","S2CellId":"89a4000000000000","result":8776,"accuracy":0.008457476,"title":"Swimming+Out","description":"Sharks%3F+What+sharks%3F+Despite+Frisco+having+the+rep+of+being+shark-central+in+the+Outer+Banks%2C+didn%27t+see+a+single+one.+Probably+a+good+thing."}
{"id":6191955071,"url":"http://farm7.staticflickr.com/6125/6191955071_da752ba73a.jpg","path":"cf8/5cc/cf85ccafad8cd49e20a6945aa0cc3b.jpg","date":"2011-09-27","year":2011,"month":9,"lon":-75.46558,"lat":35.608063,"tags":"hurricane+irene,nc+12,ncdot,obx,pea+island,rodanthe,temporary+bridge","S2CellId":"8797400000000000","result":7925,"accuracy":0.19083707,"title":"NC+12+-+Rodanthe+Progress","description":"Preparing+Road+Bed+for+Asphalt+Paving"}
{"id":4937870777,"url":"http://farm5.staticflickr.com/4080/4937870777_0efe8d9dda.jpg","path":"df8/076/df8076227aa086b0b0c4bc394abfcd86.jpg","date":"2010-07-28","year":2010,"month":7,"lon":-75.50676,"lat":35.32587,"tags":"beach,flowers,north+carolina,orange,red,wild,yellow","S2CellId":"46f9000000000000","result":3115,"accuracy":0.014571272,"title":"Beach+Flora"}
{"id":5654000727,"url":"http://farm6.staticflickr.com/5030/5654000727_f4c85d6d2e.jpg","path":"b8c/24c/b8c24c54257ff56e5fd8d1b09c1c94.jpg","date":"2011-04-23","year":2011,"month":4,"lon":-75.46431,"lat":35.56442,"tags":"beach","S2CellId":"89a4000000000000","result":8776,"accuracy":0.08172881,"title":"Outer+Banks+2011","description":"Shots+from+Easter+and+the+Outer+Banks+with+family."}
{"id":8903207113,"url":"http://farm4.staticflickr.com/3769/8903207113_efa92238c2.jpg","path":"626/526/6265261e7411d1cbd97594f16072117.jpg","date":"2013-05-25","year":2013,"month":5,"lon":-75.58183,"lat":35.884335,"tags":"beach,memorial+day+2013,nags+head,outer+banks","S2CellId":"89a4000000000000","result":8776,"accuracy":0.083227426,"title":"Outer+Banks+Vacation+-+Memorial+Day+2013","description":"Ahhh+...+bliss."}
{"id":823605964,"url":"http://farm2.staticflickr.com/1130/823605964_1fd74330b8.jpg","path":"e1e/bc4/e1ebc473c82d34fdc1f0814c76bae716.jpg","date":"2007-05-27","year":2007,"month":5,"lon":-75.532036,"lat":35.774788,"tags":"0507nctrip,bird,laridae,nature,ocean,sandwich+tern,sterninae,tern,thalasseus,thalasseus+sandvicensis","S2CellId":"88d0a631cabb5071","result":8563,"accuracy":0.008553927,"title":"Sandwich+Tern"}
{"id":5871652308,"url":"http://farm7.staticflickr.com/6048/5871652308_f6dccaebde.jpg","path":"38d/7a6/38d7a67b46d8b76e9764241266be2da.jpg","date":"2011-06-14","year":2011,"month":6,"lon":-75.66832,"lat":35.908226,"tags":"2011,outdoors","S2CellId":"88fb400000000000","result":8743,"accuracy":0.19643007,"title":"North+Carolina+-+2011+-+323","description":"Outer+Banks%2C+North+Carolina"}
{"id":3451594850,"url":"http://farm4.staticflickr.com/3543/3451594850_2840d7ace4.jpg","path":"cd5/83f/cd583f78871bc15a9693957bae5fb5b1.jpg","date":"2009-04-15","year":2009,"month":4,"lon":-75.573814,"lat":35.86904,"tags":"beach,nc,obx,outer+banks","S2CellId":"8084500000000000","result":6907,"accuracy":0.0043810643,"title":"IMG_3151.JPG","description":"Some+of+Emily%27s+fabulous+pickles."}
{"id":3611305401,"url":"http://farm4.staticflickr.com/3331/3611305401_89b9e5577f.jpg","path":"f0b/4a1/f0b4a1d4b7a051886be7e74609f302c.jpg","date":"2009-05-06","year":2009,"month":5,"lon":-75.51056,"lat":35.29907,"tags":"2009,canadian+hole,east+coast,ego+beach,north+carolina,obx,ocean,outer+banks,spring,usa,vacation,windsurfing","S2CellId":"808e540000000000","result":7007,"accuracy":0.53861904,"title":"Get+Ready+For+Launch"}
{"id":5944363822,"url":"http://farm7.staticflickr.com/6025/5944363822_ae8d1ef618.jpg","path":"c28/86f/c2886f4cddcc7b9a20f17f505e641115.jpg","date":"2011-07-09","year":2011,"month":7,"lon":-75.62914,"lat":35.961628,"tags":"dune,jockey%27s+ridge,north+carolina,outer+banks,storm","S2CellId":"0c30000000000000","result":127,"accuracy":0.108602904,"title":"Storm+coming+over+Jockey%27s+Ridge"}
{"id":13953726885,"url":"http://farm3.staticflickr.com/2911/13953726885_322e36250f.jpg","path":"3f0/646/3f0646272918cac24152daa55ac581.jpg","date":"2014-04-09","year":2014,"month":4,"lon":-75.597885,"lat":35.256554,"tags":"banks,cape,carolina,hatteras,north,obx,outer","S2CellId":"185c000000000000","result":1431,"accuracy":0.023017345,"title":"IMG_1576"}
{"id":5201022549,"url":"http://farm6.staticflickr.com/5241/5201022549_dc79c5fb05.jpg","path":"e29/047/e29047af63e57d3bc279cf3298e75e7.jpg","date":"2010-09-15","year":2010,"month":9,"lon":-75.75092,"lat":35.200798,"tags":"ocracoke,usa","S2CellId":"2bfc000000000000","result":1527,"accuracy":0.08852615,"title":"Birds%2C+with+crazy+colors+..."}
{"id":2379741761,"url":"http://farm4.staticflickr.com/3271/2379741761_343afc116c.jpg","path":"379/6ce/3796ce74a16fad893345bcfcaa7ba0.jpg","date":"2008-03-28","year":2008,"month":3,"lon":-75.47468,"lat":35.65081,"tags":"beach,bird,flight,glide,obx,seagull","S2CellId":"88db300000000000","result":8609,"accuracy":0.08190778,"title":"3%2C2%2C1+Contact","description":"I+love+this+series%2C+The+gull+just+ran+down+the+beach+with+his+wings+spread%2C+sometimes+the+wind+would+blow+and+he+would+just+take+off+with+what+seemed+like%2C+no+effort+at+all."}
{"id":3167314985,"url":"http://farm2.staticflickr.com/1067/3167314985_b32b4048ef.jpg","path":"916/436/916436f7be46aa334e15094b85ce1f.jpg","date":"2009-01-01","year":2009,"month":1,"lon":-75.70122,"lat":35.207092,"tags":"cape+hatteras,sunset","S2CellId":"89a4000000000000","result":8776,"accuracy":0.05724019,"title":"Sunset+in+Cape+Hatteras","description":"Sunset+taken+from+the+lookout+tour+of+our+rental+house+%28%22Southern+Extreme%22%29+during+our+annual+New+Year%27s+vacation+in+Cape+Hatteras."}
{"id":3484849274,"url":"http://farm4.staticflickr.com/3345/3484849274_9a5f775523.jpg","path":"a04/9eb/a049eb5ba3f34f11380a1652e1564fe.jpg","date":"2009-04-25","year":2009,"month":4,"lon":-75.639885,"lat":35.89701,"tags":"nc,obx,outer+banks","S2CellId":"89a4000000000000","result":8776,"accuracy":0.13069762,"description":"Outer+Banks%2C+NC"}
{"id":2439329279,"url":"http://farm4.staticflickr.com/3098/2439329279_627e16b7a0.jpg","path":"46e/54c/46e54cc555f5d430d8acd4f85535788.jpg","date":"2008-04-11","year":2008,"month":4,"lon":-75.56774,"lat":35.827835,"tags":"north+carolina,outer+banks","S2CellId":"88fd000000000000","result":8754,"accuracy":0.062361237,"title":"Bodie+Island"}
{"id":3460235701,"url":"http://farm4.staticflickr.com/3547/3460235701_4788dbbb23.jpg","path":"bf1/085/bf1085bdae7e22d43c5baa6b242765b.jpg","date":"2009-04-18","year":2009,"month":4,"lon":-75.65254,"lat":35.989117,"tags":"bachelorette,beach,nags+head,party","S2CellId":"47c4b00000000000","result":4268,"accuracy":0.043683615,"title":"The+beach+at+night","description":"An+evening+walk+on+the+beach"}
{"id":1710053216,"url":"http://farm3.staticflickr.com/2289/1710053216_d0b9925bc2.jpg","path":"79d/4ea/79d4ea6a67d6533f8c1431fcab3b928a.jpg","date":"2007-10-22","year":2007,"month":10,"lon":-75.52059,"lat":35.25394,"tags":"cape+hatteras,lighthouse,nc,north+carolina,sunrise","S2CellId":"8e85000000000000","result":9491,"accuracy":0.040892605,"title":"DSC_5104e.jpg"}
{"id":4983202609,"url":"http://farm5.staticflickr.com/4154/4983202609_ebf7431337.jpg","path":"145/9ac/1459acc74656166ef2525b4f321dc1a7.jpg","date":"2010-09-09","year":2010,"month":9,"lon":-75.7165,"lat":35.2,"tags":"2010,obx","S2CellId":"89a4000000000000","result":8776,"accuracy":0.04365108,"title":"IMG_1395","description":"Back+Camera"}
{"id":6617447877,"url":"http://farm8.staticflickr.com/7008/6617447877_fd907fa28f.jpg","path":"cc1/433/cc14330e0be8943b2734ed2e2a62c5.jpg","date":"2012-01-01","year":2012,"month":1,"lon":-75.497025,"lat":35.714157,"tags":"outer+banks,pea+island+nwr","S2CellId":"47b6400000000000","result":4028,"accuracy":0.043303557,"title":"Gull","description":"We+watched+this+gull+drop+whatever+it+was+that+it+had+at+least+four+times+before+I+got+this+shot."}
{"id":372808491,"url":"http://farm1.staticflickr.com/100/372808491_ccb1f06848.jpg","path":"14d/9a7/14d9a711d3d3bfc91f77755ed62c268.jpg","date":"2007-01-28","year":2007,"month":1,"lon":-75.616425,"lat":35.92938,"tags":"amy,billy,bob,carole,cheryl,emily,friends,george,grayson,jeff,mark,nags+head,party,vicki,wes","S2CellId":"4652340000000000","result":2846,"accuracy":0.031664304,"title":"2007+Jan+28+042"}
{"id":7491972856,"url":"http://farm9.staticflickr.com/8028/7491972856_4895ba768b.jpg","path":"f75/ab7/f75ab787cea13c0b4bdb29ccca2b35.jpg","date":"2012-06-26","year":2012,"month":6,"lon":-75.70151,"lat":35.2086,"tags":"marina,obx,outer+banks,sunset","S2CellId":"89e5f00000000000","result":9377,"accuracy":0.09267317,"description":"Sadly%2C+jpg+can%27t+do+this+justice."}
{"id":5430955968,"url":"http://farm6.staticflickr.com/5017/5430955968_c5fb2c3dff.jpg","path":"853/5f9/8535f9d8805f88a0a4824da2791c7af.jpg","date":"2011-01-23","year":2011,"month":1,"lon":-75.85201,"lat":35.846344,"tags":"aligatorriver,downeast,nc,nwr,outdoors","S2CellId":"88d0a631cabb5071","result":8563,"accuracy":0.013273388,"title":"Ice+Closeup+Alligator+River+Wildlife+Refuge+NC++0635"}
{"id":1824471833,"url":"http://farm3.staticflickr.com/2191/1824471833_26696f0f29.jpg","path":"387/42d/38742d8641e4f9c6880e929926102e.jpg","date":"2007-10-22","year":2007,"month":10,"lon":-75.462204,"lat":35.587807,"tags":"albemarle+sound,atlantic+ocean,banks,barrier+islands,beach,beach+front,beaches,destination,graveyard+of+the+atlantic,north+carolina,ocean,outer,outer+banks,pamlico+sound,sand,sound,sun,sunrise,sunset,surf,tourism,tourist,vacation,virginia,waves","S2CellId":"89a4000000000000","result":8776,"accuracy":0.024661867,"title":"Edie+takes+a+dip+%5B3%5D"}
{"id":5766969250,"url":"http://farm6.staticflickr.com/5185/5766969250_efc02266cb.jpg","path":"cb8/e40/cb8e40e7728b698eb5f45182d8de824.jpg","date":"2011-05-27","year":2011,"month":5,"lon":-75.52874,"lat":35.250557,"tags":"cape+hatteras+lighthouse","S2CellId":"89a4000000000000","result":8776,"accuracy":0.071174935}
{"id":6866082160,"url":"http://farm7.staticflickr.com/6107/6866082160_181ea3b820.jpg","path":"783/562/783562ddf49214b653c392b9c1275f2.jpg","date":"2012-03-24","year":2012,"month":3,"lon":-75.77783,"lat":35.190834,"tags":"north+carolina,the+outer+banks","S2CellId":"487b450000000000","result":5565,"accuracy":0.028522553,"title":"Ocracoke+Island"}
{"id":92030013,"url":"http://farm1.staticflickr.com/40/92030013_dc8fbb2f15.jpg","path":"295/ebf/295ebfe43bab30cf1423838f8b3242d2.jpg","date":"2005-08-02","year":2005,"month":8,"lon":-75.61662,"lat":35.94573,"tags":"beach,nags+head,sand+castle","S2CellId":"808587c000000000","result":6980,"accuracy":0.06896115,"title":"IMAGE_5682"}
{"id":3604873172,"url":"http://farm4.staticflickr.com/3658/3604873172_4eaa7739a7.jpg","path":"ca5/177/ca5177db3caa74e8132fe0ab4526a73.jpg","date":"2009-05-31","year":2009,"month":5,"lon":-75.50354,"lat":35.34154,"tags":"2009,beach,north+carolina,vacation","S2CellId":"89a4000000000000","result":8776,"accuracy":0.09427692,"title":"DSCF7251"}
{"id":6169215521,"url":"http://farm7.staticflickr.com/6165/6169215521_d3c13d8005.jpg","path":"3c2/7a4/3c27a4f8933336f6365d594bef14c958.jpg","date":"2011-08-15","year":2011,"month":8,"lon":-75.46303,"lat":35.59721,"tags":"beach,bird,ocean,reflection,sand,water","S2CellId":"4879440000000000","result":5477,"accuracy":0.026551535,"title":"Wading+Bird"}
{"id":3686325804,"url":"http://farm3.staticflickr.com/2578/3686325804_d7a79da176.jpg","path":"839/63e/83963ebb9941e5fd4146b5eebcce1a7.jpg","date":"2009-06-29","year":2009,"month":6,"lon":-75.915375,"lat":35.836132,"tags":"alligator+river,nc,north+carolina,sandy+ridge+trail","S2CellId":"88e8c00000000000","result":8695,"accuracy":0.04159431,"title":"Sandy+Ridge+Wildlife+Trail+Alligator+River+Wildlife+Refuge+NC++0240"}
{"id":36055674,"url":"http://farm1.staticflickr.com/32/36055674_3f06b60062.jpg","path":"545/b83/545b83b8eb364b5d528b4b67bff0375d.jpg","date":"2005-08-21","year":2005,"month":8,"lon":-75.73528,"lat":35.19352,"tags":"beach,cape+hatteras,dog,jaffa,keyser,north+carolina,sand","S2CellId":"89b9400000000000","result":8914,"accuracy":0.026975855,"title":"Jaffa+and+Keyser"}
{"id":1242698421,"url":"http://farm2.staticflickr.com/1396/1242698421_9f18f7c763.jpg","path":"a1d/6f5/a1d6f5f664316028ba13a0e7e5acfa.jpg","date":"2007-08-26","year":2007,"month":8,"lon":-75.945656,"lat":35.11436,"tags":"atlantic+ocean,beach,clouds,north+carolina,obx,ocean,ocracoke+island,outer+banks,sand,sky,tides,water,waves","S2CellId":"95d0000000000000","result":9860,"accuracy":0.03237725,"title":"sunset+2+ocracoke+island+nc","description":"love+that+color+during+sunset"}
{"id":4923500562,"url":"http://farm5.staticflickr.com/4141/4923500562_e4e5740975.jpg","path":"6e9/561/6e956197ba6ee0c0266ab24ed1a435.jpg","date":"2010-08-21","year":2010,"month":8,"lon":-75.422516,"lat":35.818577,"tags":"canon+ef+300mm+f%2F4l+is+usm,canon+ef+extender+1.4x+ii,canon+eos+rebel+xsi,nature,outdoors,wildlife","S2CellId":"89a4000000000000","result":8776,"accuracy":0.052799005,"title":"Audubon%27s+Shearwater"}
{"id":272643881,"url":"http://farm1.staticflickr.com/101/272643881_83b127ebf0.jpg","path":"2c3/63b/2c363b190c6e95e128f7cd314ca9232.jpg","date":"2006-10-16","year":2006,"month":10,"lon":-75.63074,"lat":35.961205,"tags":"banks,break,carolina,duck,fall,north,outer,raspberry,trip,vacation","S2CellId":"89a4000000000000","result":8776,"accuracy":0.06413749,"title":"Uniola+paniculata","description":"Sea+Oats"}
{"id":3984958659,"url":"http://farm4.staticflickr.com/3419/3984958659_15ce255a52.jpg","path":"26c/c99/26cc999ec97e5511f04b8b48e73c8580.jpg","date":"2009-10-04","year":2009,"month":10,"lon":-75.564095,"lat":35.81865,"tags":"bodie+island+lighthouse,iphoto,lighthouse,north+carolina,outer+banks,sky","S2CellId":"89a4000000000000","result":8776,"accuracy":0.6880137,"title":"Bodie+Island+Lighthouse","description":"Bodie+Island+Lighthouse"}
{"id":5871649738,"url":"http://farm4.staticflickr.com/3275/5871649738_2c307449d7.jpg","path":"115/f20/115f204f8fd3fcdf9a47556416647e81.jpg","date":"2011-06-14","year":2011,"month":6,"lon":-75.66832,"lat":35.908226,"tags":"2011,outdoors","S2CellId":"548ff00000000000","result":6177,"accuracy":0.41377497,"title":"North+Carolina+-+2011+-+310","description":"Outer+Banks%2C+North+Carolina"}
