{"id":2466031126,"url":"http://farm4.staticflickr.com/3271/2466031126_09c0cdcc41.jpg","path":"159/3e7/1593e7650201e36bb17e037e613b67.jpg","date":"2008-05-02","year":2008,"month":5,"lon":-70.57177,"lat":-32.325157,"tags":"alicahue,chile,inka,trekking","S2CellId":"86d5000000000000","result":7692,"accuracy":0.14591819,"title":"Travesia+Libertador+Inka+233"}
{"id":80436350,"url":"http://farm1.staticflickr.com/43/80436350_e463ab2987.jpg","path":"189/509/1895099cbf0e9eea13254ffa8d5453.jpg","date":"2005-12-24","year":2005,"month":12,"lon":-70.61944,"lat":-32.86777,"tags":"calle+larga,chile,holy+cross+associates,pocuro","S2CellId":"96a9000000000000","result":9916,"accuracy":0.08934336,"title":"Pocuro+house"}
{"id":2464864571,"url":"http://farm4.staticflickr.com/3053/2464864571_aef5a9b76a.jpg","path":"7f6/16f/7f616fb1e53c62d7d97789a99ab232e2.jpg","date":"2008-05-01","year":2008,"month":5,"lon":-70.580475,"lat":-32.496933,"tags":"chile,inka,putaendo,trekking","S2CellId":"967c000000000000","result":9904,"accuracy":0.31002116,"title":"Travesia+Libertador+Inka+004"}
{"id":2967229822,"url":"http://farm4.staticflickr.com/3054/2967229822_8d3ecf6cba.jpg","path":"26a/089/26a0894e252c36599755c7952704517.jpg","date":"2008-10-20","year":2008,"month":10,"lon":-70.72955,"lat":-32.232117,"tags":"chile,chincolco,cicloturismo,el+sobrante","S2CellId":"86d66c0000000000","result":7697,"accuracy":0.056371816,"title":"Ciclotour_144"}
{"id":5990432545,"url":"http://farm7.staticflickr.com/6127/5990432545_72becfcc05.jpg","path":"9aa/135/9aa135893b56fc38313a8093c8936b1b.jpg","date":"2006-02-21","year":2006,"month":2,"lon":-70.05771,"lat":-32.681973,"tags":"argentine,los+horcones,mendoza","S2CellId":"967c000000000000","result":9904,"accuracy":0.14783114,"title":"Vall%C3%A9e+de+los+Horcones"}
{"id":1879077249,"url":"http://farm3.staticflickr.com/2400/1879077249_3a392a963c.jpg","path":"6c5/6bc/6c56bc4fd1f14b79cf93a6f2d4ac4.jpg","date":"2007-11-02","year":2007,"month":11,"lon":-70.843704,"lat":-32.224213,"tags":"chile,chincolco,regi%C3%B3n+de+valparaiso,valparaiso","S2CellId":"1333000000000000","result":1123,"accuracy":0.0074695465,"title":"Iglesia","description":"Iglesia"}
{"id":3571212548,"url":"http://farm4.staticflickr.com/3642/3571212548_2ec0ca6bcc.jpg","path":"2be/ef0/2beef0d4c0861127ff8fa9e2d81b376.jpg","date":"2009-05-27","year":2009,"month":5,"lon":-70.728775,"lat":-32.749454,"tags":"2009,food","S2CellId":"80d9535400000000","result":7284,"accuracy":0.011189799,"title":"Solo+por+%24350","description":"Po+unos+momentos+me+sent%C3%AD+como+Pedro+Picapiedra+comiendo+su+sandwich+submarino."}
{"id":6825314253,"url":"http://farm8.staticflickr.com/7158/6825314253_e60942c1cc.jpg","path":"72a/8c6/72a8c62bfc1291d54d613ca63d6ae20.jpg","date":"2012-01-09","year":2012,"month":1,"lon":-70.71947,"lat":-32.768383,"tags":"chile,los+andes,roberto+sanchez-camus","S2CellId":"80c2dc0000000000","result":7212,"accuracy":0.052412175,"title":"Vivero+de+cactus+%2F+nursery"}
{"id":2465198059,"url":"http://farm4.staticflickr.com/3079/2465198059_849afe75d2.jpg","path":"d62/67f/d6267fbf9cb6b74755e0149b898e29.jpg","date":"2008-05-02","year":2008,"month":5,"lon":-70.57081,"lat":-32.328255,"tags":"alicahue,chile,inka,trekking","S2CellId":"3d00000000000000","result":2580,"accuracy":0.66718733,"title":"Travesia+Libertador+Inka+229"}
{"id":5178631212,"url":"http://farm2.staticflickr.com/1029/5178631212_bf2c97b478.jpg","path":"c32/642/c32642f1cc3b3c626856e54d4642a46.jpg","date":"2010-10-01","year":2010,"month":10,"lon":-70.37196,"lat":-32.88668,"tags":"andes,caracoles+de+cuesta+juncal,chile,photo,photograph,picture,snail,trans-andea,trans-andean,transandine,transandino,trasandino,travelsphere","S2CellId":"91b0000000000000","result":9626,"accuracy":0.052339274,"title":"Between+Los+Andes+and+Portillo","description":"This+shot+was+taken+just+upstream+of+Salta+del+Soldado.%0A%0AThe+%3Ca+href%3D%22http%3A%2F%2Fwww.flickr.com%2Fphotos%2Fpanr%2Fsets%2F72157625372587810%2F%22%3Eintroduction%3C%2Fa%3E+to+this+set+describes+our+drive+along+Ruta+60+from+Los+Andes+to+the+frontier.+It+includes+links+to+maps+and++historic+photos."}
{"id":2465806308,"url":"http://farm4.staticflickr.com/3084/2465806308_0456776b1f.jpg","path":"27a/24b/27a24bb9c22bc74d717f72d90ec48.jpg","date":"2008-05-01","year":2008,"month":5,"lon":-70.56636,"lat":-32.41638,"tags":"chile,inka,putaendo,trekking","S2CellId":"47edc00000000000","result":4703,"accuracy":0.27046123,"title":"Travesia+Libertador+Inka+069"}
{"id":2465374045,"url":"http://farm3.staticflickr.com/2189/2465374045_48783e3ee3.jpg","path":"586/e6e/586e6eca33bcfb847ec7a0281be64e76.jpg","date":"2008-05-03","year":2008,"month":5,"lon":-70.70031,"lat":-32.317528,"tags":"alicahue,chile,inka,trekking","S2CellId":"1dd4000000000000","result":1461,"accuracy":0.14261569,"title":"Travesia+Libertador+Inka+329"}
{"id":2967136412,"url":"http://farm4.staticflickr.com/3189/2967136412_b2d3e85123.jpg","path":"980/548/9805482cd81dc6a98f03dc0625cc86a.jpg","date":"2008-10-19","year":2008,"month":10,"lon":-70.92922,"lat":-32.25161,"tags":"chile,cicloturismo,petorca","S2CellId":"0d43c00000000000","result":391,"accuracy":0.031047892,"title":"Ciclotour_067"}
{"id":12296370845,"url":"http://farm3.staticflickr.com/2865/12296370845_90b2bbbbee.jpg","path":"9b1/16c/9b116c73a93a7a41101635db23a384.jpg","date":"2014-01-01","year":2014,"month":1,"lon":-70.599174,"lat":-32.83272,"tags":"chile,chiletrip,el+pueblo+de+los+andes,santiago","S2CellId":"0d126c3000000000","result":192,"accuracy":0.05161129,"title":"2013-14+Chile+Peru+Trip+2++January+01%2C+2014+81"}
