{"id":3630831095,"url":"http://farm4.staticflickr.com/3364/3630831095_eaed7c7fb2.jpg","path":"985/282/98528251f3175441a446db65c3fd2881.jpg","date":"2006-07-06","year":2006,"month":7,"lon":-131.65002,"lat":55.3434,"tags":"2006,airplane,alaska,cruise,floatplane,july,ketchikan,oosterdam,puffin,pun,twitter","S2CellId":"4879314000000000","result":5468,"accuracy":0.006063916,"title":"P7060257","description":"Bahahaha%21+Pun%21+I+approve%21"}
{"id":6275020735,"url":"http://farm7.staticflickr.com/6104/6275020735_cf8ea2e739.jpg","path":"989/362/98936252d7db5e2b7f76c7f2756b758.jpg","date":"2011-10-20","year":2011,"month":10,"lon":-131.64711,"lat":55.342323,"tags":"alaska,alaska+marine+highway,beer,bellingham,boat,british+columbia,canada,clouds,ferry,ketchikan,malaspina,ocean,sky,whales,zodiac","S2CellId":"5377000000000000","result":6058,"accuracy":0.13773304,"title":"P1030754"}
{"id":2739951430,"url":"http://farm4.staticflickr.com/3137/2739951430_23844f28c5.jpg","path":"e3d/93b/e3d93bb0eb14ef98b144c4bd42eaf487.jpg","date":"2008-07-02","year":2008,"month":7,"lon":-131.65076,"lat":55.343166,"tags":"20d,alaska,canon,inside+passage,southeast+alaska","S2CellId":"56c4000000000000","result":6318,"accuracy":0.30522707,"title":"Tammy+finds+a+cousin+in+Ketchikan+%2813258%29","description":"my+friend%27s+yarn+octopus+in+Ketchikan"}
{"id":9661023445,"url":"http://farm6.staticflickr.com/5457/9661023445_91db851ebd.jpg","path":"9d6/8a1/9d68a173524e5847bcaea3febc24e8d.jpg","date":"2013-08-21","year":2013,"month":8,"lon":-131.65884,"lat":55.345158,"tags":"2013,alaska,august,cruise,freund,freundmunkpearcevacation,munk,pearce,vacation","S2CellId":"540c000000000000","result":6092,"accuracy":0.5252568,"title":"P1000677"}
{"id":10988044685,"url":"http://farm6.staticflickr.com/5520/10988044685_7ce16e5fbb.jpg","path":"cde/fb8/cdefb8accedd2675cce75f16a5c7324.jpg","date":"2013-07-18","year":2013,"month":7,"lon":-131.45473,"lat":55.842834,"tags":"alaska,bear,cub,hdr,shrimp+bay","S2CellId":"3b07000000000000","result":2532,"accuracy":0.014180432,"title":"_MG_2589HDRa","description":"A+Mama+Bear+and+her+two+Cubs+in+Shrimp+Bay%2C+Alaska."}
{"id":5675925172,"url":"http://farm6.staticflickr.com/5022/5675925172_8d6e247eff.jpg","path":"29c/ca5/29cca5c5d01b872231348acf818198.jpg","date":"2011-05-01","year":2011,"month":5,"lon":-131.6456,"lat":55.34056,"tags":"alaska+marine+highway,malaspina","S2CellId":"5486100000000000","result":6110,"accuracy":0.07709331,"title":"Alaskan+sunrise+about+an+hour+ago"}
{"id":7712292754,"url":"http://farm9.staticflickr.com/8293/7712292754_df365be714.jpg","path":"3ec/032/3ec0325f36ddc41ba845c91e37b49b4.jpg","date":"2012-07-28","year":2012,"month":7,"lon":-131.53235,"lat":55.32776,"tags":"5d+mk+iii,alaska,brian+boyd,disney+cruise,disney+cruise+line,disney+wonder,inland+passage,juneau,ketchikan,mendenhall,seattle,skagway,tracy+arm","S2CellId":"548e400000000000","result":6158,"accuracy":0.22314885,"title":"2012-07-28+10.36.02-4"}
{"id":1595260039,"url":"http://farm3.staticflickr.com/2350/1595260039_b349eba36c.jpg","path":"4e6/7d6/4e67d6f345b9b085369bbe6830f27c82.jpg","date":"2007-10-17","year":2007,"month":10,"lon":-131.64474,"lat":55.34108,"tags":"ketchikan,travel","S2CellId":"5470000000000000","result":6094,"accuracy":0.260244,"title":"P1090064"}
{"id":6163648827,"url":"http://farm7.staticflickr.com/6168/6163648827_6227b4bf12.jpg","path":"919/5b0/9195b0e19e1335e6b348b746c6f983a.jpg","date":"2011-09-10","year":2011,"month":9,"lon":-131.64172,"lat":55.340893,"tags":"alaska,cruise,ketchikan,september,vacation","S2CellId":"5489c00000000000","result":6155,"accuracy":0.10405091,"title":"Ketchikan"}
{"id":1210760076,"url":"http://farm2.staticflickr.com/1325/1210760076_c737a5e8f4.jpg","path":"911/2e1/9112e1037b3e8c19848854222a9672.jpg","date":"2007-08-10","year":2007,"month":8,"lon":-131.65346,"lat":55.34407,"tags":"alaska,harbor,ketchikan","S2CellId":"548ff00000000000","result":6177,"accuracy":0.050153773,"title":"Ketchikan+Harbor%2C+Alaska"}
{"id":11793403846,"url":"http://farm6.staticflickr.com/5495/11793403846_4617b2485d.jpg","path":"e62/7d7/e627d7b71a368f6c630cadeb047474.jpg","date":"2013-09-05","year":2013,"month":9,"lon":-131.61209,"lat":55.783234,"tags":"airplane,alaska,bear,clouds,ketchikan,neets+bay,sunshine,tour,tourist,turbine+otter","S2CellId":"5db0000000000000","result":6337,"accuracy":0.05975254,"title":"Neets+Bay+Bear+Tour%21"}
{"id":10988150775,"url":"http://farm4.staticflickr.com/3743/10988150775_67ac41bcbb.jpg","path":"aa4/a8a/aa4a8ade65ebd1d620767673b8ef2b6e.jpg","date":"2013-07-18","year":2013,"month":7,"lon":-131.45454,"lat":55.84279,"tags":"alaska,bear,cub,hdr,shrimp+bay","S2CellId":"548ff00000000000","result":6177,"accuracy":0.014690402,"title":"_MG_2577HDRa","description":"A+Mama+Bear+and+her+two+Cubs+in+Shrimp+Bay%2C+Alaska."}
{"id":3879917898,"url":"http://farm3.staticflickr.com/2611/3879917898_75582d1fa8.jpg","path":"dd6/36a/dd636ad27e0e8b93f01c819151a1d.jpg","date":"2009-08-16","year":2009,"month":8,"lon":-131.66016,"lat":55.353355,"tags":"alaska,ketchikan","S2CellId":"463f000000000000","result":2783,"accuracy":0.07373101,"title":"IMG_3617"}
{"id":6132965255,"url":"http://farm7.staticflickr.com/6190/6132965255_8385648913.jpg","path":"543/3e0/5433e058b03082147c2176dd63e4e2.jpg","date":"2011-08-01","year":2011,"month":8,"lon":-131.64557,"lat":55.342617,"tags":"alaska,ketchikan,usa","S2CellId":"540c000000000000","result":6092,"accuracy":0.93448144,"title":"Creek+Street+reflections"}
{"id":5883342543,"url":"http://farm6.staticflickr.com/5278/5883342543_91af76349d.jpg","path":"4c5/0ea/4c50ea8fbf52438bee1e3951949a127d.jpg","date":"2011-06-28","year":2011,"month":6,"lon":-131.6459,"lat":55.34057,"tags":"alaska,eagles,filet,fishing,ketchikan,king,life+jacket,mountain+point,salmon,skiff","S2CellId":"540c000000000000","result":6092,"accuracy":0.10007012,"title":"P1030116"}
{"id":7711970000,"url":"http://farm9.staticflickr.com/8283/7711970000_cd826f4e0c.jpg","path":"3cd/f42/3cdf4238f7f5ea78b546ae141778daa.jpg","date":"2012-07-28","year":2012,"month":7,"lon":-131.53377,"lat":55.326946,"tags":"5d+mk+iii,alaska,brian+boyd,disney+cruise,disney+cruise+line,disney+wonder,inland+passage,juneau,ketchikan,mendenhall,seattle,skagway,tracy+arm","S2CellId":"54bfc00000000000","result":6300,"accuracy":0.16063671,"title":"2012-07-28+09.55.56"}
{"id":3609180451,"url":"http://farm3.staticflickr.com/2453/3609180451_dfb80a561a.jpg","path":"df9/abc/df9abc8fd2677a7f5cfb4dc0762f46f.jpg","date":"2009-06-05","year":2009,"month":6,"lon":-131.49103,"lat":55.347534,"tags":"alaska,float,floatplane,george+inlet,ketchikan,plane,sea,seaplane","S2CellId":"5470000000000000","result":6094,"accuracy":0.3133911,"title":"Floatplane+Coming+In+for+a+Landing","description":"A+DeHavilland+Beaver+floatplane+comes+in+for+a+landing+at+George+Inlet+in+Ketchikan%2C+Alaska."}
{"id":1391739891,"url":"http://farm2.staticflickr.com/1130/1391739891_8c3fe56794.jpg","path":"aeb/790/aeb7907fcabd1868fc6a4d3ae1f532.jpg","date":"2005-06-03","year":2005,"month":6,"lon":-131.9271,"lat":55.443913,"tags":"alaska,inside+passage","S2CellId":"5485900000000000","result":6103,"accuracy":0.08117139,"title":"100_1328"}
{"id":6137800810,"url":"http://farm7.staticflickr.com/6180/6137800810_3c2cbf6152.jpg","path":"d51/76e/d5176ea6a45e9d4467634958d7eccf4.jpg","date":"2011-09-11","year":2011,"month":9,"lon":-131.12595,"lat":55.411865,"tags":"alaska,aleutian+ballad,boat,crab,deadliest+catch,discovery,fish,fishing,halibut,ketchikan,king+crab,octopus,snow+crab,tanner+crab","S2CellId":"880fd3c000000000","result":8169,"accuracy":0.025110465,"title":"P1030449"}
{"id":3760310268,"url":"http://farm3.staticflickr.com/2519/3760310268_109592cdc0.jpg","path":"1c1/fd3/1c1fd3d9852c1387756a8e08cc57b6c.jpg","date":"2009-07-12","year":2009,"month":7,"lon":-131.64043,"lat":55.34114,"tags":"alaska,cruise","S2CellId":"6000ec0000000000","result":6388,"accuracy":0.09137041,"title":"IMG_4323"}
{"id":2632629125,"url":"http://farm4.staticflickr.com/3100/2632629125_72b9d984ab.jpg","path":"379/8ce/3798ce2cbfcc6837b2bc286f6cd079cf.jpg","date":"2008-06-20","year":2008,"month":6,"lon":-131.66309,"lat":55.346592,"tags":"alaska,ketchikan","S2CellId":"488b000000000000","result":5763,"accuracy":0.004502622,"title":"Jellyfish"}
{"id":528650910,"url":"http://farm2.staticflickr.com/1151/528650910_322f077904.jpg","path":"f4c/fc8/f4cfc8c141c7feb51351b7b05319627.jpg","date":"2007-05-31","year":2007,"month":5,"lon":-131.64615,"lat":55.33995,"tags":"alaska,geekcruise37,ketchikan","S2CellId":"808580fc00000000","result":6960,"accuracy":0.2289065}
{"id":2554274724,"url":"http://farm4.staticflickr.com/3111/2554274724_63bb2db741.jpg","path":"365/26e/36526ebc85bcbdaf3cdba1234ffaff.jpg","date":"2008-05-28","year":2008,"month":5,"lon":-131.69049,"lat":55.355698,"tags":"2008,alaska,ketchikan,sarah,travel","S2CellId":"540c000000000000","result":6092,"accuracy":0.53609484,"title":"Ketchikan+-+006","description":"Alaska+2008"}
{"id":7680772408,"url":"http://farm9.staticflickr.com/8005/7680772408_7ab54bc7ce.jpg","path":"131/a86/131a868f23f9740b44a4b548a5f97c.jpg","date":"2012-07-18","year":2012,"month":7,"lon":-131.76617,"lat":55.42267,"tags":"silver+shadow,silversea,silversea+cruises","S2CellId":"88fd000000000000","result":8754,"accuracy":0.0038734619,"title":"Dad%27s+Dessert","description":"Tiramisu"}
{"id":3631640772,"url":"http://farm4.staticflickr.com/3662/3631640772_0ba4f21627.jpg","path":"abf/b98/abfb98843fe38c0cb2f29e618559355.jpg","date":"2006-07-06","year":2006,"month":7,"lon":-131.65002,"lat":55.3434,"tags":"2006,airplane,alaska,cruise,floatplane,july,ketchikan,oosterdam","S2CellId":"540c000000000000","result":6092,"accuracy":0.23518239,"title":"P7060136"}
{"id":6241689758,"url":"http://farm7.staticflickr.com/6019/6241689758_c7daa0db36.jpg","path":"a6e/078/a6e078d1e6a2ea44bc261d3687e469c7.jpg","date":"2011-10-13","year":2011,"month":10,"lon":-131.83,"lat":55.448357,"tags":"alaska,beach,birds,coast+guard+beach,deer,hiking,ketchikan,leaves,ocean,rain,rocks,sea+lions,south+point+higgins+beach,stellar","S2CellId":"548ff00000000000","result":6177,"accuracy":0.25386712,"title":"P1030705"}
{"id":4943741511,"url":"http://farm5.staticflickr.com/4143/4943741511_a4d14e3edf.jpg","path":"b8e/248/b8e248077f9eb931bee62f57626b1.jpg","date":"2010-08-26","year":2010,"month":8,"lon":-131.5515,"lat":55.289185,"tags":"2010,alaska,cruise,golden+princess,ketchikan,vacation","S2CellId":"5470000000000000","result":6094,"accuracy":0.09470716,"title":"Alaska+Cruise%2C+Day+5+-+Ketchikan+031"}
{"id":5763708463,"url":"http://farm6.staticflickr.com/5106/5763708463_1a3284709d.jpg","path":"983/949/983949441196c7dbc46033191b88698b.jpg","date":"2011-05-26","year":2011,"month":5,"lon":-131.6456,"lat":55.34056,"tags":"35mm,alaska,diana+mini,lomography,plastic+camera","S2CellId":"5470000000000000","result":6094,"accuracy":0.22786893,"title":"Scan5-1"}
{"id":5394677490,"url":"http://farm5.staticflickr.com/4149/5394677490_b705de8aea.jpg","path":"6d6/37e/6d637e26be3d88770d8399d107d39be.jpg","date":"2010-09-14","year":2010,"month":9,"lon":-131.6456,"lat":55.34056,"tags":"airplane,alaska,beach,beds,beer,british+columbia,canada,cat,cessna,deer,duck+farts,friends,glacier,highway,hiking,hotel,ice,lake,microbrew,mountain,refuge,river,road,street,sunrise,sunset,sunshine,team+brittanathan+trip,trees,view,whale","S2CellId":"540c000000000000","result":6092,"accuracy":0.45701978,"title":"P1000696"}
{"id":3609175143,"url":"http://farm4.staticflickr.com/3386/3609175143_9ecff0fb53.jpg","path":"628/23e/62823edc6a1cd8994a7a0466ef397c6.jpg","date":"2009-06-05","year":2009,"month":6,"lon":-131.49103,"lat":55.347534,"tags":"alaska,float,floatplane,ketchikan,plane,sea,seaplane","S2CellId":"47d87c4000000000","result":4429,"accuracy":0.039763,"title":"Propeller+and+Pontoons","description":"A+DeHavilland+Beaver+floatplane+flies+over+George+Inlet+in+Ketchikan%2C+Alaska."}
{"id":7169455539,"url":"http://farm8.staticflickr.com/7072/7169455539_9892531e25.jpg","path":"98b/f22/98bf22736981acf27f76f4eeeec51650.jpg","date":"2012-06-07","year":2012,"month":6,"lon":-131.74942,"lat":55.40446,"tags":"alaska,beach,clouds,ketchikan,nikon,scenery","S2CellId":"5470000000000000","result":6094,"accuracy":0.11315661,"title":"KDSC_0052"}
{"id":10955100394,"url":"http://farm4.staticflickr.com/3717/10955100394_a307aa98a8.jpg","path":"191/422/191422844462db34d651d978791abe88.jpg","date":"2013-07-18","year":2013,"month":7,"lon":-131.4569,"lat":55.8417,"tags":"alaska,hdr,shrimp+bay","S2CellId":"47a3c00000000000","result":3878,"accuracy":0.027524546,"title":"_MG_2563HDRa","description":"A+picture+of+the+shore+in+Shrimp+Bay%2C+Alaska."}
{"id":512536710,"url":"http://farm1.staticflickr.com/201/512536710_9759e38bd9.jpg","path":"906/e86/906e86d09541a4461f14281c36fe5ce.jpg","date":"2007-05-18","year":2007,"month":5,"lon":-131.68497,"lat":55.352062,"tags":"george+inlet,ketchikan","S2CellId":"5470000000000000","result":6094,"accuracy":0.5593213,"title":"View"}
{"id":5479574110,"url":"http://farm6.staticflickr.com/5214/5479574110_4ea591cd6f.jpg","path":"57c/95e/57c95ecdb81c5f9aa10e0a6ee7a47.jpg","date":"2009-05-11","year":2009,"month":5,"lon":-131.14174,"lat":55.148273,"tags":"alaska,archaeology,boat,camping,clams,crafts,decoy,devil%27s+club,hiking,lichen,moss,skiff,southeast+alaska,tongass+national+forest,tongass+ranger","S2CellId":"5404000000000000","result":6091,"accuracy":0.15956964,"title":"IMG_4849"}
{"id":6020223390,"url":"http://farm7.staticflickr.com/6030/6020223390_c19ef3b86b.jpg","path":"38e/4ff/38e4ff951f18dfb9fae6757eaca030.jpg","date":"2011-07-21","year":2011,"month":7,"lon":-131.72006,"lat":55.40865,"tags":"alaska,cruise,ketchikan","S2CellId":"8814d00000000000","result":8186,"accuracy":0.020452006,"title":"Ward_Lake_Trail_007","description":"Cloudberry+%3Cem%3ERubis+chamaemorus%3C%2Fem%3E%0A%0AKetchikan%2C+Alaska%0A%0A21+July+2011"}
{"id":5883923598,"url":"http://farm7.staticflickr.com/6057/5883923598_4f2d417394.jpg","path":"1e3/c9e/1e3c9e7cb4e9941a6fdac8984d59191.jpg","date":"2011-06-28","year":2011,"month":6,"lon":-131.6459,"lat":55.34057,"tags":"alaska,eagles,filet,fishing,ketchikan,king,life+jacket,mountain+point,salmon,skiff","S2CellId":"9aab000000000000","result":9926,"accuracy":0.017138734,"title":"P1030121"}
{"id":512537576,"url":"http://farm1.staticflickr.com/202/512537576_816d87e496.jpg","path":"e23/429/e234299a2ba76332288296e60e5a8bd.jpg","date":"2007-05-18","year":2007,"month":5,"lon":-131.68497,"lat":55.352062,"tags":"ketchikan,sea+life,starfish,tides","S2CellId":"9aab000000000000","result":9926,"accuracy":0.057011757,"title":"Stranded+Starfish","description":"The+tides+are+very+high+in+Ketchikan"}
{"id":3630828811,"url":"http://farm4.staticflickr.com/3630/3630828811_d713c89b44.jpg","path":"bfb/4ab/bfb4abd8c4bbdf93384b8cfbfa9d63.jpg","date":"2006-07-06","year":2006,"month":7,"lon":-131.65002,"lat":55.3434,"tags":"2006,airplane,alaska,cruise,floatplane,july,ketchikan,oosterdam","S2CellId":"540c000000000000","result":6092,"accuracy":0.33898145,"title":"P7060152"}
{"id":7515599100,"url":"http://farm8.staticflickr.com/7135/7515599100_bffa880ef5.jpg","path":"bbf/969/bbf969d87c6925f634166a2e3a8c8ed.jpg","date":"2012-07-02","year":2012,"month":7,"lon":-131.3443,"lat":55.208263,"tags":"alaska,glaciers,mendenhall","S2CellId":"4617000000000000","result":2765,"accuracy":0.049313493,"title":"Alaska+from+deck+of+ship"}
{"id":5425059353,"url":"http://farm6.staticflickr.com/5178/5425059353_2bddb5b09f.jpg","path":"f76/dad/f76dadee7e2bb46a39812b5ea50c5d9.jpg","date":"2011-02-07","year":2011,"month":2,"lon":-131.55373,"lat":55.28772,"tags":"35mm,alaska,film,islands,ocean,sea,sky,sunset,water","S2CellId":"14c1000000000000","result":1285,"accuracy":0.15770312,"title":"alaska2","description":"I+just+wanna+go+back+here.%0A%0A%3Ca+href%3D%22http%3A%2F%2Flesforets.tumblr.com%2Fpost%2F3165392649%2Falaska2-by-ethan%22+rel%3D%22nofollow%22%3ETumblr%3C%2Fa%3E+%7C+%3Ca+href%3D%22http%3A%2F%2Fformspring.me%2Fbethan19%22+rel%3D%22nofollow%22%3EFormspring%3C%2Fa%3E"}
{"id":7711660468,"url":"http://farm8.staticflickr.com/7248/7711660468_2226d0ceb2.jpg","path":"26a/59e/26a59e7d6622dfefb56b6e257888b29.jpg","date":"2012-07-28","year":2012,"month":7,"lon":-131.64684,"lat":55.34133,"tags":"5d+mk+iii,alaska,brian+boyd,disney+cruise,disney+cruise+line,disney+wonder,inland+passage,juneau,ketchikan,mendenhall,seattle,skagway,tracy+arm","S2CellId":"540c000000000000","result":6092,"accuracy":0.04958526,"title":"2012-07-28+07.43.51"}
{"id":5925009021,"url":"http://farm7.staticflickr.com/6012/5925009021_ab5dc2611c.jpg","path":"6b1/dea/6b1dea5c494eafd8744284ef0ae4cc6.jpg","date":"2011-07-10","year":2011,"month":7,"lon":-131.6459,"lat":55.34057,"tags":"alaska,chum,coho,fishing,humpy,ketchikan,king,pink,salmon","S2CellId":"548ff00000000000","result":6177,"accuracy":0.012449268,"title":"P1030266"}
{"id":5394092907,"url":"http://farm5.staticflickr.com/4106/5394092907_3466b86946.jpg","path":"27d/19b/27d19bb16d467dc0625e4c7308413b.jpg","date":"2010-09-15","year":2010,"month":9,"lon":-131.6456,"lat":55.34056,"tags":"airplane,alaska,beach,beds,beer,british+columbia,canada,cat,cessna,deer,duck+farts,friends,glacier,highway,hiking,hotel,ice,lake,microbrew,mountain,refuge,river,road,street,sunrise,sunset,sunshine,team+brittanathan+trip,trees,view,whale","S2CellId":"5470000000000000","result":6094,"accuracy":0.22121772,"title":"P1000887","description":"Brian+and+Connell+Lake"}
{"id":6600747709,"url":"http://farm8.staticflickr.com/7149/6600747709_6dca1558b6.jpg","path":"9e1/67a/9e167a39330fdb77a84e3c1d6bbd9ba.jpg","date":"2011-12-30","year":2011,"month":12,"lon":-131.6456,"lat":55.34056,"tags":"alaska,alaska+marine+highway,boat,expired+film,ferry,film,lca%2B,lomography,ocean,photography,water,zodiac","S2CellId":"4703000000000000","result":3126,"accuracy":0.012419636,"title":"img110"}
{"id":13174539554,"url":"http://farm4.staticflickr.com/3683/13174539554_45a725895c.jpg","path":"d98/b35/d98b35e8d91d4f453ac287c0a72d93e9.jpg","date":"2013-09-21","year":2013,"month":9,"lon":-131.6461,"lat":55.3422,"tags":"2013,alaska,cruise,ketchikan,september","S2CellId":"8807c00000000000","result":8100,"accuracy":0.0019861618,"title":"Jeff+and+his+Alaskan+White+Ale","description":"This+is+the+face+of+someone+who+hasn%E2%80%99t+had+internet+for+almost+a+week.+%0A%0AThis+place+was+also+one+of+the+few+interesting+looking+places%3B+a+little+pub+where+we+could+be+served+drinks+and+blackened+salmon+tacos+from+the+place+across+the+street.+Delicious."}
{"id":2628526889,"url":"http://farm4.staticflickr.com/3109/2628526889_5f6c134f16.jpg","path":"a57/c31/a57c31f02ac745c84b1bec1b6ab0bdad.jpg","date":"2008-06-22","year":2008,"month":6,"lon":-131.64218,"lat":55.33964,"tags":"alaska,award,best,boats,brothel,friends,ketchikan,mountain,octopuss,of,view","S2CellId":"540c000000000000","result":6092,"accuracy":0.4755088,"title":"Ketchikan","description":"from+the+tourist+pier+where+all+the+cruise+lines+come+in.++Looking+towards+creek+street+where+the+brothels+used+to+be."}
{"id":7712290352,"url":"http://farm9.staticflickr.com/8429/7712290352_5dd0c84cf4.jpg","path":"8bd/05c/8bd05ccf7ef015a097699ad42e4245dd.jpg","date":"2012-07-28","year":2012,"month":7,"lon":-131.53235,"lat":55.32776,"tags":"5d+mk+iii,alaska,brian+boyd,disney+cruise,disney+cruise+line,disney+wonder,inland+passage,juneau,ketchikan,mendenhall,seattle,skagway,tracy+arm","S2CellId":"548e400000000000","result":6158,"accuracy":0.08217368,"title":"2012-07-28+10.36.01-1"}
{"id":550242654,"url":"http://farm1.staticflickr.com/209/550242654_cffd19c71a.jpg","path":"cd4/fa1/cd4fa13511c05b6dcc927f3faaf9779e.jpg","date":"2007-06-06","year":2007,"month":6,"lon":-131.64081,"lat":55.341118,"tags":"creek,ketchikan","S2CellId":"540c000000000000","result":6092,"accuracy":0.2565141,"title":"20070606_2787894","description":"Ketchikan+creek%2C+famous+%28in+the+past%29+for+its...+um...+%22colourful%22+establishments.+%28The+only+brothel+strip+for+the+loney+miners+at+the+turn+of+the+century.%29"}
{"id":165714243,"url":"http://farm1.staticflickr.com/53/165714243_87c581a419.jpg","path":"af8/ccf/af8ccfb0f0bb71bc9f48355d4e862d.jpg","date":"2005-06-06","year":2005,"month":6,"lon":-131.65604,"lat":55.34789,"tags":"alaska,atlantis+cruise,ketchikan","S2CellId":"5470000000000000","result":6094,"accuracy":0.056174118,"title":"Day16+-+Sun+Cruise+Day+3_2+040"}
{"id":7436367402,"url":"http://farm8.staticflickr.com/7280/7436367402_2d1367f504.jpg","path":"7a5/5a3/7a55a361a1da48be66c559733976d.jpg","date":"2012-06-23","year":2012,"month":6,"lon":-131.65192,"lat":55.34379,"tags":"alaska,ketchikan,tugboat","S2CellId":"5470000000000000","result":6094,"accuracy":0.37058628,"title":"23June-Tug1","description":"The+Wendy+O+heading+north+through+Tongass+Narrows%2C+Ketchikan%2C+AK."}
{"id":6275563752,"url":"http://farm7.staticflickr.com/6042/6275563752_9ef1aac67a.jpg","path":"dc5/5d9/dc55d9bc2f125dff5029899ed9ddad.jpg","date":"2011-10-20","year":2011,"month":10,"lon":-131.64711,"lat":55.342323,"tags":"alaska,alaska+marine+highway,beer,bellingham,boat,british+columbia,canada,clouds,ferry,ketchikan,malaspina,ocean,sky,whales,zodiac","S2CellId":"56c4000000000000","result":6318,"accuracy":0.1230267,"title":"P1030779","description":"Killer+whales%21+%28Or%2C+as+Heidi+might+know%2C+is+really+pronounced+%22killerwhales.%22%29"}
{"id":3631643252,"url":"http://farm3.staticflickr.com/2465/3631643252_b9e1e617dc.jpg","path":"845/677/8456773cc452408275c6452a26b2db4c.jpg","date":"2006-07-06","year":2006,"month":7,"lon":-131.65002,"lat":55.3434,"tags":"2006,airplane,alaska,cruise,floatplane,july,ketchikan,oosterdam","S2CellId":"5470000000000000","result":6094,"accuracy":0.16165431,"title":"P7060203"}
{"id":7627507964,"url":"http://farm8.staticflickr.com/7251/7627507964_303fcccd53.jpg","path":"209/361/20936119db105d334d55fe39e27e2c2c.jpg","date":"2012-07-16","year":2012,"month":7,"lon":-131.64384,"lat":55.339893,"tags":"alaska,cruise,vacation","S2CellId":"548ff00000000000","result":6177,"accuracy":0.07137256,"title":"Best+Dungeness+Crab"}
{"id":8049748442,"url":"http://farm9.staticflickr.com/8033/8049748442_06921715d2.jpg","path":"fa2/1d3/fa21d30304243293b72c359d55796.jpg","date":"2012-09-30","year":2012,"month":9,"lon":-131.69408,"lat":55.354313,"tags":"mv+columbia,neerav+bhatt+waterproof+alaska+marine+highway+ferry","S2CellId":"bc50000000000000","result":9959,"accuracy":0.057198454,"title":"Neerav+Bhatt+waterproof+-+Alaska+Marine+Highway+ferry%2C+MV+Columbia"}
