{"id":5759911800,"url":"http://farm3.staticflickr.com/2441/5759911800_318753d15d.jpg","path":"877/013/877013559983a3170742ce913713d8.jpg","date":"2011-04-21","year":2011,"month":4,"lon":-74.05595,"lat":44.087387,"tags":"andyarthur,growing,it,porch,tahawus,through,trees,up,with","S2CellId":"886d400000000000","result":8498,"accuracy":0.032456454,"title":"Porch+With+Trees+Growing+Up+and+Through+It","description":"Just+another+one+of+these+old+Tahawus+Club+buildings.+It%27s+too+bad+they+couldn%27t+have+saved+one%2C+or+some+how+adaptively+reused+it+for+some+kind+of+park+function.+%3Ca+href%3D%22http%3A%2F%2Fandyarthur.org%2Fphotos%2Ftahawus%2Fporchwitht.html%22+rel%3D%22nofollow%22%3Eandyarthur.org%2Fphotos%2Ftahawus%2Fporchwitht.html%3C%2Fa%3E"}
{"id":3302233490,"url":"http://farm4.staticflickr.com/3603/3302233490_bd61ab5526.jpg","path":"2e3/61b/2e361b1aaa5b62a9c85701557ae8984.jpg","date":"2008-08-28","year":2008,"month":8,"lon":-74.11677,"lat":44.507633,"tags":"adirondack+bogs,bog+vegetation,buck+pond,insectiverous+plants,pitcher+plants,sandra+richard,sandy+richard,wetland+vegetation","S2CellId":"3d00000000000000","result":2580,"accuracy":0.16609876,"title":"Pitcher+Plant+at+Buck+Pond"}
{"id":1683072077,"url":"http://farm3.staticflickr.com/2339/1683072077_308fd8c9db.jpg","path":"b8c/d2b/b8cd2b4de5a8ec2a3d2bfe644b905092.jpg","date":"2007-07-25","year":2007,"month":7,"lon":-74.40428,"lat":44.33923,"tags":"fish+creek+ponds,floodwood","S2CellId":"88d0a631cabb5071","result":8563,"accuracy":0.01322068,"title":"IMG_8427"}
{"id":3655193059,"url":"http://farm4.staticflickr.com/3327/3655193059_8ce53e02cb.jpg","path":"761/48a/76148afefd77e9246457169e43adb3e.jpg","date":"2009-06-22","year":2009,"month":6,"lon":-74.057495,"lat":44.04416,"tags":"dsc_3465,new+york,road,snail,stone","S2CellId":"4ca4000000000000","result":5831,"accuracy":0.005147587,"description":"%3Ca+href%3D%22http%3A%2F%2Fwww.flickr.com%2Fphotos%2Fmdmarkus66%2F3658307455%2F%22%3ECropped+version%3C%2Fa%3E%0A%0A%3Ca+href%3D%22http%3A%2F%2Floc.alize.us%2F%23%2Fflickr%3A3655193059%22+rel%3D%22nofollow%22%3ESee+where+this+picture+was+taken.%3C%2Fa%3E+%3Ca+href%3D%22http%3A%2F%2Fwww.flickr.com%2Fgroups%2Fgeotagging%2Fdiscuss%2F72157594165549916%2F%22%3E%5B%3F%5D%3C%2Fa%3E"}
{"id":156428589,"url":"http://farm1.staticflickr.com/74/156428589_b8043bea3b.jpg","path":"c32/0ca/c320ca45f4949c6adddc77b983d5b5f4.jpg","date":"2006-05-28","year":2006,"month":5,"lon":-74.05493,"lat":44.086197,"tags":"adirondacks,backpacking,hiking,lake+colden,mt+adams,upper+works","S2CellId":"864e640000000000","result":7620,"accuracy":0.06696483,"title":"IMG_3240.JPG"}
{"id":5922433086,"url":"http://farm7.staticflickr.com/6002/5922433086_f08140d055.jpg","path":"328/1de/3281de2fc7ab0d53f2dcb8a22e4d46.jpg","date":"2011-07-01","year":2011,"month":7,"lon":-74.26075,"lat":44.45613,"tags":"adirondack,andyarthur,deck,observation,paul,paulsmiths,smiths,vic","S2CellId":"4cd5000000000000","result":5934,"accuracy":0.12341517,"title":"Adirondack+VIC+Observation+Deck","description":"Exploring+the+lands+behind+the+VIC+on+Barnum+Pond.+%3Ca+href%3D%22http%3A%2F%2Fandyarthur.org%2Fphotos%2Fpaulsmiths%2Fadirondack.html%22+rel%3D%22nofollow%22%3Eandyarthur.org%2Fphotos%2Fpaulsmiths%2Fadirondack.html%3C%2Fa%3E"}
{"id":7246205154,"url":"http://farm8.staticflickr.com/7214/7246205154_2b1327218f.jpg","path":"238/756/2387568d152bfd45eb6f48ded3f224.jpg","date":"2012-05-20","year":2012,"month":5,"lon":-74.89327,"lat":44.93404,"tags":"massena,new+york+state,small+towns,spring,st+lawrence+seaway,u.s.a","S2CellId":"5490540000000000","result":6203,"accuracy":0.003743168,"title":"Massena"}
{"id":2884444083,"url":"http://farm3.staticflickr.com/2402/2884444083_7beab69048.jpg","path":"3aa/24a/3aa24a9849c6c6f9d18b965e87a1c80.jpg","date":"2008-08-30","year":2008,"month":8,"lon":-74.271866,"lat":44.258232,"tags":"adirondack,adirondack+mountains,adirondacks,camp,lake,lakes,mancamp,middle+saranac+lake,mountain,mountains,saranac+lakes,summer,sunset","S2CellId":"5470000000000000","result":6094,"accuracy":0.2120184,"title":"highpeakskyline"}
{"id":231415787,"url":"http://farm1.staticflickr.com/98/231415787_aa0fbeda15.jpg","path":"444/b7f/444b7fa2f8ef2b44b41d2ba5cd52d841.jpg","date":"2006-08-21","year":2006,"month":8,"lon":-74.13178,"lat":44.32453,"tags":"0806,d70,saranaclake,travel","S2CellId":"9aab000000000000","result":9926,"accuracy":0.016708875,"title":"Saranac-30","description":"The+three+tenors+%28Saranac+Lake%29"}
{"id":2155423424,"url":"http://farm3.staticflickr.com/2315/2155423424_eb773f76d6.jpg","path":"488/d0a/488d0a6e2eb6548ab7b79e72c4863.jpg","date":"2007-12-28","year":2007,"month":12,"lon":-74.139854,"lat":44.32909,"tags":"corona,labs,lost+ball,phelps,ringo,ubu","S2CellId":"8849000000000000","result":8403,"accuracy":0.009308646,"title":"phelps+finishes+the+ubu."}
{"id":229327209,"url":"http://farm1.staticflickr.com/83/229327209_2ba60ae24f.jpg","path":"61b/5c0/61b5c0e5aa2aa0ba658b3edcc7a96a3e.jpg","date":"2006-08-18","year":2006,"month":8,"lon":-74.54,"lat":44.19796,"tags":"adirondacks,beaver,beaver+lodge,dam,gull+pond,lodge,new+york,tupper+lake,water","S2CellId":"601d400000000000","result":6554,"accuracy":0.024161154,"title":"DSCN1737.JPG"}
{"id":2884445355,"url":"http://farm4.staticflickr.com/3194/2884445355_76e66c38c6.jpg","path":"27b/878/27b878ddcd12d63d10e2df684964d8df.jpg","date":"2008-08-30","year":2008,"month":8,"lon":-74.24097,"lat":44.276764,"tags":"adirondack,adirondack+mountains,adirondacks,camp,eel+grass,lake,lakes,mancamp,middle+saranac+lake,mountain,mountains,saranac+lakes,summer","S2CellId":"88e8c00000000000","result":8695,"accuracy":0.069843456,"title":"eelgrass4"}
{"id":228905883,"url":"http://farm1.staticflickr.com/64/228905883_cf62ac43ae.jpg","path":"4cc/5d3/4cc5d390eef374ff1a2c6dda5d7568.jpg","date":"2006-08-12","year":2006,"month":8,"lon":-74.77655,"lat":44.501125,"tags":"longexposure,mist,moonlight","S2CellId":"4d5c000000000000","result":5955,"accuracy":0.075372726,"title":"Moonlit+Mist"}
{"id":5922436176,"url":"http://farm7.staticflickr.com/6138/5922436176_dbec89f2f3.jpg","path":"7eb/13a/7eb13a5df2c4f53d6e622214df35fe.jpg","date":"2011-07-01","year":2011,"month":7,"lon":-74.26251,"lat":44.454,"tags":"andyarthur,paul,paulsmiths,smiths,tree","S2CellId":"4cd5000000000000","result":5934,"accuracy":0.10380848,"title":"Tree","description":"Along+the+edge+of+Barnum+Pond+Outlet.+%3Ca+href%3D%22http%3A%2F%2Fandyarthur.org%2Fphotos%2Fpaulsmiths%2Ftree.html%22+rel%3D%22nofollow%22%3Eandyarthur.org%2Fphotos%2Fpaulsmiths%2Ftree.html%3C%2Fa%3E"}
{"id":8465551549,"url":"http://farm9.staticflickr.com/8526/8465551549_a68918d316.jpg","path":"9ac/88c/9ac88c3480802a417d2af11839a24fa.jpg","date":"2012-08-18","year":2012,"month":8,"lon":-74.71805,"lat":44.9766,"tags":"%C3%A9t%C3%A9,2012,50d,bridge,canada,canon,canon+eos+hogansburg+%C3%A9tat+de+new+york+%C3%A9tats-unis,cornwall,eos+50d,fleuve,ontario,river,saint-laurent,st.lawrence,summer","S2CellId":"862c000000000000","result":7533,"accuracy":0.038128063,"title":"International+bridge+in+Cornwall"}
{"id":2884447517,"url":"http://farm4.staticflickr.com/3279/2884447517_438edb49e2.jpg","path":"37f/622/37f6226842d6dab8a965cd9b523ef9ef.jpg","date":"2008-08-30","year":2008,"month":8,"lon":-74.245346,"lat":44.26496,"tags":"adirondack,adirondack+mountains,adirondacks,camp,kayak,lake,lakes,mancamp,middle+saranac+lake,mountain,mountains,saranac+lakes,summer","S2CellId":"4cbb000000000000","result":5873,"accuracy":0.24811508,"title":"backofA"}
{"id":11471304874,"url":"http://farm6.staticflickr.com/5521/11471304874_3fbdb23260.jpg","path":"123/a76/123a7626c285704548ceeb3d7128c116.jpg","date":"2013-12-20","year":2013,"month":12,"lon":-74.987564,"lat":44.709885,"tags":"dog,dogs,malcolm","S2CellId":"5485500000000000","result":6101,"accuracy":0.04463271,"title":"Decorating%21"}
{"id":7065103529,"url":"http://farm6.staticflickr.com/5120/7065103529_b56d937e8f.jpg","path":"9eb/4ed/9eb4ed1bf22169478ce0929b7f56e8.jpg","date":"2010-06-25","year":2010,"month":6,"lon":-74.13176,"lat":44.325974,"tags":"architecture,building,new+york,road+trip,saranac+lake","S2CellId":"548f749000000000","result":6168,"accuracy":0.025079984,"title":"Saranac+Lake%2C+New+York","description":"Downtown"}
{"id":3964156579,"url":"http://farm3.staticflickr.com/2499/3964156579_b877e723a6.jpg","path":"832/ca0/832ca0787a93501d5de166154d52944.jpg","date":"2009-09-05","year":2009,"month":9,"lon":-74.25882,"lat":44.26555,"tags":"adirondacks,camping,lakes,mancamp,mountains,new+york,outdoors","S2CellId":"89b5c00000000000","result":8823,"accuracy":0.01712853,"title":"night+1+campfire+12"}
{"id":8466643990,"url":"http://farm9.staticflickr.com/8520/8466643990_9533ea675d.jpg","path":"987/02c/98702ceadd47b3d2d6e24c9537c6c9.jpg","date":"2012-08-18","year":2012,"month":8,"lon":-74.738976,"lat":44.98122,"tags":"%C3%A9t%C3%A9,2012,50d,bridge,canada,canon,canon+eos+massena+%C3%A9tat+de+new+york+%C3%A9tats-unis,cornwall,eos+50d,fleuve,ontario,river,saint-laurent,st.lawrence,summer","S2CellId":"8620a5c000000000","result":7508,"accuracy":0.07547165,"title":"Cornwall"}
{"id":10948399194,"url":"http://farm3.staticflickr.com/2824/10948399194_fed4c613f7.jpg","path":"dc6/1b6/dc61b6acaaf8dd84e8f1f991681fa29.jpg","date":"2013-11-17","year":2013,"month":11,"lon":-74.987366,"lat":44.709805,"tags":"dog,dogs,malcolm","S2CellId":"8c0c000000000000","result":9416,"accuracy":0.008423399}
{"id":5772339087,"url":"http://farm3.staticflickr.com/2457/5772339087_0b45116515.jpg","path":"102/f97/102f97b974a54b4c8ef55988f51954db.jpg","date":"2008-10-24","year":2008,"month":10,"lon":-74.98595,"lat":44.800095,"tags":"abandoned,flooding,racquette,railroad,river","S2CellId":"4cca400000000000","result":5905,"accuracy":0.1290883,"title":"flooded-abutments","description":"The+Racquette+River+was+very+floody+at+the+end+of+April.+It+got+a+bit+worse+than+this.+It%27s+amazing+that+these+abutments+can+withstand+the+water+without+the+weight+of+a+bridge+on+them."}
{"id":5921887505,"url":"http://farm7.staticflickr.com/6008/5921887505_1d653b268c.jpg","path":"811/2a6/8112a648bcc819c4ee35e12d1c87d039.jpg","date":"2011-07-01","year":2011,"month":7,"lon":-74.26243,"lat":44.45693,"tags":"andyarthur,paul,paulsmiths,smiths,spatterdock","S2CellId":"88fb990000000000","result":8747,"accuracy":0.051915027,"title":"Spatterdock","description":"On+Barnum+Pond.+%3Ca+href%3D%22http%3A%2F%2Fandyarthur.org%2Fphotos%2Fpaulsmiths%2Fspatterdoc.html%22+rel%3D%22nofollow%22%3Eandyarthur.org%2Fphotos%2Fpaulsmiths%2Fspatterdoc.html%3C%2Fa%3E"}
{"id":2884449823,"url":"http://farm4.staticflickr.com/3207/2884449823_eb9865e76a.jpg","path":"c98/37b/c9837b61612bd8886da622398511a.jpg","date":"2008-08-30","year":2008,"month":8,"lon":-74.262085,"lat":44.26312,"tags":"adirondack,adirondack+mountains,adirondacks,camp,kayak,lake,lakes,mancamp,middle+saranac+lake,mountain,mountains,saranac+lakes,summer","S2CellId":"5488c00000000000","result":6153,"accuracy":0.03323051,"title":"leavingcamp3"}
{"id":3009806286,"url":"http://farm4.staticflickr.com/3186/3009806286_084762afa1.jpg","path":"895/bf2/895bf2806fdefef5c4a25050bd857d4.jpg","date":"2008-11-06","year":2008,"month":11,"lon":-74.98531,"lat":44.75609,"tags":"abandoned,newyorkandogdensburg,railroad","S2CellId":"8f75000000000000","result":9551,"accuracy":0.005394107,"title":"img_0266","description":"Ramapo+Iron+Works%0APat%27d%0AMay+27+1884%0AJune+23+1885%0AFeb+24%2C+1891%0AOct+19%2C+1891%0AHillburn+N.Y.%0A%0AThere+is+still+a+company+named+Ramapo+Iron+Works+in+Hillburn%2C+NY%2C+which+may+or+may+not+be+a+successor+company+to+the+original+iron+works+company.++They+make+iron+fencing+now."}
{"id":4914435531,"url":"http://farm5.staticflickr.com/4096/4914435531_5c31929788.jpg","path":"e1a/c74/e1ac74e9ed3651ef811eb6e92cd4aed4.jpg","date":"2010-08-20","year":2010,"month":8,"lon":-74.98568,"lat":44.666485,"tags":"blue,bridge,dress,eyes,hair,laughing,outside,photo,photoshoot,portrait,profile,river,road,shoot,short,smile,water,woman,women","S2CellId":"472c000000000000","result":3253,"accuracy":0.007262533,"title":"Amber%27s+Shoot"}
{"id":6926536673,"url":"http://farm8.staticflickr.com/7186/6926536673_1f860f1fde.jpg","path":"0a3/bbc/0a3bbc8266b7726ef9262694edc3f.jpg","date":"2012-02-21","year":2012,"month":2,"lon":-74.4385,"lat":44.219727,"tags":"adirondacks,center,the,wild","S2CellId":"47e61d1d00000000","result":4562,"accuracy":0.023278818,"title":"Kestral+Hawk","description":"The+Wild+Center%2C+Tupper+Lake%2C+NY"}
{"id":6196965035,"url":"http://farm7.staticflickr.com/6162/6196965035_ac3617240e.jpg","path":"555/7d3/5557d36089a68ccf65487566e7f249.jpg","date":"2011-09-27","year":2011,"month":9,"lon":-74.46411,"lat":44.223972,"tags":"adk,awertz","S2CellId":"52af000000000000","result":5972,"accuracy":0.08188984,"description":"Tupper+Lake%2C+NY"}
{"id":5560107994,"url":"http://farm6.staticflickr.com/5104/5560107994_95b1985e75.jpg","path":"1bc/bdc/1bcbdc6876adb7e2a535fedd0b1881a.jpg","date":"2011-03-25","year":2011,"month":3,"lon":-74.71081,"lat":44.688793,"tags":"b%2Fw,black+and+white,building,ilford+hp5%2B,leica,m3,summicron+50%2F2","S2CellId":"5240000000000000","result":5966,"accuracy":0.015309543,"title":"bottle+redemption"}
{"id":6259000831,"url":"http://farm7.staticflickr.com/6019/6259000831_73f840a15e.jpg","path":"61a/7df/61a7df40a25a50fb7be605652d0d38f.jpg","date":"2011-10-09","year":2011,"month":10,"lon":-74.18767,"lat":44.45483,"tags":"andyarthur,lake-area,line,rainbow,sunlit,tree","S2CellId":"4d54000000000000","result":5954,"accuracy":0.07126899,"title":"Sunlit+Tree+Line","description":"%3Ca+href%3D%22http%3A%2F%2Fandyarthur.org%2Fphotos%2Frainbow%2Fsunlittree.html%22+rel%3D%22nofollow%22%3Eandyarthur.org%2Fphotos%2Frainbow%2Fsunlittree.html%3C%2Fa%3E"}
{"id":436880089,"url":"http://farm1.staticflickr.com/164/436880089_ff5ebe93de.jpg","path":"fd6/166/fd61662e29a2c14a529aa070114148f.jpg","date":"2005-09-10","year":2005,"month":9,"lon":-74.33736,"lat":44.253838,"tags":"adirondacks,new+york,upper+saranac+lake,wabeek+resort","S2CellId":"80c8c3c000000000","result":7231,"accuracy":0.004714892,"title":"DSC00639.JPG"}
{"id":7937252510,"url":"http://farm9.staticflickr.com/8298/7937252510_c4589c8b69.jpg","path":"884/efc/884efcc57bf06f4ee3b6848904679.jpg","date":"2012-08-12","year":2012,"month":8,"lon":-74.18685,"lat":44.45419,"tags":"andyarthur,blue,lake-area,rainbow,yellow","S2CellId":"5290000000000000","result":5967,"accuracy":0.11881673,"title":"Blue+to+Yellow","description":"%3Ca+href%3D%22http%3A%2F%2Fandyarthur.org%2Fphotos%2Frainbow%2Fmedia13100.html%22+rel%3D%22nofollow%22%3Eandyarthur.org%2Fphotos%2Frainbow%2Fmedia13100.html%3C%2Fa%3E"}
{"id":3009179052,"url":"http://farm4.staticflickr.com/3037/3009179052_5325568803.jpg","path":"e94/c2c/e94c2ce325c57b7effd9b3cf33760e0.jpg","date":"2008-11-06","year":2008,"month":11,"lon":-74.98394,"lat":44.757576,"tags":"abandoned,newyorkandogdensburg,raillroad","S2CellId":"4cc9140000000000","result":5881,"accuracy":0.015597309,"title":"img_0251","description":"The+tracks+of+the+%3Ca+href%3D%22http%3A%2F%2Fwww.flickr.com%2Fphotos%2Frussnelson%2F3009174206%2F%22%3Ewye%3C%2Fa%3E."}
{"id":6237524525,"url":"http://farm7.staticflickr.com/6219/6237524525_db29d90252.jpg","path":"82d/ec8/82dec8a5f0e2efb9f6ab98fc2384aa3c.jpg","date":"2011-10-12","year":2011,"month":10,"lon":-74.9752,"lat":44.66077,"tags":"365,college,dorm,ios,iphone,iphone4,paths,potsdam,trees,view,window","S2CellId":"4cb29d0000000000","result":5845,"accuracy":0.016630538,"title":"2%2F365","description":"Day+2%21+View+from+my+dorm+room%2C+I%27m+back+at+school+for+a+couple+days%21"}
{"id":6866566417,"url":"http://farm8.staticflickr.com/7048/6866566417_e96212a527.jpg","path":"dac/148/dac1485d4d4a6b7647a8a5db7b1eb.jpg","date":"2012-02-12","year":2012,"month":2,"lon":-74.50972,"lat":44.82993,"tags":"abandoned,railroad,station","S2CellId":"879c000000000000","result":7927,"accuracy":0.006040586,"title":"brushton-front","description":"The+Rutland+Railroad+passenger+station+in+Brushton+still+exists%2C+but+it%27s+had+its+eves+cut+off+and+its+length+has+been+cut+down."}
{"id":6261779003,"url":"http://farm7.staticflickr.com/6157/6261779003_316924eb65.jpg","path":"308/022/308022868b7c958e953521588694b3.jpg","date":"2011-10-10","year":2011,"month":10,"lon":-74.10398,"lat":44.52845,"tags":"1,andyarthur,kushaqua-mud,lake-area,pond,rainbow,road","S2CellId":"881f000000000000","result":8212,"accuracy":0.028188037,"title":"Kushaqua-Mud+Pond+Road+1","description":"%3Ca+href%3D%22http%3A%2F%2Fandyarthur.org%2Fphotos%2Frainbow%2Fkushaquamu1.html%22+rel%3D%22nofollow%22%3Eandyarthur.org%2Fphotos%2Frainbow%2Fkushaquamu1.html%3C%2Fa%3E"}
{"id":2282219071,"url":"http://farm3.staticflickr.com/2182/2282219071_8ea9765ff3.jpg","path":"a33/fe9/a33fe93fe14a59f8eadf57ff75d66910.jpg","date":"2008-02-16","year":2008,"month":2,"lon":-74.26,"lat":44.44993,"tags":"paulsmith,ski,winter","S2CellId":"0d50400000000000","result":429,"accuracy":0.018065093,"title":"And+more+trees"}
{"id":5975452083,"url":"http://farm7.staticflickr.com/6146/5975452083_b858ed6bef.jpg","path":"db3/5a8/db35a86caa9666f51701386132cbde.jpg","date":"2009-06-14","year":2009,"month":6,"lon":-74.43867,"lat":44.219814,"tags":"crash","S2CellId":"8620af4000000000","result":7522,"accuracy":0.25956553,"title":"wood+ducks"}
{"id":4984563382,"url":"http://farm5.staticflickr.com/4085/4984563382_31be85bf53.jpg","path":"1bd/de7/1bdde7b02d3fb9787cbb649068385ae6.jpg","date":"2010-08-28","year":2010,"month":8,"lon":-74.39028,"lat":44.363914,"tags":"adirondacks","S2CellId":"4cd5000000000000","result":5934,"accuracy":0.29211617,"title":"Mirror","description":"Admiring+the+calm+waters+of+the+morning"}
{"id":5830510707,"url":"http://farm4.staticflickr.com/3321/5830510707_b75c3a9234.jpg","path":"fc2/a0f/fc2a0f636b6b379a12f4e067be65.jpg","date":"2011-05-30","year":2011,"month":5,"lon":-74.99181,"lat":44.801693,"tags":"053011,church,dam,house,new+york,norfolk,north+country,river,train+station,upstate","S2CellId":"a82b000000000000","result":9932,"accuracy":0.03154154,"title":"Norfolk%2C+New+York","description":"Norfolk%2C+New+York"}
{"id":5178497053,"url":"http://farm2.staticflickr.com/1411/5178497053_afda2d4727.jpg","path":"a6f/159/a6f1599caca7ef63964ef739fd3e05f.jpg","date":"2010-11-10","year":2010,"month":11,"lon":-74.43901,"lat":44.220474,"tags":"action,alternative,center,climate,energy,green,planet,students,wild","S2CellId":"4876440000000000","result":5361,"accuracy":0.16488025,"title":"2010+Adirondack+Youth+Climate+Summit+-+The+Wild+Center","description":"Hightlights+of+the+2010+Adiorndack+Youth+Climate+Summit+held+November+9-10%2C+2010+at+The+Wild+Center"}
{"id":6335322136,"url":"http://farm7.staticflickr.com/6240/6335322136_b6839d2596.jpg","path":"8a5/1c7/8a51c78c927d12b3cb6b514c6522a9.jpg","date":"2011-11-09","year":2011,"month":11,"lon":-74.43901,"lat":44.220474,"tags":"adirondack+youth+climate+summit,the+wild+center","S2CellId":"4170000000000000","result":2739,"accuracy":0.04780164,"title":"New+Path+at+The+Wild+Center"}
{"id":3925045576,"url":"http://farm4.staticflickr.com/3462/3925045576_a845daa6ae.jpg","path":"d85/282/d852823e13208c809ce80abc7a85d4.jpg","date":"2009-09-04","year":2009,"month":9,"lon":-74.01077,"lat":44.106815,"tags":"adirondacks,backpacking,high+peaks,ny,raw","S2CellId":"5470000000000000","result":6094,"accuracy":0.13093424,"title":"Feasting+at+Henderson+Lake"}
{"id":5928708154,"url":"http://farm7.staticflickr.com/6122/5928708154_7e4c453b0c.jpg","path":"ca7/726/ca772613bb32fc4b0a2f9238dc753e1.jpg","date":"2011-07-09","year":2011,"month":7,"lon":-74.669525,"lat":44.109406,"tags":"boats,sky,water","S2CellId":"52a4000000000000","result":5968,"accuracy":0.22454147,"title":"IMG_3046"}
{"id":1445682714,"url":"http://farm2.staticflickr.com/1077/1445682714_b76d5997bb.jpg","path":"421/3d2/4213d2fc745410dfbce49d2f23e2c87.jpg","date":"2007-09-22","year":2007,"month":9,"lon":-74.21299,"lat":44.108448,"tags":"ahren,ahrend","S2CellId":"5140000000000000","result":5964,"accuracy":0.10340512,"title":"IMG_3743"}
{"id":12014316485,"url":"http://farm6.staticflickr.com/5517/12014316485_46dccc2203.jpg","path":"285/c7d/285c7d4c3486dcf94c5f6a2cd51f6e95.jpg","date":"2014-01-18","year":2014,"month":1,"lon":-74.987465,"lat":44.70991,"tags":"colorvibe+filter","S2CellId":"89d4d40000000000","result":9260,"accuracy":0.037259653,"title":"We+changed+jack%27s+food.+He%27s+like+a+whole+new+cat.","description":"Like%2C+cuddly%2C+in+addition+to+heavier+and+more+energetic.++Wtf%2C+cat.+Now+I+feel+intensely+guilty+that+he+was+feeling+so+poorly+and+it+was+my+fault+for+feeding+him+food+that+wasn%27t+nourishing+him+enough.+%0A%0ADumb+non-verbal+dependents%21"}
{"id":6262286020,"url":"http://farm7.staticflickr.com/6153/6262286020_58456b0d2e.jpg","path":"528/ab0/528ab0bf41739424491457d0e563dc.jpg","date":"2011-10-10","year":2011,"month":10,"lon":-74.19903,"lat":44.45105,"tags":"andyarthur,back,jones,lake-area,pond,rainbow","S2CellId":"5470000000000000","result":6094,"accuracy":0.06930599,"title":"Back+to+Jones+Pond","description":"%3Ca+href%3D%22http%3A%2F%2Fandyarthur.org%2Fphotos%2Frainbow%2Fbacktojone.html%22+rel%3D%22nofollow%22%3Eandyarthur.org%2Fphotos%2Frainbow%2Fbacktojone.html%3C%2Fa%3E"}
{"id":6866564827,"url":"http://farm8.staticflickr.com/7193/6866564827_1dde3e9735.jpg","path":"bb7/6ea/bb76ea79495345188f80edfe62f85f.jpg","date":"2012-02-12","year":2012,"month":2,"lon":-74.50972,"lat":44.82993,"tags":"abandoned,railroad,station","S2CellId":"4cd1000000000000","result":5929,"accuracy":0.020746727,"title":"IMG_6966","description":"The+Rutland+Railroad+passenger+station+in+Brushton+still+exists%2C+but+it%27s+had+its+eves+cut+off+and+its+length+has+been+cut+down.+Front+view+from+the+road."}
{"id":6919024174,"url":"http://farm6.staticflickr.com/5324/6919024174_28cc8ebae2.jpg","path":"6b2/981/6b29811c0cd53fda4062476598c5d6.jpg","date":"2010-06-25","year":2010,"month":6,"lon":-74.13176,"lat":44.325974,"tags":"architecture,building,new+york,pharmacy,post+office+pharmacy,road+trip,saranac+lake,store","S2CellId":"876bb00000000000","result":7866,"accuracy":0.016050266,"title":"Saranac+Lake%2C+New+York","description":"Post+Office+Pharmacy"}
