{"id":5399156680,"url":"http://farm6.staticflickr.com/5292/5399156680_50f540f491.jpg","path":"cde/34b/cde34b762fb39d26d2dccf12fc35181.jpg","date":"2011-01-07","year":2011,"month":1,"lon":-77.922935,"lat":-6.411774,"tags":"chachapoyas,kuelap,peru,semester,sommar,trekking","S2CellId":"4615000000000000","result":2764,"accuracy":0.07257551,"title":"View+from+Kuelap"}
{"id":2989409113,"url":"http://farm4.staticflickr.com/3049/2989409113_05e25df711.jpg","path":"d7d/bac/d7dbac72a5836c173460c95e48a84c6a.jpg","date":"2008-10-29","year":2008,"month":10,"lon":-77.86946,"lat":-6.22964,"tags":"patrickandmarygoround,patrickmmoore,peru","S2CellId":"7952400000000000","result":6862,"accuracy":0.027247261,"title":"Peru+-+150","description":"Kuelap+-+old+school+compass+points+north"}
{"id":5398579633,"url":"http://farm6.staticflickr.com/5017/5398579633_92dcfbbecb.jpg","path":"c2e/24a/c2e24af3eed53a1625d1402cf63cc4.jpg","date":"2011-01-07","year":2011,"month":1,"lon":-77.4543,"lat":-6.42197,"tags":"chachapoyas,peru,semester,sommar,trekking","S2CellId":"8e6c000000000000","result":9486,"accuracy":0.090852946,"title":"IMGP7650"}
{"id":11300884824,"url":"http://farm4.staticflickr.com/3724/11300884824_19198cf30f.jpg","path":"1d1/46d/1d146dcea337b8af1c879b718ffb916.jpg","date":"2012-11-10","year":2012,"month":11,"lon":-77.914665,"lat":-6.232833,"tags":"chachapoyas,landscape,peru,south+america,valley","S2CellId":"536c000000000000","result":6045,"accuracy":0.26559472,"title":"more+stunning+scenery+from+the+Chachapoyas+region","description":"%C2%A9+Marc+Wisniak+2012%0Amarcwiz%40gmail.com"}
{"id":6057583184,"url":"http://farm7.staticflickr.com/6201/6057583184_b243e8992e.jpg","path":"e6b/fb4/e6bfb448f35e5c25b1ef96faf9cecf1.jpg","date":"2011-03-14","year":2011,"month":3,"lon":-77.93495,"lat":-6.416977,"tags":"flagged,peru","S2CellId":"916d9c0000000000","result":9613,"accuracy":0.88673717,"title":"IMG_0608"}
{"id":4474604570,"url":"http://farm3.staticflickr.com/2744/4474604570_fcf244ac94.jpg","path":"fef/ce6/fefce6789e1eb7ad23d9f917f88cc373.jpg","date":"2010-02-20","year":2010,"month":2,"lon":-77.87144,"lat":-6.243292,"tags":"bazaar,carne,chachapoyas,food,fowl,fresh,guy,hanging,man,market,meat,mercado,natural,organic,people,peru,rural","S2CellId":"3bc4000000000000","result":2563,"accuracy":0.025017388,"title":"Mercado+Chachapoyas+Peru15"}
{"id":2989506935,"url":"http://farm4.staticflickr.com/3281/2989506935_05941a6e0d.jpg","path":"d95/59b/d9559b47c92f2f7ae245e3d195830.jpg","date":"2008-10-29","year":2008,"month":10,"lon":-77.86946,"lat":-6.22964,"tags":"patrickandmarygoround,patrickmmoore,peru","S2CellId":"916df00000000000","result":9621,"accuracy":0.16347553,"title":"Peru+-+175","description":"More+circular+houses+built+into+the+cliff+along+the+road"}
{"id":4474605396,"url":"http://farm5.staticflickr.com/4043/4474605396_d210627eed.jpg","path":"0ac/35a/0ac35a2889b4b2868f9d423e2545fba.jpg","date":"2010-02-20","year":2010,"month":2,"lon":-77.87006,"lat":-6.2322,"tags":"bazaar,carne,chachapoyas,food,fowl,fresh,guy,hanging,man,market,meat,mercado,natural,organic,people,peru,rural,women","S2CellId":"3964000000000000","result":2471,"accuracy":0.07759533,"title":"Mercado+Chachapoyas+Peru16"}
