{"id":2877200916,"url":"http://farm4.staticflickr.com/3259/2877200916_30d2db8ffb.jpg","path":"1c8/17f/1c817f9ba54866af796d0f51964b757.jpg","date":"2008-08-30","year":2008,"month":8,"lon":-16.705948,"lat":14.089295,"tags":"africa,senegal,travel,viajes,viatges","S2CellId":"30cc000000000000","result":1621,"accuracy":0.035079554,"title":"cami"}
{"id":8923407370,"url":"http://farm6.staticflickr.com/5454/8923407370_208b602109.jpg","path":"f7e/15d/f7e15d194308ff4da3b5425eb4aba6d.jpg","date":"2013-05-26","year":2013,"month":5,"lon":-16.824724,"lat":14.154107,"tags":"africa,bicycle,day204,fadiout,freewheely.com,joal,petite+cote,senegal","S2CellId":"9aab000000000000","result":9926,"accuracy":0.007941922,"title":"20130526-DSC_8677"}
{"id":2423373446,"url":"http://farm4.staticflickr.com/3240/2423373446_50d1ae365f.jpg","path":"cae/9d9/cae9d9d4ffe19c09c9f3fb2c3345.jpg","date":"2008-03-04","year":2008,"month":3,"lon":-16.999666,"lat":14.544333,"tags":"%28syncerus,animal%2Fafrican,animal%2Fafrican+animal%2Fbuffalo+%28syncerus+caffer%29,animal%2Fbuffalo,caffer%29%3B,gallery2flickr,place%2Fcontinent%2Fafrica%3B,place%2Fcountry%2Fsenegal%2Fbandia,place%2Fcountry%2Fsenegal%3B,senegal","S2CellId":"8620af4000000000","result":7522,"accuracy":0.014473892,"title":"La+Petite+Cote+en+tandem+avec+Pauline"}
{"id":6338456580,"url":"http://farm7.staticflickr.com/6042/6338456580_bde4678550.jpg","path":"a8f/ceb/a8fcebe9fa97cd183a4c7468d7e683d.jpg","date":"2011-11-03","year":2011,"month":11,"lon":-16.85337,"lat":14.175857,"tags":"1985,africa,bundeswehr,fadiouth,fg,joal,kinderkrankenhaus,nd,noetzold,novemberdelta,senegal","S2CellId":"0ed0000000000000","result":640,"accuracy":0.12676454,"title":"Little+Mosque"}
{"id":6337675023,"url":"http://farm7.staticflickr.com/6044/6337675023_1134cbe48e.jpg","path":"c0e/c8b/c0ec8b6ce6bbaadc27f8224a1c4ca.jpg","date":"2011-11-03","year":2011,"month":11,"lon":-16.859894,"lat":14.174692,"tags":"1985,africa,bundeswehr,fadiouth,fg,joal,kinderkrankenhaus,nd,noetzold,novemberdelta,senegal","S2CellId":"0900000000000000","result":125,"accuracy":0.03325167,"title":"The+Hospital+sign"}
{"id":2423371966,"url":"http://farm3.staticflickr.com/2305/2423371966_6796072360.jpg","path":"6a9/542/6a95427f851dbd1615af8769192724d.jpg","date":"2008-03-04","year":2008,"month":3,"lon":-16.9985,"lat":14.556,"tags":"%28coracias,abyssinicus%29%3B,animal%2Fbird%2Frollier,animal%2Fbird%2Frollier+d%27abyssinie+%28coracias+abyssinicus%29,d%27abyssinie,gallery2flickr,place%2Fcontinent%2Fafrica%3B,place%2Fcountry%2Fsenegal%2Fbandia,place%2Fcountry%2Fsenegal%3B,senegal","S2CellId":"9aab000000000000","result":9926,"accuracy":0.064333044,"title":"La+Petite+Cote+en+tandem+avec+Pauline"}
{"id":7276700324,"url":"http://farm8.staticflickr.com/7101/7276700324_174f41502e.jpg","path":"c4b/e02/c4be02a86cfc8cf2db984dc2da4ccc1.jpg","date":"2012-05-27","year":2012,"month":5,"lon":-16.8385,"lat":14.156833,"tags":"africa,senegal,viaggi","S2CellId":"89c2444000000000","result":8937,"accuracy":0.032712344}
{"id":8924871066,"url":"http://farm3.staticflickr.com/2854/8924871066_8547c862d7.jpg","path":"63e/3bf/63e3bfffc863405a3d80bbc62ee7eeb.jpg","date":"2013-05-27","year":2013,"month":5,"lon":-16.398483,"lat":14.292412,"tags":"africa,bicycle,day205,delta,freewheely.com,senegal,sine+saloum","S2CellId":"0e90000000000000","result":638,"accuracy":0.36220056,"title":"20130527-DSC_8711"}
{"id":8923191630,"url":"http://farm8.staticflickr.com/7394/8923191630_cf1eeb7645.jpg","path":"a66/5ac/a665ac8db21d4beb27dea7106baec25b.jpg","date":"2013-05-26","year":2013,"month":5,"lon":-16.823818,"lat":14.153273,"tags":"africa,bicycle,cashew,day204,freewheely.com,petite+cote,senegal","S2CellId":"8085874500000000","result":6974,"accuracy":0.027920086,"title":"20130526-IMG_2360"}
{"id":412534184,"url":"http://farm1.staticflickr.com/153/412534184_923f182125.jpg","path":"a52/c19/a52c193acaec1b881b9d78b52a7c8339.jpg","date":"2007-03-06","year":2007,"month":3,"lon":-16.936798,"lat":14.481223,"tags":"africa,guia,senegal,turistico","S2CellId":"0ef0000000000000","result":641,"accuracy":0.08585187,"title":"senegal18"}
{"id":6758361739,"url":"http://farm8.staticflickr.com/7171/6758361739_80796ba78a.jpg","path":"e66/160/e66160e0e922317382f7644ebd14129.jpg","date":"2012-01-25","year":2012,"month":1,"lon":-16.947784,"lat":14.604847,"tags":"animals,bandia,giraff,giraffs,perspective,reserve,size","S2CellId":"1837000000000000","result":1426,"accuracy":0.17226508,"title":"Perspective+Playing+With+Size+of+Giraffs+-+Bandia+Reserve%2C+Senegal","description":"Giraffs+are+so+high%2C+even+babies+look+taller+than+adults+fo+other+animals.+Great+to+meet+them%21%0A----------%0ALes+girafes+font+partie+des+animaux+les+plus+%C3%A9vocateurs+de+l%27Afrique+dans+l%27imaginaire+occidental.+La+photo+ici+joue+sur+la+perspective+pour+souligner+la+taille+de+ces+mammif%C3%A8res+hauts+sur+pattes%2C+au+tr%C3%A8s+long+cou%3A+m%C3%AAme+le+b%C3%A9b%C3%A9+semble+immense.%0A%0A%28By+Jean+Marc+Demol%29%0A%0A%3Ca+href%3D%22http%3A%2F%2Fwww.dakar-travel.com%22+rel%3D%22nofollow%22%3Ewww.dakar-travel.com%3C%2Fa%3E"}
