{"id":6894622576,"url":"http://farm8.staticflickr.com/7043/6894622576_fe05075fbd.jpg","path":"556/fbf/556fbf3c74fd76657372ef89496db1.jpg","date":"2011-11-26","year":2011,"month":11,"lon":-70.5555,"lat":-24.769167,"tags":"hdr","S2CellId":"808de10000000000","result":6990,"accuracy":0.12586448,"title":"STE_7012"}
{"id":5616369947,"url":"http://farm6.staticflickr.com/5309/5616369947_72c3332f87.jpg","path":"585/753/58575370191f6a22ae7313bf4aa2dd6a.jpg","date":"2011-02-12","year":2011,"month":2,"lon":-70.66806,"lat":-26.146246,"tags":"beach,chile,dead,death,iii+regi%C3%B3n+de+atacama,mamifero,mammal,pan+de+az%C3%BAcar,parque+nacional+pan+de+az%C3%BAcar,piqueros,playa","S2CellId":"54f0000000000000","result":6316,"accuracy":0.055725023,"title":"Mam%C3%ADfero+marino+muerto+I","description":"Curiosa+textura%2C+parec%C3%ADa+hecho+de+alguna+clase+de+tela.+Nos+cost%C3%B3+creer+que+era+org%C3%A1nico."}
{"id":3350047104,"url":"http://farm4.staticflickr.com/3467/3350047104_daa14717ba.jpg","path":"9d3/381/9d3381624e9fe2289041e4806b58e8d8.jpg","date":"2008-11-18","year":2008,"month":11,"lon":-70.64742,"lat":-26.246368,"tags":"chile,pandeazucar,parque,parquenacional","S2CellId":"9aab000000000000","result":9926,"accuracy":0.11604278,"title":"Playa","description":"A%C3%BAn+antes+de+la+entrada%2C+hacemos+una+parada+en+esta+playa.+El+sol+decidi%C3%B3+levantarse+m%C3%A1s+tarde+hoy."}
{"id":1492485725,"url":"http://farm3.staticflickr.com/2001/1492485725_4a945e8b45.jpg","path":"ac6/a1b/ac6a1bc833b31d9f9b27acc44994a34.jpg","date":"2007-08-26","year":2007,"month":8,"lon":-70.62921,"lat":-26.138487,"tags":"chile,pan+de+azucar,region+de+atacama","S2CellId":"0d7c000000000000","result":608,"accuracy":0.03338087,"title":"Atrapaniebla+Pan+de+Azucar","description":"El+Credito+es+de+mi+Madre%3B+Silvia+Perez+El+Salvador+Region+de+Atacama+Feliz+Cumplea%C3%B1os+Madre"}
{"id":6631295553,"url":"http://farm8.staticflickr.com/7025/6631295553_71a935a657.jpg","path":"433/840/433840f1569ff2c44bef3b09695c3.jpg","date":"2011-12-29","year":2011,"month":12,"lon":-70.53703,"lat":-25.63255,"tags":"atacama,costa","S2CellId":"0c46340000000000","result":141,"accuracy":0.10453046,"title":"Camino+a+Cifuncho","description":"Photo+by+Tola+-+Cifuncho%2C+Costa+Atacama+Chile"}
{"id":4330858284,"url":"http://farm5.staticflickr.com/4024/4330858284_259bbc5531.jpg","path":"e79/a58/e79a583222cfcb80c2276654ba40cf89.jpg","date":"2010-02-03","year":2010,"month":2,"lon":-69.80035,"lat":-24.56336,"tags":"atacama,bicycle,bike,bike+tour,chile,cycle,cycling,desert,holiday,south+america,tour,touring,travel,vacation,vagabond","S2CellId":"9154000000000000","result":9600,"accuracy":0.16256687,"title":"11AM+in+the+Atacama+Desert","description":"5203*"}
{"id":3349248391,"url":"http://farm4.staticflickr.com/3463/3349248391_ab898ea9ec.jpg","path":"72b/9d9/72b9d96f59cf888f7e304acbd8167c7.jpg","date":"2008-11-18","year":2008,"month":11,"lon":-70.60704,"lat":-26.00893,"tags":"atrapaniebla,chile,invento,laslomitas,pandeazucar,parque,parquenacional","S2CellId":"48d5000000000000","result":5789,"accuracy":0.007109612,"title":"Atrapanieblas","description":"Este+tubo+de+PVC+cortado+conduce+las+gotas+que+son+atrapadas+por+la+malla."}
{"id":4321844407,"url":"http://farm3.staticflickr.com/2744/4321844407_053a52e9ac.jpg","path":"7f9/d74/7f9d7453aff6457b3bc7e731bc16cb51.jpg","date":"2010-01-30","year":2010,"month":1,"lon":-70.67934,"lat":-26.462427,"tags":"atacama,bicycle,bike,bike+tour,chile,cycle,cycling,desert,holiday,me,people,south+america,tour,touring,travel,vacation,vagabond","S2CellId":"0c6a840000000000","result":152,"accuracy":0.2330328,"title":"4000km+of+riding+in+South+America","description":"5142*"}
