{"id":9380603059,"url":"http://farm6.staticflickr.com/5486/9380603059_87ed04d9e4.jpg","path":"66a/90f/66a90f1a84e3f9f4fae85abe804f56.jpg","date":"2013-07-28","year":2013,"month":7,"lon":122.43183,"lat":37.804665,"tags":"amaro,instagram+app,iphoneography,square,square+format","S2CellId":"94ce700000000000","result":9730,"accuracy":0.00405838,"title":"bird+tintype+photograph+%23tingypsy+%40tingypsy+%23meghannmarygilligan+%23tintype+%23photography+%23bird+%23glass+%23plate+%23retro+%23renegade+%23craft+%23fortmason+%23sanfrancisco+%23california+%40renegadecraft+%23renegadecraftfair+%23renegadecraftsf+%23art++%23fortmason+%23sanfrancisco+%23cali"}
{"id":9371692141,"url":"http://farm8.staticflickr.com/7344/9371692141_c00c27f507.jpg","path":"d0b/ba4/d0bba4c8721d5945516e5ea288c17b74.jpg","date":"2013-07-26","year":2013,"month":7,"lon":122.42367,"lat":37.780666,"tags":"instagram+app,iphoneography,lord+kelvin,square,square+format","S2CellId":"0c41c00000000000","result":138,"accuracy":0.037188895,"title":"employment+development+department+building+obscured+by+parking+lot+trees+%23edd+%23jobs+%23employment+%23work+%23disability+%23parking+%23lot+%23tree+%23building+%23sanfrancisco+%23civiccenter+%23ilovesf+%23unemployment+%23instagram+%23webstagram+%23webstapick+%23lynnfriedman+%40lynnrfriedm"}
{"id":4105201090,"url":"http://farm3.staticflickr.com/2598/4105201090_f2f7bb8d7b.jpg","path":"702/133/702133cb77964ad841c1437527f856e.jpg","date":"2009-10-25","year":2009,"month":10,"lon":122.42185,"lat":37.160423,"tags":"asia,beach,black+and+white,boat,china,countryside,nikon+f3,old,rongcheng,seaside,shandong","S2CellId":"1240000000000000","result":651,"accuracy":0.0153492745,"title":"Old+Boats"}
{"id":8754294404,"url":"http://farm4.staticflickr.com/3674/8754294404_a7cfc90f3d.jpg","path":"8c5/553/8c55535e084c18971c2ce51cde1953e.jpg","date":"2013-05-19","year":2013,"month":5,"lon":122.301834,"lat":37.546165,"tags":"instagram+app,iphoneography,square,square+format","S2CellId":"808f9c0000000000","result":7050,"accuracy":0.0431427,"title":"Rickshaw+Obscura.+%23makerfaire"}
{"id":10621153223,"url":"http://farm8.staticflickr.com/7371/10621153223_b7991b50a5.jpg","path":"9ef/ec6/9efec67d161bb466188fb255fd51b5e3.jpg","date":"2013-11-01","year":2013,"month":11,"lon":122.45267,"lat":37.789833,"tags":"hudson,instagram+app,iphoneography,square,square+format","S2CellId":"4cc91bc000000000","result":5898,"accuracy":0.0028411292,"title":"monkey+face+++%23wghalloween+%23inkifihalloween++%23instagram+%23webstagram+%23webstapick+%23lynnfriedman+%40lynnrfriedman++%23halloween+%23costume+%23fashion+%23sf+%23sanfrancisco+%23ca+%23california+%23usa+%2394114+%2394117+%23casteo+%23lowerhaight+%23ilovesf+%23sfist+%237x7sf+%23howsfseessf+%23holid"}
{"id":9260099576,"url":"http://farm6.staticflickr.com/5542/9260099576_b3afd34da1.jpg","path":"eae/2a7/eae2a788656da4bf96b6b51d8ad71c83.jpg","date":"2013-07-10","year":2013,"month":7,"lon":122.427,"lat":37.759,"tags":"instagram+app,iphoneography,lord+kelvin,square,square+format","S2CellId":"3a02740000000000","result":2506,"accuracy":0.005032903,"title":"if+it+makes+you+happy+shirt+%23sanfrancisco++%23dolorespark+%23pride+%23instagram+%23lynnrfriedman"}
{"id":11520493953,"url":"http://farm8.staticflickr.com/7297/11520493953_a34ee11562.jpg","path":"131/edb/131edbd16a64eaa52bb687e1314ebb.jpg","date":"2013-12-23","year":2013,"month":12,"lon":122.45267,"lat":37.789833,"tags":"amaro,instagram+app,iphoneography,square,square+format","S2CellId":"46db000000000000","result":3081,"accuracy":0.0247331,"title":"xmas+delivery"}
{"id":9334832889,"url":"http://farm8.staticflickr.com/7429/9334832889_34a4ea1695.jpg","path":"1aa/5f7/1aa5f7950e8a452e1c7cf7238a6b8d6.jpg","date":"2013-07-21","year":2013,"month":7,"lon":122.44666,"lat":37.775833,"tags":"instagram+app,iphoneography,lord+kelvin,square,square+format","S2CellId":"89c6c62f00000000","result":9152,"accuracy":0.07871135,"title":"Fulton+street+corner+church+%23sanfrancisco+%23church+%23religion+%23christianity+%23lynnfriedman+%40lynnrfriedman+%23in+%23webstagram+%23webstapick"}
{"id":3049062711,"url":"http://farm4.staticflickr.com/3237/3049062711_2a16c9b9c4.jpg","path":"89c/583/89c5832820b9861a77dc16c44a8bcac.jpg","date":"2008-11-21","year":2008,"month":11,"lon":122.400665,"lat":37.78533,"tags":"art,modern,museum,sanfrancisco,sfmoma","S2CellId":"8085807d00000000","result":6937,"accuracy":0.011930202,"title":"IMG_0915.JPG"}
