{"id":5227040958,"url":"http://farm6.staticflickr.com/5209/5227040958_8267e52c28.jpg","path":"dfa/d84/dfad844ec2ba6de08b58ff8464c9a566.jpg","date":"2009-04-14","year":2009,"month":4,"lon":109.25946,"lat":28.194372,"tags":"china,chn,guizhou,songtao","S2CellId":"0d2fc00000000000","result":301,"accuracy":0.008798008,"title":"A+rest+along+the+road"}
{"id":5226982916,"url":"http://farm6.staticflickr.com/5002/5226982916_4e1aec8c25.jpg","path":"fe6/ad3/fe6ad383ad33cf0c45976cb56e4d1cc.jpg","date":"2009-04-12","year":2009,"month":4,"lon":109.976234,"lat":28.712572,"tags":"china,chn,guzhang,hunan","S2CellId":"54907c0000000000","result":6223,"accuracy":0.066888176,"title":"Cambrian+strata+along+the+road+at+Luoyixi"}
{"id":8615492675,"url":"http://farm9.staticflickr.com/8406/8615492675_b6d68e885a.jpg","path":"318/04d/31804db88aec15eb212b29d4b4d3dd.jpg","date":"2013-03-29","year":2013,"month":3,"lon":109.59343,"lat":27.950739,"tags":"%E5%87%A4%E5%87%B0,%E6%B2%B1%E6%B1%9F,%E8%8B%97%E7%96%86","S2CellId":"344b000000000000","result":2104,"accuracy":0.32288352,"title":"%E6%B2%B1%E6%B1%9F%E6%B3%9B%E8%88%9F"}
{"id":5131835091,"url":"http://farm2.staticflickr.com/1207/5131835091_84cfe40802.jpg","path":"842/614/8426142caf34294c11374bb61cae68f.jpg","date":"2010-10-06","year":2010,"month":10,"lon":109.92053,"lat":27.481167,"tags":"hunan,october+2010","S2CellId":"8084100000000000","result":6905,"accuracy":0.09116884,"title":"The+Harvest"}
{"id":2003059172,"url":"http://farm3.staticflickr.com/2200/2003059172_7b3822f44f.jpg","path":"673/84a/67384a54c8cc22bc9f8dc2d7cfc7f348.jpg","date":"2007-11-10","year":2007,"month":11,"lon":110.32436,"lat":29.172848,"tags":"china,e-510,ed1442,hunan,olympus,travel,world+heritage,zhangjiajie","S2CellId":"3415000000000000","result":2020,"accuracy":0.07094915,"title":"PB101688","description":"%E5%BC%B5%E5%AE%B6%E7%95%8C%E5%9C%8B%E5%AE%B6%E6%A3%AE%E6%9E%97%E5%85%AC%E5%9C%92%EF%BC%8E%E9%BB%83%E7%9F%B3%E5%AF%A8%EF%BC%8E%E5%85%AD%E5%A5%87%E9%96%A3"}
{"id":5226975868,"url":"http://farm6.staticflickr.com/5081/5226975868_59bc4ef048.jpg","path":"5fb/1dc/5fb1dcf6bc3484ea18fc72efdc727f6.jpg","date":"2009-04-11","year":2009,"month":4,"lon":110.47026,"lat":29.085388,"tags":"china,chn,hunan,zhangjiajie","S2CellId":"2bfc000000000000","result":1527,"accuracy":0.009690928,"title":"Karstified+dolostone+at+Shuangxia","description":"Ediacaran+dolostones+of+the+uppermost+Dengying+Formation%3A+after+karstification%2C+Cambrian+black+shales+filled+the+fractures%2C+then+calcite+cementation+took+place."}
{"id":8386872822,"url":"http://farm9.staticflickr.com/8077/8386872822_f196d82be3.jpg","path":"e77/695/e77695eca69f9457831e881bb324dd0.jpg","date":"2012-11-13","year":2012,"month":11,"lon":109.6,"lat":27.952065,"tags":"china,dorf,fenghuang,fluss,hunan","S2CellId":"3690000000000000","result":2402,"accuracy":0.5867224,"title":"Fenghuang_20121112_497","description":"Fenghuang"}
{"id":6057678919,"url":"http://farm7.staticflickr.com/6062/6057678919_78774679d8.jpg","path":"e12/454/e12454f7de9c26cf7e6288e91f4ed.jpg","date":"2011-06-02","year":2011,"month":6,"lon":110.43457,"lat":29.166552,"tags":"%E5%BC%A0%E5%AE%B6%E7%95%8C,cliff,mountain,nature,tourism,zhangjiajie","S2CellId":"6b12700000000000","result":6668,"accuracy":0.39323694,"title":"%E5%BC%A0%E5%AE%B6%E7%95%8C+Cliifs+from+Elevator","description":"Taken+from+a+very+long+elevator+that+took+us+to+the+top+of+Zhangjiajie%27s+mountains."}
{"id":1486239836,"url":"http://farm2.staticflickr.com/1015/1486239836_54f16c02a9.jpg","path":"66e/9ad/66e9ad35368647ca9a4923785b4caa.jpg","date":"2007-08-27","year":2007,"month":8,"lon":110.250046,"lat":29.117737,"tags":"%E5%BC%B5%E5%AE%B6%E7%95%8C,%E6%B9%96%E5%8D%97,hunan,zhangjiajie","S2CellId":"6001ab0000000000","result":6419,"accuracy":0.038466033,"title":"P8272380"}
{"id":5538570903,"url":"http://farm6.staticflickr.com/5294/5538570903_b203b5049b.jpg","path":"7de/6b1/7de6b131372581144777ca2a4ae1ea79.jpg","date":"2011-03-14","year":2011,"month":3,"lon":109.5797,"lat":27.966413,"tags":"china,fenghuang,hunan,prc","S2CellId":"3690000000000000","result":2402,"accuracy":0.32677844,"title":"IMG_1366"}
{"id":1484929135,"url":"http://farm2.staticflickr.com/1247/1484929135_a78b9f0a9a.jpg","path":"83d/db2/83ddb218148229faf942711478c80.jpg","date":"2007-08-26","year":2007,"month":8,"lon":110.488686,"lat":29.392544,"tags":"%E5%BC%B5%E5%AE%B6%E7%95%8C,%E6%B9%96%E5%8D%97,hunan,zhangjiajie","S2CellId":"30d9000000000000","result":1623,"accuracy":0.056838144,"title":"2007-8-26+%E4%B8%8B%E5%8D%88+01-32-24"}
{"id":6058465354,"url":"http://farm7.staticflickr.com/6080/6058465354_ca82b13764.jpg","path":"c12/f24/c12f24f8303bc48296d1979a8b592bec.jpg","date":"2011-06-03","year":2011,"month":6,"lon":110.43457,"lat":29.166552,"tags":"macro,mountain,nature,tourism","S2CellId":"4862400000000000","result":4858,"accuracy":0.0044253184,"title":"Bubbles+on+the+Mint+Bark","description":"Interesting+local+mint+bark..+After+I+chewed+on+it+for+hours%2C+I+looked+and+it++was+filled+with+bubbles."}
{"id":5996992353,"url":"http://farm7.staticflickr.com/6030/5996992353_9af63d6f39.jpg","path":"794/98e/79498e077d7bec1175454fe1f605ad3.jpg","date":"2011-07-16","year":2011,"month":7,"lon":109.60321,"lat":27.954376,"tags":"2011,china,fenghuang,hunan,igu,oldtown,phoenix","S2CellId":"3724000000000000","result":2419,"accuracy":0.03440794,"title":"AAL13549"}
{"id":3109727843,"url":"http://farm4.staticflickr.com/3191/3109727843_e2dcbb8cac.jpg","path":"276/eed/276eed17c6f4dfad752dd98db5b6b23.jpg","date":"2008-11-11","year":2008,"month":11,"lon":109.90208,"lat":27.509184,"tags":"%E6%B9%96%E5%8D%97%EF%BC%8C%E6%80%80%E5%8C%96,biking,china,cycling,driving+china,huaihua,hunan,motorcycle,motorcycling,trip","S2CellId":"36a4000000000000","result":2403,"accuracy":0.26859644,"title":"Idyllic+Chinese+countryside+-+Motorcycling+in+and+around+Huaihua"}
{"id":2014692230,"url":"http://farm3.staticflickr.com/2090/2014692230_0a3b5962e9.jpg","path":"352/8b6/3528b679fbfe2fece74363a38e682cf.jpg","date":"2007-11-11","year":2007,"month":11,"lon":110.32436,"lat":29.172848,"tags":"china,e-510,ed1442,hunan,olympus,travel,world+heritage,zhangjiajie","S2CellId":"3690000000000000","result":2402,"accuracy":0.27134126,"title":"PB112294","description":"%E5%BC%B5%E5%AE%B6%E7%95%8C%E5%9C%8B%E5%AE%B6%E6%A3%AE%E6%9E%97%E5%85%AC%E5%9C%92%EF%BC%8E%E8%A2%81%E5%AE%B6%E7%95%8C%EF%BC%8E%E5%A4%A9%E4%B8%8B%E7%AC%AC%E4%B8%80%E6%A9%8B"}
{"id":5331937478,"url":"http://farm6.staticflickr.com/5285/5331937478_2e90cf82bf.jpg","path":"9cf/c25/9cfc254e68d13f84f0a8d2f462453f1.jpg","date":"2011-01-07","year":2011,"month":1,"lon":109.96559,"lat":28.715582,"tags":"t90%2B28mm%2F2.8","S2CellId":"3690000000000000","result":2402,"accuracy":0.07922403,"title":"%E6%B2%B1%E6%B1%9F%E6%B3%9B%E8%88%9F"}
{"id":2654794350,"url":"http://farm4.staticflickr.com/3288/2654794350_b54cc9bd19.jpg","path":"f74/fbe/f74fbeb1358caaca9446ec6b4d3dccc.jpg","date":"2008-07-07","year":2008,"month":7,"lon":110.46667,"lat":29.1,"tags":"china,national+park,wulingyuan,zhangjiajie","S2CellId":"3690000000000000","result":2402,"accuracy":0.71422243,"title":"Zhangjiajie+National+Park+48","description":"Follow+my+travels+online+at+%3Ca+href%3D%22http%3A%2F%2Ftravel.beiske.com%22+rel%3D%22nofollow%22%3Etravel.beiske.com%3C%2Fa%3E"}
{"id":3472726145,"url":"http://farm4.staticflickr.com/3299/3472726145_c5689bdceb.jpg","path":"1da/08e/1da08e4caa41f1db213ec56fafa673fe.jpg","date":"2009-04-25","year":2009,"month":4,"lon":110.44693,"lat":29.195328,"tags":"%E7%B4%A2%E6%BA%AA%E8%A3%95,zhangjiajie","S2CellId":"56c4000000000000","result":6318,"accuracy":0.04160519,"title":"4-25-2009_004"}
{"id":5132441930,"url":"http://farm5.staticflickr.com/4091/5132441930_b510543244.jpg","path":"760/f6d/760f6db926bdc69aa9a6a560942ed6.jpg","date":"2010-10-06","year":2010,"month":10,"lon":109.92053,"lat":27.481167,"tags":"hunan,october+2010","S2CellId":"89c3f00000000000","result":9127,"accuracy":0.025691345,"title":"Macro+2"}
{"id":3109777535,"url":"http://farm4.staticflickr.com/3184/3109777535_48ffc048a3.jpg","path":"89c/466/89c4662de8a64f6b9e33644ecb965b70.jpg","date":"2008-11-11","year":2008,"month":11,"lon":109.90208,"lat":27.509184,"tags":"%E6%B9%96%E5%8D%97%EF%BC%8C%E6%80%80%E5%8C%96,biking,china,cycling,driving+china,huaihua,hunan,motorcycle,motorcycling,trip","S2CellId":"94ce59f000000000","result":9723,"accuracy":0.021114487,"title":"Motorcycling+in+and+around+Huaihua"}
