{"id":435557260,"url":"http://farm1.staticflickr.com/167/435557260_002c7770ef.jpg","path":"465/fa3/465fa339befa3ac9c18dc2c9d414f5d.jpg","date":"2007-03-25","year":2007,"month":3,"lon":22.246113,"lat":46.669346,"tags":"suncuius","S2CellId":"4761000000000000","result":3310,"accuracy":0.10289119,"title":"Suncuius2007+162"}
{"id":2562376445,"url":"http://farm4.staticflickr.com/3164/2562376445_6812ff8dcf.jpg","path":"8f6/bcd/8f6bcd7e72f3173e958f0796bcc974b.jpg","date":"2008-05-12","year":2008,"month":5,"lon":22.736206,"lat":46.630577,"tags":"romania","S2CellId":"47e61d1d00000000","result":4562,"accuracy":0.0051097893,"title":"Padis"}
{"id":2977080809,"url":"http://farm4.staticflickr.com/3135/2977080809_79797457ce.jpg","path":"f55/361/f553610adeb847650738d14ad259b91.jpg","date":"2008-10-24","year":2008,"month":10,"lon":22.7108,"lat":46.569244,"tags":"bihar,bihari+hegyseg,padis,tura","S2CellId":"356f000000000000","result":2290,"accuracy":0.024420885,"title":"P1150072Moha"}
{"id":4873427145,"url":"http://farm5.staticflickr.com/4122/4873427145_a3bc88b2bb.jpg","path":"c0c/534/c0c53497b91732e85e96fb3261bbd7e.jpg","date":"2009-07-02","year":2009,"month":7,"lon":22.36782,"lat":46.671116,"tags":"%27izvorul,boulders,minunilor%27,romania,sprucetrees,stanadevale,waterfall,watersplash,wonderspring","S2CellId":"54866c0000000000","result":6114,"accuracy":0.03201182,"title":"Wonder+Spring","description":"%27Izvorul+Minunilor%27%2C+Stana+de+Vale%2C+Romania"}
{"id":2563118664,"url":"http://farm4.staticflickr.com/3145/2563118664_102edd5ca9.jpg","path":"1eb/3d6/1eb3d655d32db552a5f41ac7797b430.jpg","date":"2008-05-11","year":2008,"month":5,"lon":22.736206,"lat":46.630577,"tags":"romania","S2CellId":"4776f00000000000","result":3424,"accuracy":0.036936283,"title":"Padis"}
{"id":5072964536,"url":"http://farm5.staticflickr.com/4145/5072964536_7477717f83.jpg","path":"6c8/338/6c83383011141487361512362dedd50.jpg","date":"2010-10-10","year":2010,"month":10,"lon":22.755932,"lat":46.954983,"tags":"2010,500d,autumn,bihor,bortes,bortescristian,cale,canon,carousel,carusel,cluj,cristian,cristianbortes,de,digital,eos,fechetau,ferata,foto,fotografie,fotografii,image,imagine,imagini,k%C3%B6r%C3%B6sfeketet%C3%B3,kiss,la,linghispir,negreni,neumarkt,october,octombrie,old,photo,photography,picture,poza,poze,rail,rebel,romania,roumanie,slr,stuff,t%C3%A2rgul,t1i,targ,toamna,train,tren,x3l","S2CellId":"42c0000000000000","result":2742,"accuracy":0.0336735,"title":"Targul+de+toamna+de+la+Negreni","description":"Octombrie+2010"}
{"id":2977948188,"url":"http://farm4.staticflickr.com/3194/2977948188_e2647eeb0b.jpg","path":"312/9ce/3129cef7621b2424f1c4d12a67bf7bfa.jpg","date":"2008-10-25","year":2008,"month":10,"lon":22.7108,"lat":46.569244,"tags":"bihar,bihari+hegyseg,padis,tura","S2CellId":"5370c00000000000","result":6047,"accuracy":0.06277556,"title":"P1150138Uton"}
{"id":4022835190,"url":"http://farm4.staticflickr.com/3496/4022835190_d9d33178b8.jpg","path":"e34/2cb/e342cb74a22d67ff80cca7bfc5f65.jpg","date":"2009-07-02","year":2009,"month":7,"lon":22.364044,"lat":46.66546,"tags":"beius,carpathian,clouds,farawaymountains,mountains,pasture,romania,stanadevale,western","S2CellId":"312f000000000000","result":1733,"accuracy":0.04298059,"title":"Western+Carpathian+Mts.%2C+Romania"}
{"id":435634018,"url":"http://farm1.staticflickr.com/155/435634018_56cf2691d4.jpg","path":"df5/173/df51735259c6b5598ea0e828fee55f5.jpg","date":"2007-03-25","year":2007,"month":3,"lon":22.246113,"lat":46.669346,"tags":"suncuius","S2CellId":"5484400000000000","result":6097,"accuracy":0.05433344,"title":"Suncuius2007+214"}
{"id":2977951028,"url":"http://farm4.staticflickr.com/3192/2977951028_cf11e9f0fe.jpg","path":"33f/4ab/33f4ababc24460d62185f46afbd64f40.jpg","date":"2008-10-25","year":2008,"month":10,"lon":22.7108,"lat":46.569244,"tags":"bihar,bihari+hegyseg,padis,tura","S2CellId":"3468700000000000","result":2158,"accuracy":0.013501599,"title":"P1150156Pataknal"}
{"id":2563053754,"url":"http://farm4.staticflickr.com/3155/2563053754_c2fb5146cc.jpg","path":"302/363/302363c382358a924c9ec4e2cb3118b.jpg","date":"2008-05-11","year":2008,"month":5,"lon":22.736206,"lat":46.630577,"tags":"romania","S2CellId":"873f000000000000","result":7805,"accuracy":0.094026655,"title":"Padis"}
{"id":2977075255,"url":"http://farm4.staticflickr.com/3013/2977075255_0ded848465.jpg","path":"2d2/4ae/2d24aed5117efa135da615ffe52f8f5.jpg","date":"2008-10-24","year":2008,"month":10,"lon":22.7108,"lat":46.569244,"tags":"bihar,bihari+hegyseg,padis,tura","S2CellId":"3890000000000000","result":2439,"accuracy":0.0063337884,"title":"P1150032Terkeppel"}
{"id":2563063306,"url":"http://farm3.staticflickr.com/2413/2563063306_3f83f32ee8.jpg","path":"73c/eee/73ceee73a3a61f80953112b37fc1d38f.jpg","date":"2008-05-11","year":2008,"month":5,"lon":22.736206,"lat":46.630577,"tags":"romania","S2CellId":"4790300000000000","result":3707,"accuracy":0.096711494,"title":"Padis"}
{"id":2977945054,"url":"http://farm4.staticflickr.com/3276/2977945054_527612a709.jpg","path":"c3f/1c4/c3f1c49c2e8f3a232d6e45e9fb5fab1.jpg","date":"2008-10-25","year":2008,"month":10,"lon":22.7108,"lat":46.569244,"tags":"bihar,bihari+hegyseg,padis,tura","S2CellId":"54907c0000000000","result":6223,"accuracy":0.03768059,"title":"P1150114Csodavar"}
{"id":5072167325,"url":"http://farm5.staticflickr.com/4090/5072167325_1c4450e147.jpg","path":"b9a/bf0/b9abf0c2f0b16cb282c5f3f04153a1d4.jpg","date":"2010-10-10","year":2010,"month":10,"lon":22.755932,"lat":46.954983,"tags":"2010,500d,autumn,bihor,bortes,bortescristian,cale,canon,carousel,carusel,cluj,cristian,cristianbortes,de,digital,eos,fechetau,ferata,foto,fotografie,fotografii,image,imagine,imagini,k%C3%B6r%C3%B6sfeketet%C3%B3,kiss,la,linghispir,negreni,neumarkt,october,octombrie,old,photo,photography,picture,poza,poze,rail,rebel,romania,roumanie,slr,stuff,t%C3%A2rgul,t1i,targ,toamna,train,tren,x3l","S2CellId":"88fd000000000000","result":8754,"accuracy":0.016227372,"title":"Targul+de+toamna+de+la+Negreni","description":"Octombrie+2010"}
{"id":435660317,"url":"http://farm1.staticflickr.com/177/435660317_060042053f.jpg","path":"70b/ce1/70bce1fe43bd8e9982f1b5999d1dd0c8.jpg","date":"2007-03-25","year":2007,"month":3,"lon":22.246113,"lat":46.669346,"tags":"suncuius","S2CellId":"4754000000000000","result":3297,"accuracy":0.07646187,"title":"Suncuius2007+230"}
{"id":435479342,"url":"http://farm1.staticflickr.com/156/435479342_ad326a36c5.jpg","path":"d3e/8eb/d3e8ebf0464812e796eaea222f98f7.jpg","date":"2007-03-25","year":2007,"month":3,"lon":22.246113,"lat":46.669346,"tags":"suncuius","S2CellId":"8859400000000000","result":8434,"accuracy":0.019756611,"title":"Suncuius2007+115"}
{"id":10191812314,"url":"http://farm3.staticflickr.com/2835/10191812314_11ffcb3387.jpg","path":"f49/fe5/f49fe55ff87d08fd6f69c68f9f2c81.jpg","date":"2013-09-28","year":2013,"month":9,"lon":22.727655,"lat":46.478554,"tags":"a77,alpha77,autumn,detail,macro,mushroom,nature,poisenous,polariser,polarizer,romania,september,sony,toadstool","S2CellId":"54867c0000000000","result":6148,"accuracy":0.0059938994,"title":"Mushroom+Collection+5","description":"Romania+in+September"}
