{"id":613545979,"url":"http://farm2.staticflickr.com/1074/613545979_2b2df5b46a.jpg","path":"61c/1f4/61c1f4daacf612b22438484c21e58f5.jpg","date":"2007-06-22","year":2007,"month":6,"lon":16.36155,"lat":56.66216,"tags":"kalmar,riksbanken,sweden","S2CellId":"0d5914f000000000","result":486,"accuracy":0.02379128,"title":"riksbankshus%3F","description":"Tror+%22riksbanken+byggte+detta+hus%22"}
{"id":5969981450,"url":"http://farm7.staticflickr.com/6128/5969981450_42eaa7e503.jpg","path":"e87/dfa/e87dfa308fdc1856380b985c9a87d2e.jpg","date":"2011-07-24","year":2011,"month":7,"lon":16.375078,"lat":56.680103,"tags":"%C3%B6landsbron,europe,flowers,kalmar,svin%C3%B6,sweden,water,woods","S2CellId":"4657000000000000","result":2881,"accuracy":0.024132295,"title":"IMG_5334+%281024x768%29"}
{"id":2819095811,"url":"http://farm4.staticflickr.com/3266/2819095811_388921e737.jpg","path":"86c/75b/86c75ba1aa155908e224eb28b78f818.jpg","date":"2008-08-28","year":2008,"month":8,"lon":16.423874,"lat":56.406303,"tags":"%C3%B6land,blue,facebook,farmstead,field,green,ourworld2008,red,sky,sweden","S2CellId":"4b5f000000000000","result":5826,"accuracy":0.04550356,"title":"%C3%96land+life","description":"Scene+from+southern+%C3%96land"}
{"id":6977794522,"url":"http://farm9.staticflickr.com/8156/6977794522_032635bc58.jpg","path":"3e6/0ee/3e60eec7179f93dde511b2ddd38f735.jpg","date":"2009-02-15","year":2009,"month":2,"lon":16.332413,"lat":56.981606,"tags":"cake,heart,love,strawberries,valentine","S2CellId":"0d63d00000000000","result":541,"accuracy":0.05353492,"title":"Valentine%C2%B4s+Day+Cake","description":"Every+year+my+husband+makes+a+strawberry+cheese+cake+for+Valentine%C2%B4s+Day.+it+is+sweet+and+always+appreciated.+Yummy%21"}
{"id":3418848596,"url":"http://farm4.staticflickr.com/3541/3418848596_2295a9d854.jpg","path":"964/dd4/964dd4ea538642f05685e575b06b83b5.jpg","date":"2009-04-04","year":2009,"month":4,"lon":16.359758,"lat":56.662937,"tags":"christopher+kristensen,no+regrets,rockkarusellen","S2CellId":"94bb000000000000","result":9681,"accuracy":0.46442726,"title":"Christopher+%5BNo+Regrets%5D"}
{"id":6820164168,"url":"http://farm8.staticflickr.com/7038/6820164168_192960aff5.jpg","path":"263/d4f/263d4f5f97e5c2efe8d4bed26bf7a.jpg","date":"2012-03-03","year":2012,"month":3,"lon":16.355072,"lat":56.658226,"tags":"clearblue+sky,heldere+lucht,kalmar,sea,sverige,sweden,zee,zweden","S2CellId":"46f3000000000000","result":3112,"accuracy":0.04398326,"title":"Kalmar"}
{"id":8105024639,"url":"http://farm9.staticflickr.com/8471/8105024639_1de2c75a41.jpg","path":"4b8/c52/4b8c52faf2378f919194bee89c71fa.jpg","date":"2012-10-20","year":2012,"month":10,"lon":16.316256,"lat":56.665596,"tags":"instagram+app,iphoneography,square,square+format","S2CellId":"876f000000000000","result":7903,"accuracy":0.012050856,"title":"H%C3%B6st+p%C3%A5+lotten"}
{"id":2553970519,"url":"http://farm4.staticflickr.com/3086/2553970519_921d23f4b0.jpg","path":"578/03e/57803ee77821f757eb8caa748ca06b.jpg","date":"2008-06-02","year":2008,"month":6,"lon":16.082481,"lat":56.3881,"tags":"arbre,fleurs,nature,pivoine,plante,sejour,su%C3%A8de,voyage","S2CellId":"883cae5000000000","result":8363,"accuracy":0.074037276,"title":"0198+-+Pivoine5"}
{"id":4228980486,"url":"http://farm3.staticflickr.com/2788/4228980486_036ce6d5e2.jpg","path":"3de/aae/3deaae43e17fa564dddc80edc2530.jpg","date":"2009-09-16","year":2009,"month":9,"lon":16.655874,"lat":56.880264,"tags":"%C3%B6land,%C3%B6stersj%C3%B6n,baltic,baltic+sea,baltique,borgholm,kalmarsund,mer+baltique,sm%C3%A5land,suede,sverige,sweden","S2CellId":"8805500000000000","result":8085,"accuracy":0.024310427,"title":"2009-09-16","description":"Borgholm.+Hamnen."}
{"id":4731679140,"url":"http://farm2.staticflickr.com/1217/4731679140_d202e0776c.jpg","path":"723/235/7232356d15b21f7215a79176306883c0.jpg","date":"2010-05-31","year":2010,"month":5,"lon":16.356112,"lat":56.65806,"tags":"bild,burg,castle,cc,festsaal,flickr,foto,geo,hi-res,high+resolution,image,interieur,jpeg,jpg,june,juni,kalmar,palace,palast,photo,picture,prunkr%C3%A4ume,prunkraum,renaissance,scandinavia,schloss,schweden,schwedisch,schwedische,schwedisches,skandinavien,slott,sommer,stockphoto,summer,svenska,sverige,sweden,swedish","S2CellId":"465d000000000000","result":2890,"accuracy":0.033211563,"title":"2010-05-22+06-05+Schweden+0701+Kalmar+Slott"}
{"id":4731746412,"url":"http://farm2.staticflickr.com/1338/4731746412_7b7f931ecc.jpg","path":"36f/6b6/36f6b61273531970bde4c98031891e6a.jpg","date":"2010-05-31","year":2010,"month":5,"lon":16.355223,"lat":56.658325,"tags":"bild,burg,castle,cc,festsaal,flickr,foto,geo,hi-res,high+resolution,image,interieur,jpeg,jpg,june,juni,kalmar,palace,palast,photo,picture,prunkr%C3%A4ume,prunkraum,renaissance,scandinavia,schloss,schweden,schwedisch,schwedische,schwedisches,skandinavien,slott,sommer,stockphoto,summer,svenska,sverige,sweden,swedish","S2CellId":"4652340000000000","result":2846,"accuracy":0.18989304,"title":"2010-05-22+06-05+Schweden+0715+Kalmar+Slott"}
{"id":5969473325,"url":"http://farm7.staticflickr.com/6130/5969473325_bb5b8b154c.jpg","path":"d87/75f/d8775f23f5737691a42a48fe367e3c38.jpg","date":"2011-07-24","year":2011,"month":7,"lon":16.375078,"lat":56.680103,"tags":"%C3%B6landsbron,europe,flowers,kalmar,svin%C3%B6,sweden,water,woods","S2CellId":"4873d00000000000","result":5095,"accuracy":0.0050653373,"title":"IMG_5445+%281024x768%29"}
{"id":4732479910,"url":"http://farm2.staticflickr.com/1089/4732479910_c1954e48d0.jpg","path":"f91/6c9/f916c96858534f2fa57c43f39548ba3.jpg","date":"2010-06-03","year":2010,"month":6,"lon":16.571577,"lat":56.794067,"tags":"%C3%B6land,baltic,baum,bild,cc,dead,eiche,flickr,forest,foto,fr%C3%BChling,geo,hage,hain,halltorp,halltorps,hi-res,high+resolution,image,island,jpeg,jpg,june,juni,kalmar,l%C3%A4n,moor,nature,naturreservat,oak,oaktree,oeland,old,ostseeinsel,photo,picture,primeval,reservat,reservation,scandinavia,schweden,schwedisch,schwedische,schwedisches,skandinavien,sommer,spring,stockphoto,summer,svenska,sverige,sweden,swedish,toter,urwald","S2CellId":"48761a4000000000","result":5302,"accuracy":0.017784942,"title":"2010-05-22+06-05+Schweden+0949+%C3%96land%2C+Halltorp"}
{"id":3556407679,"url":"http://farm3.staticflickr.com/2450/3556407679_ce13ebcf48.jpg","path":"928/aad/928aad7bbf98e15d8718c13ad0cf25d.jpg","date":"2009-05-23","year":2009,"month":5,"lon":16.35771,"lat":56.66269,"tags":"090523,demonstration,ipred,ipred-demonstration,ipred-demonstration%2C+kalmar%2C+090523,kalmar,kunskapssamh%C3%A4lle,piratpartiet,politics,politik","S2CellId":"468c76c000000000","result":2964,"accuracy":0.076730266,"title":"Demonstration+mot+IPRED","description":"Demonstration+mot+IPRED+i+Kalmar+den+23+maj+2009"}
{"id":2468976956,"url":"http://farm3.staticflickr.com/2343/2468976956_0162baf3ef.jpg","path":"2d7/46c/2d746ccf2b994b1bb45c4f89ac85fac.jpg","date":"2008-05-02","year":2008,"month":5,"lon":16.534851,"lat":56.640278,"tags":"%C3%AEle,%C3%B6land,arbre,island,nature,plante,s%C3%A9jour,sejour,su%C3%A8de,voyage","S2CellId":"89d5400000000000","result":9263,"accuracy":0.009076382,"title":"0079+-+%C3%96land1"}
{"id":5970031790,"url":"http://farm7.staticflickr.com/6015/5970031790_f7bf80e019.jpg","path":"b2e/132/b2e132c11add95ee968419faed09229.jpg","date":"2011-07-24","year":2011,"month":7,"lon":16.375078,"lat":56.680103,"tags":"%C3%B6landsbron,europe,flowers,kalmar,svin%C3%B6,sweden,water,woods","S2CellId":"4440000000000000","result":2748,"accuracy":0.02277743,"title":"IMG_5450+%281024x768%29"}
{"id":614503358,"url":"http://farm2.staticflickr.com/1396/614503358_0822ea7087.jpg","path":"4eb/ac0/4ebac0d31893b52adbd8bdce27edc578.jpg","date":"2007-06-23","year":2007,"month":6,"lon":16.398897,"lat":56.196342,"tags":"%C3%B6land,cow,l%C3%A5ngejan,sweden","S2CellId":"182d000000000000","result":1421,"accuracy":0.49683177,"title":"kor+at+%C3%B6lands+s%C3%B6dra+udde"}
{"id":4812790660,"url":"http://farm5.staticflickr.com/4078/4812790660_b2bdfa26a8.jpg","path":"87e/f12/87ef12daaf86d465dc4d2bce69ed70ff.jpg","date":"2010-07-06","year":2010,"month":7,"lon":16.39845,"lat":56.196175,"tags":"%C3%B6land,jan,l%C3%A5nge,semester,sommar","S2CellId":"46f3000000000000","result":3112,"accuracy":0.32254192,"title":"%C3%96land+sommaren+2010","description":"Utsikt+fr%C3%A5n+L%C3%A5nge+Jan."}
{"id":5969456987,"url":"http://farm7.staticflickr.com/6126/5969456987_7818bb6f68.jpg","path":"e72/738/e727384fd41fb9863b6225969de4ebc.jpg","date":"2011-07-24","year":2011,"month":7,"lon":16.375078,"lat":56.680103,"tags":"%C3%B6landsbron,europe,flowers,kalmar,svin%C3%B6,sweden,water,woods","S2CellId":"0d45400000000000","result":394,"accuracy":0.05480358,"title":"IMG_5403+%28768x1024%29"}
{"id":6459276435,"url":"http://farm8.staticflickr.com/7008/6459276435_8c2e5c7f2d.jpg","path":"7bd/7cd/7bd7cda85cb8e84ed595896b46b3b1f.jpg","date":"2010-08-04","year":2010,"month":8,"lon":16.63416,"lat":56.866524,"tags":"%C3%A5gatefilm,18-50,18-55,agatefilm,johansson,michael,michael+johansson,sigma","S2CellId":"487afc0000000000","result":5540,"accuracy":0.044528592,"title":"Solliden"}
{"id":8247198158,"url":"http://farm9.staticflickr.com/8349/8247198158_b1c0ea69d0.jpg","path":"a79/fc0/a79fc00db17e1d78f304478dbf44134.jpg","date":"2012-12-05","year":2012,"month":12,"lon":16.362762,"lat":56.78546,"tags":"h%C3%B6kuggla,hawk+olw,olw,surnia+ulula","S2CellId":"88d9300000000000","result":8584,"accuracy":0.017598439,"title":"Hawk+Owl++%2FH%C3%B6kuggla+%28Surnia+ulula%29","description":"Rockneby%2C+Sweden%0A2012-12-05"}
{"id":5970019420,"url":"http://farm7.staticflickr.com/6138/5970019420_bd2eba416a.jpg","path":"607/464/607464849cbd3d322467e90388451d2.jpg","date":"2011-07-24","year":2011,"month":7,"lon":16.375078,"lat":56.680103,"tags":"%C3%B6landsbron,europe,flowers,kalmar,svin%C3%B6,sweden,water,woods","S2CellId":"48738c0000000000","result":5085,"accuracy":0.0148861995,"title":"IMG_5416+%28768x1024%29"}
{"id":7881096626,"url":"http://farm9.staticflickr.com/8294/7881096626_0382ba5d85.jpg","path":"d31/690/d3169054d4a37ddb67171c4c5fbdf7.jpg","date":"2012-08-18","year":2012,"month":8,"lon":16.365788,"lat":56.664635,"tags":"athlete,athletes,bike,competition,ironman,kalmar,marathon,run,sm%C3%A5land,sport,sweden,swim,triathlon","S2CellId":"80c2bf2400000000","result":7178,"accuracy":0.014304415,"title":"Ironman+Kalmar+Sweden"}
{"id":2747085998,"url":"http://farm4.staticflickr.com/3283/2747085998_6fbf80cd38.jpg","path":"5f8/295/5f82954acfccb9b2e8b8cbc4a38affd2.jpg","date":"2008-07-29","year":2008,"month":7,"lon":16.089546,"lat":56.389114,"tags":"50-500mm,d300,nikon,sigma,sweden","S2CellId":"468b000000000000","result":2955,"accuracy":0.023844913,"title":"Garpens+fyr%2C+Bergkvara%2C+Sweden"}
