{"id":6063872900,"url":"http://farm7.staticflickr.com/6086/6063872900_ac95064bae.jpg","path":"ceb/0df/ceb0df2a1585f02ff6ea107a41963e50.jpg","date":"2011-07-20","year":2011,"month":7,"lon":18.973904,"lat":69.65183,"tags":"bridge,norge,norway,pavel,pntphoto,scandinavia,trebukov,troms,troms%C3%B8,tromso","S2CellId":"463cfd0000000000","result":2779,"accuracy":0.18584026,"title":"Tromso_005_m1_screen","description":"Tromso%2C+Norway"}
{"id":5544364714,"url":"http://farm6.staticflickr.com/5017/5544364714_46f461a801.jpg","path":"6a7/95d/6a795d9d76115cefe6087bbcbfe84.jpg","date":"2011-03-20","year":2011,"month":3,"lon":18.931673,"lat":69.64879,"tags":"alfheim,ruben+ytterg%C3%A5rd+jensen,tippeligaen,tippeligaen+2011,troms%C3%B8+il","S2CellId":"45c4000000000000","result":2753,"accuracy":0.2275881,"title":"Ruben+Ytterg%C3%A5rd+Jensen%2FTIL"}
{"id":2358341185,"url":"http://farm3.staticflickr.com/2118/2358341185_b2f60214f2.jpg","path":"933/e9a/933e9ade57a2d6463ecc9b7189315a8.jpg","date":"2008-03-01","year":2008,"month":3,"lon":18.95386,"lat":69.64849,"tags":"norge,norway,troms,troms%C3%B8,tromso","S2CellId":"45c4000000000000","result":2753,"accuracy":0.10862843,"title":"fishing+boats"}
{"id":7152724891,"url":"http://farm8.staticflickr.com/7094/7152724891_73321b4961.jpg","path":"893/bb3/893bb33071f1d74adb388819bf020b8.jpg","date":"2012-05-05","year":2012,"month":5,"lon":18.664398,"lat":69.83461,"tags":"2012,beach+cleanup,garbage,mai,marine+litter,rydding,s%C3%B8ppel,spring,strand,v%C3%A5r,waste","S2CellId":"46f9000000000000","result":3115,"accuracy":0.007770348,"title":"strandrydding_050512_web-25","description":"Fan+ta+den+boksen."}
{"id":5152412448,"url":"http://farm2.staticflickr.com/1082/5152412448_2f1c522242.jpg","path":"9ee/887/9ee887c3de7fe12c53790b1331dd922.jpg","date":"2010-10-18","year":2010,"month":10,"lon":18.95073,"lat":69.65288,"tags":"arctic,norway,snow,tromso","S2CellId":"45c4000000000000","result":2753,"accuracy":0.48261377,"title":"DSC_1465"}
{"id":5151800941,"url":"http://farm5.staticflickr.com/4151/5151800941_5d46d15514.jpg","path":"ff8/874/ff8874d0e54f2c4e522437fec7ea4166.jpg","date":"2010-10-18","year":2010,"month":10,"lon":18.950878,"lat":69.64681,"tags":"arctic,norway,panorama,snow,tromso","S2CellId":"45c4000000000000","result":2753,"accuracy":0.2659648,"title":"DSC_1412+Stitch"}
{"id":2730783925,"url":"http://farm4.staticflickr.com/3186/2730783925_676af9dddf.jpg","path":"fca/e04/fcae04a2b1d309bc77582d1c7e4a6.jpg","date":"2008-07-13","year":2008,"month":7,"lon":18.962702,"lat":69.65284,"tags":"20080713,byniek,dag9,scandinavi%C3%AB","S2CellId":"4647000000000000","result":2811,"accuracy":0.036468178,"title":"Troms%C3%B8+Polarmuseet"}
{"id":1428666333,"url":"http://farm2.staticflickr.com/1056/1428666333_10dd906640.jpg","path":"c88/f84/c88f84dd353d90f6b1bf1560b551df5.jpg","date":"2007-07-29","year":2007,"month":7,"lon":18.937683,"lat":69.65709,"tags":"far,karen,north,norway,tromso","S2CellId":"54c7000000000000","result":6307,"accuracy":0.051407125,"title":"DSCN4099"}
{"id":7991047406,"url":"http://farm9.staticflickr.com/8170/7991047406_c8bb668b09.jpg","path":"c89/517/c895175a66807812d5aecc7241b32340.jpg","date":"2012-08-07","year":2012,"month":8,"lon":18.81286,"lat":69.74039,"tags":"alpine+skiing,clouds,fjell,kj%C3%B8len+%28790%29,mountain,norway,skyer,topptur,troms,troms%C3%B8,utsikt,view","S2CellId":"463bc00000000000","result":2771,"accuracy":0.04703904,"title":"Overcast+II","description":"Another+picture+where+clouds+tend+to+gather+above+mountains%3A+%3Ca+href%3D%22http%3A%2F%2Fwww.flickr.com%2Fphotos%2Fasbjorn_floden%2F1186529885%22%3Ewww.flickr.com%2Fphotos%2Fasbjorn_floden%2F1186529885%3C%2Fa%3E"}
{"id":8528127742,"url":"http://farm9.staticflickr.com/8514/8528127742_a33cd3fe78.jpg","path":"ed8/57a/ed857a31fe363b23d368f16a188a1b62.jpg","date":"2013-02-28","year":2013,"month":2,"lon":18.950356,"lat":69.64598,"tags":"%C3%B8lhallen,norge,norway,polar+beer,pub,troms,troms%C3%B8","S2CellId":"80c2c64400000000","result":7193,"accuracy":0.017682211,"title":"%C3%98lhallen","description":"A+stuffed+polar+bear+in+the+%C3%98lhallen+pub+in+Troms%C3%B8%2C+Norway.%0A%0A%5B%3Ca+href%3D%22http%3A%2F%2Fbeer-trotter.blogspot.no%2F2013%2F03%2Fenjoying-polar-beers-in-troms.html%22+rel%3D%22nofollow%22%3Eblog+entry%3C%2Fa%3E%5D"}
{"id":9688799828,"url":"http://farm3.staticflickr.com/2850/9688799828_c552f90079.jpg","path":"282/5de/2825de17b3e2616f758c9f6c4532d77d.jpg","date":"2013-02-16","year":2013,"month":2,"lon":18.961414,"lat":69.64864,"tags":"ba%CC%8Ater,havn,norge,troms,troms%C3%B8","S2CellId":"45c4000000000000","result":2753,"accuracy":0.53249955,"title":"20130216-IMG_6426","description":"L%C3%B8rdag+formiddag+i+Troms%C3%B8.+Jeg+ruslet+rundt+nede+ved+havna.+Et+stort+cruiseskip+l%C3%A5+inne+ogs%C3%A5."}
{"id":4980776022,"url":"http://farm5.staticflickr.com/4151/4980776022_cbc306e057.jpg","path":"4ad/0c1/4ad0c1f8ed252fb47819dfdbe06334.jpg","date":"2010-09-11","year":2010,"month":9,"lon":18.933605,"lat":69.6489,"tags":"alfheim,brann,norway,norwegian+football,sk+brann,til,tippeligaen,troms%C3%B8","S2CellId":"45c4000000000000","result":2753,"accuracy":0.3233872,"title":"Ruben+Ytterg%C3%A5rd+Jensen%2FTIL"}
{"id":2237285415,"url":"http://farm3.staticflickr.com/2208/2237285415_6bc31d4f88.jpg","path":"b1b/aad/b1baad1ac98fe2dd9fc71d3f3c9f5849.jpg","date":"2008-01-05","year":2008,"month":1,"lon":18.963066,"lat":69.651344,"tags":"arctic,norway,troms%C3%B8,tromso","S2CellId":"45c4000000000000","result":2753,"accuracy":0.31379977,"title":"dsc03211"}
{"id":3107790362,"url":"http://farm4.staticflickr.com/3138/3107790362_61eff9c7dd.jpg","path":"589/9a7/5899a7f72aa12d2b6dfe2da6dc26fb7c.jpg","date":"2008-11-06","year":2008,"month":11,"lon":18.987808,"lat":69.648186,"tags":"arctic,cathedral,ishavskatedralen,night,norway,scandinavia,troms%C3%B8,tromso","S2CellId":"46416d0000000000","result":2792,"accuracy":0.03501493,"title":"Mark+outside+the+Arctic+Cathedral%2C+Troms%C3%B8"}
{"id":566123013,"url":"http://farm2.staticflickr.com/1400/566123013_5c9ba93440.jpg","path":"2db/52b/2db52b7615a7705f95da07feb4fbdf0.jpg","date":"2007-05-20","year":2007,"month":5,"lon":18.959827,"lat":69.64894,"tags":"norway,troms%C3%B8","S2CellId":"56c4000000000000","result":6318,"accuracy":0.2626832,"title":"070520_0094b","description":"Plenty+of+maritime+traffic+in+the+fjords.+%28Troms%C3%B8%2C+May+2007%29"}
{"id":8585080737,"url":"http://farm9.staticflickr.com/8379/8585080737_94ea4f88db.jpg","path":"a25/295/a252955e4b5d5467abbfe35762527e4.jpg","date":"2013-03-06","year":2013,"month":3,"lon":18.745594,"lat":69.686844,"tags":"2013,650d,aurora,aurora%2Bborealis,boreal,borealis,canon,cape,cfaobam,earth,eos,europa,europe,frankfurt,green,landmark,landscape,light,lights,lightsfotos,magnets,natural,nature,night,nights,northern,oslo,planet,polar,polarkreises,polarlichter,polarregion,reise,scenic,shot,snow,solar,star,stars,troms%C3%B8,winter","S2CellId":"45c4000000000000","result":2753,"accuracy":0.45858994,"title":"Polarlicht-Reise+2013+-+Tag01+-+016"}
{"id":9685662955,"url":"http://farm4.staticflickr.com/3671/9685662955_f4cc7fd4b9.jpg","path":"d35/781/d357816aabff55848f0175460154ebf.jpg","date":"2013-02-16","year":2013,"month":2,"lon":18.961414,"lat":69.64864,"tags":"norge,troms,troms%C3%B8,troms%C3%B8bilder","S2CellId":"45c4000000000000","result":2753,"accuracy":0.657754,"title":"20130216-IMG_4300","description":"L%C3%B8rdagsformiddag+i+Troms%C3%B8"}
{"id":3904483432,"url":"http://farm4.staticflickr.com/3419/3904483432_24f8fef5fb.jpg","path":"499/d3c/499d3c602829f2fe5bf2b1e3a275052.jpg","date":"2009-08-22","year":2009,"month":8,"lon":18.957596,"lat":69.6508,"tags":"norge,norveggia,norway,paolagospo,scandinavia,travel,viaggi","S2CellId":"45c4000000000000","result":2753,"accuracy":0.114991605,"title":"tromso.","description":"22+agosto+2009.+al+risveglio."}
{"id":5151800851,"url":"http://farm5.staticflickr.com/4045/5151800851_ff4c82eba8.jpg","path":"fda/b24/fdab242bb42ca5e4e6535bf4ebcfb048.jpg","date":"2010-10-17","year":2010,"month":10,"lon":18.955193,"lat":69.65164,"tags":"arctic,norway,snow,tromso","S2CellId":"47a851c740000000","result":3931,"accuracy":0.071727216,"title":"DSC_1410"}
{"id":6958250197,"url":"http://farm8.staticflickr.com/7191/6958250197_c85947b501.jpg","path":"a1e/383/a1e3839634105041f788899769966225.jpg","date":"2012-03-04","year":2012,"month":3,"lon":18.906097,"lat":69.68345,"tags":"keyser,makro","S2CellId":"88d0a631cabb5071","result":8563,"accuracy":0.0144713605,"title":"keyser+mars+4%2C+2012++029"}
{"id":7482528452,"url":"http://farm9.staticflickr.com/8001/7482528452_03cd10cb92.jpg","path":"3c8/d56/3c8d561d1d5e2f85cf80a1ffe6a7918e.jpg","date":"2012-06-09","year":2012,"month":6,"lon":18.958797,"lat":69.64927,"tags":"norge,norway,pavel,pntphoto,scandinavia,trebukov,troms,troms%C3%B8,tromso","S2CellId":"463a400000000000","result":2769,"accuracy":0.027375868,"title":"Tromso_2012_011_m1_screen","description":"Tromso%2C+Norway"}
{"id":5773112813,"url":"http://farm3.staticflickr.com/2727/5773112813_37bf3a7607.jpg","path":"6c5/11f/6c511f372845214f74cb9e8a111f8d.jpg","date":"2011-05-29","year":2011,"month":5,"lon":18.931673,"lat":69.64879,"tags":"alfheim,football,fotball,goal,norewgian+premier+league,sigurd+rushfeldt,soccer,til,tippeligaen,troms%C3%B8,troms%C3%B8+il","S2CellId":"89c6e40000000000","result":9175,"accuracy":0.054029476,"title":"Rushfeldt%2FTIL+2-0"}
{"id":8477127650,"url":"http://farm9.staticflickr.com/8226/8477127650_63815457ac.jpg","path":"ab5/810/ab58109aedbd7372c91e6bbdb4dd58.jpg","date":"2013-02-08","year":2013,"month":2,"lon":18.61558,"lat":69.694305,"tags":"aurora+borealis,northern+lights,norway,troms%C3%B8","S2CellId":"45c4000000000000","result":2753,"accuracy":0.37408805,"title":"Northern+Lights","description":"Northern+Lights+spread+across+the+evening+sky+near+Troms%C3%B8%2C+Norway."}
{"id":8792704202,"url":"http://farm3.staticflickr.com/2877/8792704202_2e5bf2b5f2.jpg","path":"275/d8a/275d8a7abd2ccbb15578b33c9d4dbbb5.jpg","date":"2013-03-08","year":2013,"month":3,"lon":18.982698,"lat":69.64983,"tags":"bridge,building,europe,harbor,light+effect,man-made,natural+element,nature,night,no,norway,road,sky,snow,stars,troms,troms%C3%B8,troms%C3%B8brua,warehouse,water","S2CellId":"45c4000000000000","result":2753,"accuracy":0.026326738,"title":"Le+pont+de+Troms%C3%B8+traverse+le+d%C3%A9troit+de++Troms%C3%B8ysundet+et+relie+la+ville+de+Troms%C3%B8+situ%C3%A9e+sur+une+%C3%AEle+au+reste+du+continent.","description":"The+Troms%C3%B8+Bridge+crosses+the+Troms%C3%B8ysundet+strait+and+connects+the+city+of+Troms%C3%B8+located+on+an+island+to+the+mainland."}
{"id":5773594326,"url":"http://farm6.staticflickr.com/5184/5773594326_6aa1e99c9d.jpg","path":"6c1/5bc/6c15bc43b4f43a75ed3820decba8666c.jpg","date":"2011-05-29","year":2011,"month":5,"lon":18.931673,"lat":69.64879,"tags":"alfheim,football,fotball,mostafa+abdellaoue,norewgian+premier+league,soccer,til,tippeligaen,troms%C3%B8,troms%C3%B8+il","S2CellId":"48761b7000000000","result":5331,"accuracy":0.16596302,"title":"Abdellaoue%2FTIL"}
{"id":11992505875,"url":"http://farm4.staticflickr.com/3834/11992505875_afb18e0dc3.jpg","path":"6be/8c9/6be8c927f6a77c37f0b11c56cb552cf5.jpg","date":"2014-01-04","year":2014,"month":1,"lon":18.98667,"lat":69.64818,"tags":"2014,808,cameraphone,carl+zeiss,hugovk,hvk,january,light,light+in+the+night,night,nokia,nokia+808+pureview,norway,pureview,talvi,troms%C3%B8+kommune,troms+fylke,tromsdalen,winter","S2CellId":"46416ec000000000","result":2800,"accuracy":0.012830033,"title":"Light+in+the+night"}
{"id":6081006432,"url":"http://farm7.staticflickr.com/6090/6081006432_91c70e2134.jpg","path":"1ae/885/1ae88506b681ffce8795905b4dab65.jpg","date":"2011-08-20","year":2011,"month":8,"lon":18.774221,"lat":69.69344,"tags":"norway,troms%C3%B8","S2CellId":"45db000000000000","result":2757,"accuracy":0.10943572,"title":"Fjellbj%C3%B8rk"}
{"id":138469042,"url":"http://farm1.staticflickr.com/55/138469042_c3194d8f1d.jpg","path":"b5b/910/b5b9104528782f14fd47ded06f31cbd3.jpg","date":"2006-03-11","year":2006,"month":3,"lon":18.995018,"lat":69.635086,"tags":"norway,troms,troms%C3%B6,troms%C3%B8,tromso","S2CellId":"45c4000000000000","result":2753,"accuracy":0.88025,"title":"P3110698","description":"Central+part+of+Tromsoya%2C+seen+from+Fjellheisen"}
{"id":7482528864,"url":"http://farm9.staticflickr.com/8153/7482528864_5513ae750c.jpg","path":"999/014/9990145ca332718afd01c6c1e9da98.jpg","date":"2012-06-09","year":2012,"month":6,"lon":18.958797,"lat":69.64927,"tags":"norge,norway,pavel,pntphoto,scandinavia,trebukov,troms,troms%C3%B8,tromso","S2CellId":"9630000000000000","result":9869,"accuracy":0.31785148,"title":"Tromso_2012_012_m1_screen","description":"Tromso%2C+Norway"}
{"id":3380563684,"url":"http://farm4.staticflickr.com/3565/3380563684_fbbda4e30a.jpg","path":"ccb/99d/ccb99d2879b32d37b6e415b61996a1aa.jpg","date":"2009-03-23","year":2009,"month":3,"lon":18.956226,"lat":69.649704,"tags":"tromso","S2CellId":"467c000000000000","result":2949,"accuracy":0.3377764,"title":"View+from+the+first+hotel+room","description":"Which+was+not+a+twin+room%2C+so+we+asked+to+be+moved+and+were."}
{"id":3673556292,"url":"http://farm4.staticflickr.com/3602/3673556292_5f33c3fe64.jpg","path":"b8f/8e9/b8f8e9a85399d061cff32c65c23447e0.jpg","date":"2009-06-20","year":2009,"month":6,"lon":18.990898,"lat":69.639565,"tags":"norway,troms%C3%B8","S2CellId":"45cc000000000000","result":2754,"accuracy":0.1614576,"title":"Precarious"}
{"id":1429457886,"url":"http://farm2.staticflickr.com/1324/1429457886_ccaba42098.jpg","path":"5e2/0bd/5e20bd4a63fccf77dce451602d2d84.jpg","date":"2007-07-24","year":2007,"month":7,"lon":18.204346,"lat":69.70477,"tags":"far,karen,north,norway,tromso","S2CellId":"4613000000000000","result":2763,"accuracy":0.23134345,"title":"DSCN3822"}
{"id":5151802653,"url":"http://farm2.staticflickr.com/1390/5151802653_5f7e8eab25.jpg","path":"72e/72e/72e72eaa253a569ed945713a54842.jpg","date":"2010-10-18","year":2010,"month":10,"lon":18.951845,"lat":69.64467,"tags":"arctic,norway,panorama,snow,tromso","S2CellId":"45c4000000000000","result":2753,"accuracy":0.34221476,"title":"DSC_1473+Stitch"}
{"id":8477126144,"url":"http://farm9.staticflickr.com/8234/8477126144_a8b80b2d4b.jpg","path":"e75/97e/e7597e9857d546c4db99adf18b9d73f.jpg","date":"2013-02-08","year":2013,"month":2,"lon":18.61558,"lat":69.694305,"tags":"aurora+borealis,northern+lights,norway,troms%C3%B8","S2CellId":"45c4000000000000","result":2753,"accuracy":0.7519083,"title":"Northern+Lights+Reflection","description":"Aurora+Borealis+arcs+dance+over+the+mountains+near+Troms%C3%B8%2C+Norway+and+are+reflected+in+the+fjord+below."}
{"id":5773088953,"url":"http://farm6.staticflickr.com/5102/5773088953_014d222fee.jpg","path":"cba/ce3/cbace3f8dff3463adafc4f2882e1e80.jpg","date":"2011-05-29","year":2011,"month":5,"lon":18.931673,"lat":69.64879,"tags":"alfheim,football,fotball,kara,norewgian+premier+league,serigne+modou+kara+mbodji,soccer,til,tippeligaen,troms%C3%B8,troms%C3%B8+il","S2CellId":"47b8140000000000","result":4040,"accuracy":0.14032736,"title":"Kara%2FTIL"}
{"id":534451160,"url":"http://farm2.staticflickr.com/1061/534451160_0f6f1a6111.jpg","path":"fc5/27e/fc527e6df857d06cf68971e1749cb0d1.jpg","date":"2007-06-01","year":2007,"month":6,"lon":18.96002,"lat":69.650696,"tags":"norway,troms%C3%B8,tromso","S2CellId":"45c4000000000000","result":2753,"accuracy":0.26954597,"title":"Troms%C3%B8+port"}
{"id":6185334896,"url":"http://farm7.staticflickr.com/6176/6185334896_e9167dabb8.jpg","path":"2f6/763/2f676368372fbaa5f229beab88cc174c.jpg","date":"2011-09-24","year":2011,"month":9,"lon":18.955202,"lat":69.647095,"tags":"2011,forskningstorget","S2CellId":"0715000000000000","result":78,"accuracy":0.10956417,"title":"FD2011_torg006","description":"Forskerne+Ida+Dahl-Hansen+%28t.v.%29%2C+Hector+Andrade+og+Vera+Remen+fra+Akvaplan-niva+er+klare+for+%C3%A5+ta+imot+kunnskapst%C3%B8rste+elever."}
{"id":3710145822,"url":"http://farm3.staticflickr.com/2424/3710145822_e4e157e9e2.jpg","path":"d26/47c/d2647ce9f4c7ce3b91c4bd447548496f.jpg","date":"2009-06-22","year":2009,"month":6,"lon":18.985884,"lat":69.64104,"tags":"blume,flower,heilkraut,heilpflanze,herb,kraut,l%C3%B6wenzahn,norway,norwegen,pflanze,plant,taraxacum,troms%C3%B8","S2CellId":"89c2f34000000000","result":9103,"accuracy":0.004610716,"title":"0906_Kreuzfahrt_Norwegen_0938","description":"L%C3%B6wenzahn+in+Troms%C3%B8"}
{"id":8643662018,"url":"http://farm9.staticflickr.com/8110/8643662018_a3a2316a0f.jpg","path":"9da/392/9da3922dc569db27516ad0ed0a0bb97.jpg","date":"2013-03-17","year":2013,"month":3,"lon":18.98732,"lat":69.647575,"tags":"650d,canon,cfaobam,eos,europa,europe,nature,nordweg,norwegen,polarkreises,polarregion,troms,troms%C3%B6,troms%C3%B8,winter","S2CellId":"463cfd0000000000","result":2779,"accuracy":0.70874447,"title":"Polarlicht-Reise+2013+-+Tag10+-+91"}
{"id":540310474,"url":"http://farm2.staticflickr.com/1347/540310474_fcac8b7a97.jpg","path":"54b/5a5/54b5a5a52d5a261c41de346fb5a3fa4.jpg","date":"2007-06-03","year":2007,"month":6,"lon":18.965792,"lat":69.6521,"tags":"norway,troms%C3%B8,tromso","S2CellId":"5486718400000000","result":6127,"accuracy":0.06299476,"title":"Troms%C3%B8+port"}
{"id":5618342001,"url":"http://farm6.staticflickr.com/5061/5618342001_305608fe33.jpg","path":"d3e/8e7/d3e8e79261f87ca88fbe563d5fa6a19.jpg","date":"2011-03-15","year":2011,"month":3,"lon":18.982658,"lat":69.683235,"tags":"2011,hjerte,hjerteskolen,infarkt,l%C3%B8chen,maja,maja-lisa+l%C3%B8chen,universitetet+i+troms%C3%B8,universitetssykehuset+nord-norge,universitetssykehuset+nord-norge+%28unn%29,unn","S2CellId":"487604b500000000","result":5213,"accuracy":0.06280733,"title":"hjerteskolen_maja-lisa_lochen_150311-web-1","description":"Maja-Lisa+L%C3%B8chen.+Overlege+ved+hjertemedisinsk+avdeling+p%C3%A5+UNN+og+professor+ved+Universitetet+i+Troms%C3%B8.+L%C3%B8chen+underviser+ogs%C3%A5+ved+%22Hjerteskolen%22+p%C3%A5+UNN%3A+%3Ca+href%3D%22http%3A%2F%2Fwww.unn.no%2Fpasientkurs%2Fhjerteskole-ved-elisabethsenteret-i-tromsoe-article63882-22815.html%22+rel%3D%22nofollow%22%3Ewww.unn.no%2Fpasientkurs%2Fhjerteskole-ved-elisabethsenteret-...%3C%2Fa%3E.+Foto%3A+Jan+Fredrik+Frantzen%2C+Universitetssykehuset+Nord-Norge+%28UNN%29"}
{"id":2962310206,"url":"http://farm4.staticflickr.com/3198/2962310206_d358d79494.jpg","path":"bed/d11/bedd11446dafeb9f1e5df2932ff98cb.jpg","date":"2008-06-30","year":2008,"month":6,"lon":18.976585,"lat":69.67637,"tags":"botanic+garden,troms%C3%B8,tromso","S2CellId":"463f000000000000","result":2783,"accuracy":0.09598013,"title":"bl%C3%A5time++001"}
{"id":6826905778,"url":"http://farm8.staticflickr.com/7048/6826905778_e077409d46.jpg","path":"d98/4e2/d984e2bb4b5f5f861519bca8cfadbd54.jpg","date":"2012-02-18","year":2012,"month":2,"lon":18.955317,"lat":69.6489,"tags":"tromso","S2CellId":"45c4000000000000","result":2753,"accuracy":0.7969832,"title":"Tromso","description":"Tromso%2C+north+of+Norway%2C+a+view+of+the+harbour+from+the+main+bridge%0A%0A%3Cb%3EVisit+my+travel+blog++%3Ca+href%3D%22http%3A%2F%2Fearthincolors.wordpress.com%22+rel%3D%22nofollow%22%3Eearthincolors.wordpress.com%3C%2Fa%3E+to+see+my+best+pics+and+read+my+travel+stories+%3C%2Fb%3E%0A%0A%3Cb%3E+Follow+me+on+%3Ca+href%3D%22http%3A%2F%2Ftwitter.com%2Fmoyan_brenn%22+rel%3D%22nofollow%22%3ETWITTER%3C%2Fa%3E+to+stay+updated+with+my+future+pictures%21%3C%2Fb%3E+%0A%0A.%0A%3Cb%3E%3Cu%3E****+COPYRIGHT+AND+CC+INFORMATION+****%3C%2Fu%3E%3C%2Fb%3E%0A%0AIf+you+like+and+want+to+use+my+photos+you+can+do+it+for+free+%3Cb%3EBUT%3C%2Fb%3E+first+%0A%3Cb%3Eyou+HAVE+to+read+and+respect+%3C%2Fb%3E+my+rules+and+policy+reported++in+my+profile+page+here+%3Ca+href%3D%22http%3A%2F%2Fwww.flickr.com%2Fpeople%2Faigle_dore%2F%22%3Ewww.flickr.com%2Fpeople%2Faigle_dore%2F%3C%2Fa%3E%0AThanks"}
{"id":5664284644,"url":"http://farm6.staticflickr.com/5307/5664284644_025da82dda.jpg","path":"a19/8d9/a198d9d0cf807ae116c955d04e08c94.jpg","date":"2011-04-28","year":2011,"month":4,"lon":18.983088,"lat":69.683075,"tags":"2011,bryst,kreft,mammografi,troms%C3%B8,universitetssykehuset+nord-norge,universitetssykehuset+nord-norge+%28unn%29,unn","S2CellId":"48785c0000000000","result":5454,"accuracy":0.023319976,"title":"mammografi_inngang_280411-web","description":"Inngangen+til+mammografien+ved+UNN+Troms%C3%B8.+Foto%3A+Jan+Fredrik+Frantzen%2C+Universitetssykehuset+Nord-Norge+%28UNN%29"}
{"id":2237299085,"url":"http://farm3.staticflickr.com/2020/2237299085_bc7e71df91.jpg","path":"ba9/2f3/ba92f3c456c1eeca45371bdecb75fd4.jpg","date":"2008-01-05","year":2008,"month":1,"lon":18.962616,"lat":69.64959,"tags":"arctic,norway,troms%C3%B8,tromso","S2CellId":"45c4000000000000","result":2753,"accuracy":0.150811,"title":"dsc03215"}
{"id":3575175695,"url":"http://farm4.staticflickr.com/3640/3575175695_59ffe07c61.jpg","path":"afb/669/afb6693ffa1adf36b881a5d18760d5aa.jpg","date":"2009-05-23","year":2009,"month":5,"lon":18.021011,"lat":69.60135,"tags":"brensholmen,kval%C3%B8ya,norge,norway,troms%C3%B8","S2CellId":"488e400000000000","result":5768,"accuracy":0.20887186,"title":"-"}
{"id":8455820042,"url":"http://farm9.staticflickr.com/8531/8455820042_f5142e2da7.jpg","path":"135/4d6/1354d63e7bddf433fca9fa65a5b16d88.jpg","date":"2013-02-06","year":2013,"month":2,"lon":18.95664,"lat":69.64875,"tags":"norway,tromso","S2CellId":"4796c85000000000","result":3753,"accuracy":0.009807135,"title":"cathedral+glass","description":"%3Ca+href%3D%22http%3A%2F%2Floc.alize.us%2F%23%2Fflickr%3A8455820042%22+rel%3D%22nofollow%22%3ESee+where+this+picture+was+taken.%3C%2Fa%3E+%3Ca+href%3D%22http%3A%2F%2Fwww.flickr.com%2Fgroups%2Fgeotagging%2Fdiscuss%2F72157594165549916%2F%22%3E%5B%3F%5D%3C%2Fa%3E"}
{"id":8175843093,"url":"http://farm9.staticflickr.com/8341/8175843093_b0bb2b2b6b.jpg","path":"2c7/141/2c71417addab1d85b25046e2144a8857.jpg","date":"2011-07-13","year":2011,"month":7,"lon":18.624573,"lat":69.14594,"tags":"fjord,malsev,nature,norway,scandinavia","S2CellId":"4674000000000000","result":2948,"accuracy":0.30341223,"title":"9_"}
{"id":10884130316,"url":"http://farm6.staticflickr.com/5510/10884130316_2f2d3767c3.jpg","path":"89d/969/89d96980b11ac938775e785ad1236.jpg","date":"2013-11-09","year":2013,"month":11,"lon":18.964483,"lat":69.66052,"tags":"crossfit,crossfittroms%C3%B8,exercise,gym,northern+norway,training,troms,troms%C3%B8,wod,workout+of+the+day","S2CellId":"8704000000000000","result":7714,"accuracy":0.098396204,"title":"Crossfit_0209"}
{"id":534467840,"url":"http://farm2.staticflickr.com/1359/534467840_eb0a6bcaaf.jpg","path":"8f4/aee/8f4aee4fc2d76a2fdbe8acd4ed928d.jpg","date":"2007-06-02","year":2007,"month":6,"lon":18.986755,"lat":69.64954,"tags":"norway,troms%C3%B8,tromso","S2CellId":"45c4000000000000","result":2753,"accuracy":0.90127975,"title":"The+hand+of+God+over+Troms%C3%B8"}
{"id":3710226402,"url":"http://farm4.staticflickr.com/3257/3710226402_68bdcbcefb.jpg","path":"d37/dcb/d37dcbec3cbb94bb54cc9afdab22c6fa.jpg","date":"2009-06-22","year":2009,"month":6,"lon":18.964113,"lat":69.652695,"tags":"norway,norwegen,troms%C3%B8","S2CellId":"45c4000000000000","result":2753,"accuracy":0.18417771,"title":"0906_Kreuzfahrt_Norwegen_0963"}
{"id":6746424189,"url":"http://farm8.staticflickr.com/7160/6746424189_64bc842d84.jpg","path":"557/c79/557c791bbaf834dfc894dae993f0f6.jpg","date":"2012-01-22","year":2012,"month":1,"lon":18.480377,"lat":69.76637,"tags":"aurora,aurora+borealis,nordlicht,nordlys,northern+light,northern+lights","S2CellId":"45c4000000000000","result":2753,"accuracy":0.281095,"title":"Northern+lights+on+Kval%C3%B8ya+2012-01-23"}
{"id":12099779363,"url":"http://farm8.staticflickr.com/7397/12099779363_71427556d2.jpg","path":"1d9/64d/1d964ded9213902931cfc95143ccceb0.jpg","date":"2014-01-06","year":2014,"month":1,"lon":18.91171,"lat":69.63483,"tags":"2014,808,cameraphone,carl+zeiss,cultural,hands%3A,history,hugovk,hvk,january,mitten,nokia,nokia+808+pureview,norway,pureview,talvi,troms%C3%B8+kommune,troms+fylke,tromso,warm,warm+hands%3A+the+cultural+history+of+the+mitten,winter","S2CellId":"935a3ac000000000","result":9655,"accuracy":0.0024913773,"title":"Warm+hands%3A+the+cultural+history+of+the+mitten"}
{"id":2803544967,"url":"http://farm4.staticflickr.com/3216/2803544967_60d9958508.jpg","path":"b7e/e9d/b7ee9d34266f3c87c9639b2366ef9611.jpg","date":"2008-08-10","year":2008,"month":8,"lon":18.987122,"lat":69.649086,"tags":"norvegia+norway+viaggi+avventure+mondo,tromso","S2CellId":"4613000000000000","result":2763,"accuracy":0.114269376,"title":"Norway_0031"}
