{"id":3736489506,"url":"http://farm3.staticflickr.com/2457/3736489506_f7d567fc8d.jpg","path":"e3d/07a/e3d07ae47b8b9d9850485f8e2c7a3.jpg","date":"2009-06-30","year":2009,"month":6,"lon":-119.54461,"lat":49.50658,"tags":"british+columbia,canada,long+exposure,penticton","S2CellId":"537dc00000000000","result":6064,"accuracy":0.07169755,"title":"Last+Light"}
{"id":3860974458,"url":"http://farm3.staticflickr.com/2496/3860974458_826abd9d4a.jpg","path":"2b3/a82/2b3a8250a49b7b9cf646562480544f79.jpg","date":"2009-08-26","year":2009,"month":8,"lon":-119.46409,"lat":49.03349,"tags":"2009,bc,britishcolumbia,canada,crossprocessed,desert,editorial,fashion,film,fionagarden,hot,hotweather,lily%26jae,lilyandjae,lookbook,modeling,models,osoyoos,photoassisting,processed+by+specialty+color+services,styling,stylized,summer,vancouverdesigner","S2CellId":"0d22c00000000000","result":251,"accuracy":0.0074827527,"title":"Photo+assisting+w%2F+Fiona+Garden+for+Lily+and+Jae","description":"%3Ca+href%3D%22http%3A%2F%2Fwww.lilyandjae.com%2F%22+rel%3D%22nofollow%22%3Ewww.lilyandjae.com%2F%3C%2Fa%3E%0A%0A%3Ca+href%3D%22http%3A%2F%2Ffionagardenphotography.com%2F%22+rel%3D%22nofollow%22%3Efionagardenphotography.com%2F%3C%2Fa%3E"}
{"id":2361976639,"url":"http://farm3.staticflickr.com/2002/2361976639_e1241e3493.jpg","path":"6c1/711/6c1711e7ecdce30e09d609fa0d5fe5e.jpg","date":"2007-12-24","year":2007,"month":12,"lon":-117.91076,"lat":48.693794,"tags":"2007,children,christmas,family,gifts,holiday,love,parents,presents","S2CellId":"88f8900000000000","result":8736,"accuracy":0.033885818,"title":"Christmas+2007"}
{"id":3466964622,"url":"http://farm4.staticflickr.com/3490/3466964622_d364282304.jpg","path":"56c/aea/56caeac1ff4af291c7de571955c41eb4.jpg","date":"2009-04-04","year":2009,"month":4,"lon":-118.15061,"lat":50.954517,"tags":"2009,april,bc,british+columbia,canada,retro+day,revelstoke,revelstoke+mountain+resort,slush+cup","S2CellId":"4cb8950000000000","result":5865,"accuracy":0.026089866,"title":"IMG_2584"}
{"id":11791729484,"url":"http://farm8.staticflickr.com/7438/11791729484_326f2e2497.jpg","path":"161/ce8/161ce8f4d5919293141b1e8d288d71.jpg","date":"2013-12-27","year":2013,"month":12,"lon":-119.493256,"lat":49.902534,"tags":"kelowna","S2CellId":"8099900000000000","result":7112,"accuracy":0.13054633,"title":"Pink+everywhere"}
{"id":4074605840,"url":"http://farm4.staticflickr.com/3490/4074605840_929bf9439f.jpg","path":"8f3/52e/8f352efef15824e1c6c28b81c4e56451.jpg","date":"2009-10-26","year":2009,"month":10,"lon":-117.29332,"lat":49.49137,"tags":"raw","S2CellId":"89d5400000000000","result":9263,"accuracy":0.004127353,"title":"_MG_5263"}
{"id":4672562927,"url":"http://farm5.staticflickr.com/4023/4672562927_3abb5b56be.jpg","path":"fa3/262/fa326243ff77c42d702e40847672acc5.jpg","date":"2010-06-05","year":2010,"month":6,"lon":-119.36946,"lat":50.11926,"tags":"hipstamatic,kalamalka+lake,lake,okanagan","S2CellId":"5353000000000000","result":6037,"accuracy":0.044816066,"title":"Kalamalka+Lake","description":"%3Ca+href%3D%22http%3A%2F%2Fposterous.com%22+rel%3D%22nofollow%22%3EPosted+via+email%3C%2Fa%3E+++from+%3Ca+href%3D%22http%3A%2F%2Fbryanhughes.posterous.com%2Fkalamalka-lake%22+rel%3D%22nofollow%22%3EBryan%27s+posterous%3C%2Fa%3E"}
{"id":9578329707,"url":"http://farm6.staticflickr.com/5326/9578329707_6c72d72b8f.jpg","path":"da3/d28/da3d282a380d1ceb15479b5adfd1d9f.jpg","date":"2013-08-04","year":2013,"month":8,"lon":-119.58715,"lat":49.834896,"tags":"british+columbia,canada,mission+hill,west+kelowna","S2CellId":"4791bb0000000000","result":3723,"accuracy":0.11151135,"title":"Entrance...small"}
{"id":5673932235,"url":"http://farm6.staticflickr.com/5029/5673932235_336957d2e9.jpg","path":"d87/b9f/d87b9ff6b5953ccbd0f6702c4279b73d.jpg","date":"2011-04-17","year":2011,"month":4,"lon":-119.56727,"lat":49.78468,"tags":"tantivy,wall","S2CellId":"54c7000000000000","result":6307,"accuracy":0.061235838,"title":"P4170432","description":"Okanagan+Lake+-+April+storm+brewing+in+the+north"}
{"id":243925282,"url":"http://farm1.staticflickr.com/81/243925282_86ffc8cf1f.jpg","path":"e72/e19/e72e19ac2357fff2ca4a3ce38835763.jpg","date":"2006-09-03","year":2006,"month":9,"lon":-119.526955,"lat":49.071392,"tags":"bc,desert,field,okanagan,osoyoos","S2CellId":"8718400000000000","result":7729,"accuracy":0.008984275,"title":"black+sage","description":"osoyoos+is+host+to+canada%27s+only+pocket+desert"}
{"id":6033231725,"url":"http://farm7.staticflickr.com/6185/6033231725_e121151d1e.jpg","path":"c51/b1d/c51b1d949ae465f3cc876f548e9bb3b.jpg","date":"2011-07-03","year":2011,"month":7,"lon":-119.22157,"lat":50.940258,"tags":"2011,bc,blind+bay,cute,dog,flickr,life-jacket,shake,shuswap+lake,water","S2CellId":"88f5b00000000000","result":8731,"accuracy":0.018565899,"title":"Shake%21"}
{"id":4269955959,"url":"http://farm3.staticflickr.com/2727/4269955959_0f5fe32578.jpg","path":"b35/690/b35690143be8c8e5c782d361a33d7d2d.jpg","date":"2010-01-12","year":2010,"month":1,"lon":-119.65511,"lat":49.59818,"tags":"af-s+nikkor+16-85mm+f%2F3.5-5.6g+ed+vr,british+columbia,canada,d90,highway+97,long+exposure,nikon,okanagan,summerland,summerland+hill","S2CellId":"54cf000000000000","result":6311,"accuracy":0.032883894,"title":"Looking+North","description":"Exposure%3A++30%0AAperture%3A+f%2F10.0%0AFocal+Length%3A+16+mm"}
{"id":9356445147,"url":"http://farm4.staticflickr.com/3714/9356445147_f8e9a4bbbb.jpg","path":"e4e/9da/e4e9da93dd3335fd35493f9a5146947.jpg","date":"2013-07-01","year":2013,"month":7,"lon":-118.371506,"lat":50.96492,"tags":"railway","S2CellId":"5481000000000000","result":6095,"accuracy":0.100586355,"title":"130710-17","description":"Revelstoke+B.C."}
{"id":399478905,"url":"http://farm1.staticflickr.com/90/399478905_0e3d40600a.jpg","path":"bc1/b90/bc1b90a83e7097405138bccf4019b33.jpg","date":"2006-08-23","year":2006,"month":8,"lon":-117.654305,"lat":50.156006,"tags":"summer","S2CellId":"548e400000000000","result":6158,"accuracy":0.103361,"title":"0055+Summit+Lake"}
{"id":2224512274,"url":"http://farm3.staticflickr.com/2213/2224512274_1e863d4d31.jpg","path":"6dc/ebf/6dcebf14fb1d856661ed89ed9debb49.jpg","date":"2008-01-26","year":2008,"month":1,"lon":-117.80215,"lat":49.07977,"tags":"bc,kootenays,rossland,skiing,winter,winter+carnival","S2CellId":"8821000000000000","result":8213,"accuracy":0.0894313,"title":"One+of+the+Fastest+Toboggans"}
{"id":85906610,"url":"http://farm1.staticflickr.com/42/85906610_99a9518d59.jpg","path":"266/b36/266b36223ab1153d9de3c9bd3e73f.jpg","date":"2006-01-13","year":2006,"month":1,"lon":-119.898605,"lat":50.888092,"tags":"british+columbia,canada,iansand,snow,sunpeaks,winter","S2CellId":"45d4000000000000","result":2755,"accuracy":0.25539893,"title":"%22Early%22++Morning"}
{"id":3824537906,"url":"http://farm4.staticflickr.com/3531/3824537906_b577b807a8.jpg","path":"e61/671/e616716bb83c7d848df2b621d7c39f.jpg","date":"2009-08-15","year":2009,"month":8,"lon":-119.46409,"lat":49.03349,"tags":"2009,analog,bc,britishcolumbia,canada,codecanada,crossprocessed,desert,editorial,fashion,film,fionagarden,hot,hotweather,lily%26jae,lilyandjae,lookbook,modeling,models,osoyoos,photoassisting,processed+by+specialty+color+services,retro,styling,stylized,summer,vancouverdesigner","S2CellId":"5483000000000000","result":6096,"accuracy":0.30820206,"title":"Photo+assisting+w%2F+Fiona+Garden+for+Lily+and+Jae","description":"%3Ca+href%3D%22http%3A%2F%2Fwww.lilyandjae.com%2F%22+rel%3D%22nofollow%22%3Ewww.lilyandjae.com%2F%3C%2Fa%3E%0A%0A%3Ca+href%3D%22http%3A%2F%2Ffionagardenphotography.com%2F%22+rel%3D%22nofollow%22%3Efionagardenphotography.com%2F%3C%2Fa%3E"}
{"id":3049299760,"url":"http://farm4.staticflickr.com/3293/3049299760_80e7e0686a.jpg","path":"bb1/f3a/bb1f3af96f5fdd72780e36d176777.jpg","date":"2008-11-15","year":2008,"month":11,"lon":-118.753365,"lat":49.000492,"tags":"2008,mountain,november,washington,wauconda,white","S2CellId":"877c000000000000","result":7905,"accuracy":0.020510467,"title":"The+Frontier","description":"Brett+and+Sarah+take+their+posts+along+the+barbed-wire+fence+separating+Washington+and+British+Columbia."}
{"id":3466663130,"url":"http://farm4.staticflickr.com/3597/3466663130_2b3da7f1e7.jpg","path":"707/ae1/707ae11c42f2a9b1145c9ac8d2edfc6d.jpg","date":"2009-03-02","year":2009,"month":3,"lon":-118.210846,"lat":50.932686,"tags":"2009,bc,british+columbia,canada,chelsea,march,revelstoke,snow,winter","S2CellId":"45d4000000000000","result":2755,"accuracy":0.16760431,"title":"IMG_2411"}
{"id":3850499100,"url":"http://farm4.staticflickr.com/3489/3850499100_782def2bb8.jpg","path":"499/c36/499c36ba59733b2f5da534d754c6dfcc.jpg","date":"2009-08-12","year":2009,"month":8,"lon":-119.90156,"lat":48.38835,"tags":"twisted+stalk","S2CellId":"54c0c00000000000","result":6302,"accuracy":0.009117914,"title":"Streptopus+amplexifolius+%28Twisted+stalk%29"}
{"id":9070153636,"url":"http://farm8.staticflickr.com/7345/9070153636_435577729e.jpg","path":"49d/d1e/49dd1e7389c5bc812b0346a43405529.jpg","date":"2013-06-10","year":2013,"month":6,"lon":-119.58498,"lat":49.581097,"tags":"british+columbia,penticton","S2CellId":"8084500000000000","result":6907,"accuracy":0.07563709,"title":"Penticton%2C+British+Columbia"}
{"id":442288972,"url":"http://farm1.staticflickr.com/195/442288972_553f90cdc2.jpg","path":"c72/194/c7219467576d8d5085fe98cd8c79339e.jpg","date":"2004-08-09","year":2004,"month":8,"lon":-119.60591,"lat":49.501587,"tags":"2004,beach,british+columbia,canada,canoe,cans2s,kanada,lake,landscape,okanagan,okanagan+lake,palestrina55,penticton,pfosilver,photofaceoffwinner","S2CellId":"5483000000000000","result":6096,"accuracy":0.14755277,"title":"Canoeing+on+Okanagan+Lake","description":"The+Okanagan+Lake+at+Penticton+in+British+Columbia%2C+Canada.%0AClick+%3Ca+href%3D%22http%3A%2F%2Fmaps.google.com%2Fmaps%3Ft%3Dk%26hl%3Den%26q%3D49.502109%2C-119.598842%22+target%3D%22_blank%22%3Ehere%3C%2Fa%3E+to+see+where+this+photo+was+taken.+By+courtesy+of+%3Ca+href%3D%22http%3A%2F%2Fwww.beeloop.com%2F%22%3EBeeLoop+SL%3C%2Fa%3E+%28the+Mapware+%26+Mobility+Solutions+Company%29."}
{"id":7237557756,"url":"http://farm8.staticflickr.com/7239/7237557756_8560a678b7.jpg","path":"7ff/3bb/7ff3bb31b0668cef2f7228fa45ae8d45.jpg","date":"2012-05-20","year":2012,"month":5,"lon":-119.56618,"lat":49.138855,"tags":"instagram+app,iphoneography,normal,square,square+format","S2CellId":"808580f400000000","result":6959,"accuracy":0.007069329,"title":"Private+barrel+sampling.+I%27ve+died+and+gone+to+heaven."}
{"id":9868089906,"url":"http://farm6.staticflickr.com/5482/9868089906_0769cce21a.jpg","path":"127/1d5/1271d5659da04b95af517af15b9fc1b.jpg","date":"2013-09-13","year":2013,"month":9,"lon":-119.443405,"lat":50.22464,"tags":"m9","S2CellId":"8099700000000000","result":7111,"accuracy":0.049588345,"title":"L1131094"}
{"id":5950837698,"url":"http://farm7.staticflickr.com/6128/5950837698_2d2cd8420e.jpg","path":"6d1/e6c/6d1e6c3f93174de7790e6f34ce1b2b3.jpg","date":"2011-07-18","year":2011,"month":7,"lon":-119.47151,"lat":50.883976,"tags":"bc,british+columbia,flowers,lake","S2CellId":"5367000000000000","result":6044,"accuracy":0.10539338,"title":"Deck+bouquet","description":"Shuswap+Lake%2C+BC"}
{"id":3844527090,"url":"http://farm4.staticflickr.com/3479/3844527090_b1b76ff5cb.jpg","path":"1b9/a6b/1b9a6bf85ac6412715847f2ab183783.jpg","date":"2009-08-21","year":2009,"month":8,"lon":-117.29661,"lat":49.489902,"tags":"raw","S2CellId":"4862400000000000","result":4858,"accuracy":0.008073234,"title":"IMG_2992"}
{"id":5986167425,"url":"http://farm7.staticflickr.com/6125/5986167425_f0dae10e28.jpg","path":"458/1f6/4581f6cacd39872a604ca89922424d91.jpg","date":"2011-07-28","year":2011,"month":7,"lon":-119.72208,"lat":48.10251,"tags":"okanogan+valley,orchard,washington","S2CellId":"8717000000000000","result":7728,"accuracy":0.010989219,"title":"Edge"}
{"id":6926893552,"url":"http://farm8.staticflickr.com/7258/6926893552_1084c826a8.jpg","path":"45c/8cb/45c8cb1918a2aebbf7e6ab573c34078.jpg","date":"2012-04-11","year":2012,"month":4,"lon":-119.6055,"lat":49.49759,"tags":"2012,adult,animal,animals,april,arbre,baby,bc,bird,blossoms,branch,branches,british+columbia,bubo+virginianus,canada,ciel,eyes,feather,feathers,great+horned+owl,male,nesting,okanagan,open,ouvert,owl,owlet,penticton,perched,plume,plumes,sky,spring,stick,talons,tree,wildlife,wood,yeux","S2CellId":"883cae5000000000","result":8363,"accuracy":0.055229243,"title":"GreatHornedOwl","description":"Bubo+virginianus"}
{"id":9378712241,"url":"http://farm3.staticflickr.com/2816/9378712241_7b08d9c9eb.jpg","path":"c72/eb6/c72eb69b2c3ffd06780bad2b319ca93.jpg","date":"2013-07-01","year":2013,"month":7,"lon":-119.43632,"lat":50.85516,"tags":"detail","S2CellId":"4877cc0000000000","result":5442,"accuracy":0.008549421,"title":"130713-18","description":"Notch+Hill%2C+British+Columbia"}
{"id":718824432,"url":"http://farm2.staticflickr.com/1188/718824432_644e71f636.jpg","path":"2ad/b17/2adb17f372854f7d3ac751a4ee46c4.jpg","date":"2007-07-01","year":2007,"month":7,"lon":-119.88882,"lat":50.651085,"tags":"honeymoon","S2CellId":"8859900000000000","result":8435,"accuracy":0.020005848,"title":"Abode+near+Revelstoke+BC"}
{"id":4224862842,"url":"http://farm5.staticflickr.com/4033/4224862842_1ec61576bd.jpg","path":"1db/8ef/1db8ef6e1adf54b879498f141988867a.jpg","date":"2009-12-28","year":2009,"month":12,"lon":-119.56046,"lat":49.488834,"tags":"af-s+nikkor+16-85mm+f%2F3.5-5.6g+ed+vr,af-s+nikkor+35mm+f%2F1.8g,body,camera,d90,gear,lens,nikon,nikor","S2CellId":"4ccf400000000000","result":5927,"accuracy":0.065703526,"title":"AF-S+Nikkor+35mm+f%2F1.8G","description":"Shot+with+D90+and+AF-S+Nikkor+16-85mm+f%2F3.5-5.6G+ED+VR."}
{"id":3830169685,"url":"http://farm4.staticflickr.com/3439/3830169685_64867df264.jpg","path":"28e/e54/28ee54acfd6019d511d3c7954b7fd0.jpg","date":"2009-08-17","year":2009,"month":8,"lon":-119.46409,"lat":49.03349,"tags":"2009,analog,bc,britishcolumbia,canada,crossprocessed,desert,editorial,fashion,film,fionagarden,hot,hotweather,lily%26jae,lilyandjae,lookbook,modeling,models,osoyoos,photoassisting,processed+by+specialty+color+services,retro,styling,stylized,summer,vancouverdesigner","S2CellId":"54bf400000000000","result":6299,"accuracy":0.068435766,"title":"Photo+assisting+w%2F+Fiona+Garden+for+Lily+and+Jae","description":"%3Ca+href%3D%22http%3A%2F%2Fwww.lilyandjae.com%2F%22+rel%3D%22nofollow%22%3Ewww.lilyandjae.com%2F%3C%2Fa%3E%0A%0A%3Ca+href%3D%22http%3A%2F%2Ffionagardenphotography.com%2F%22+rel%3D%22nofollow%22%3Efionagardenphotography.com%2F%3C%2Fa%3E"}
{"id":4279814861,"url":"http://farm5.staticflickr.com/4036/4279814861_a4f09e78ea.jpg","path":"6b7/77a/6b777a8973faca48d3a25447490fa23.jpg","date":"2010-01-16","year":2010,"month":1,"lon":-119.59844,"lat":49.452343,"tags":"365%3A+the+2010+edition,365%3A2010,af-s+nikkor+16-85mm+f%2F3.5-5.6g+ed+vr,british+columbia,canada,d90,explored,nikon,okanagan,penticton,penticton+camera+club,photowalk,skaha+lake","S2CellId":"5484400000000000","result":6097,"accuracy":0.031848934,"title":"365%3A%3A16+-+The+Return+of+the+Native","description":"January+16%2C+2010.%0A%0AI+guess+today+the+title+would+be+in+reference+to+me+returning+home+to+Penticton%2C+not+that+all+the+titles+relate+to+the+shot.+I+met+up+this+morning+with+some+nice+folks+from+the+%3Cb%3EPenticton+Photography+Club%3C%2Fb%3E+and+we+went+for+a+walk+along+the+River+Channel.+%0A%0AI+got+to+the+meet+spot+a+little+early%2C+and+managed+to+snap+this+shot+at+about+9%3A25+AM%2C+with+the+water+of+Skaha+Lake+a+sheet+of+glass.+%0A%0AIt%27s+good+to+be+home%21%0A%0AExposure%3A++0.001+sec+%281%2F1250%29%0AAperture%3A+f%2F4.8%0AFocal+Length%3A+40+mm"}
{"id":5968253855,"url":"http://farm7.staticflickr.com/6004/5968253855_1e5ffa69f8.jpg","path":"9f8/f25/9f8f2575be38ca342d2d9d354112f.jpg","date":"2011-07-23","year":2011,"month":7,"lon":-119.56367,"lat":49.53758,"tags":"hillside+estate+winery,instagram+app,iphoneography,naramata,normal,square,square+format","S2CellId":"3397c84000000000","result":1920,"accuracy":0.0048948815,"title":"Some+nibbles+at+the+Hillside+Bistro"}
{"id":9544133216,"url":"http://farm3.staticflickr.com/2819/9544133216_89cda64d2f.jpg","path":"8ce/a27/8cea27b7e52e47d745532428b323c.jpg","date":"2013-06-30","year":2013,"month":6,"lon":-117.03896,"lat":49.061813,"tags":"bridal+lake,british+columbia,kootenay+pass,mountain+pass,selkirk+mountains","S2CellId":"8769700000000000","result":7857,"accuracy":0.12932861,"title":"Bridal+Lake","description":"Kootenay+Pass%2C+British+Columbia"}
{"id":3783462205,"url":"http://farm4.staticflickr.com/3557/3783462205_2f62fa7e8c.jpg","path":"28f/8bd/28f8bd90d9a13319baf5ccaeb4da9a.jpg","date":"2009-06-22","year":2009,"month":6,"lon":-119.23808,"lat":49.152298,"tags":"burrowing+owl+winery,osoyoos,raw","S2CellId":"876a400000000000","result":7859,"accuracy":0.24258493,"title":"Burrowing+Owl+Hotel"}
{"id":210683351,"url":"http://farm1.staticflickr.com/74/210683351_92ac1a3031.jpg","path":"efa/645/efa6459e5127f34934e8a0a92a704e6b.jpg","date":"2005-08-07","year":2005,"month":8,"lon":-119.53271,"lat":50.905914,"tags":"british+columbia,cabin,day,lake,outside,summer,sunlight,sushwap","S2CellId":"876ac00000000000","result":7860,"accuracy":0.036112834,"title":"The+Cabin"}
{"id":5970442775,"url":"http://farm7.staticflickr.com/6017/5970442775_5fcbda6bb0.jpg","path":"2e8/7bc/2e87bceae70dc9ae35331e2a909dbd.jpg","date":"2011-07-23","year":2011,"month":7,"lon":-119.68315,"lat":48.13123,"tags":"brewster,national+radio+astronomy+observatory,telescope,very+large+baseline+array,washington","S2CellId":"8717000000000000","result":7728,"accuracy":0.02192361,"title":"Approach+from+Monse+River+Road"}
{"id":3136822327,"url":"http://farm4.staticflickr.com/3236/3136822327_76df9ccb45.jpg","path":"50d/1ef/50d1ef8d5e7490d7922811749e5fb339.jpg","date":"2008-12-25","year":2008,"month":12,"lon":-119.56195,"lat":49.47273,"tags":"2008,christmas,dog,lookslikeanewok,missy","S2CellId":"8819af0000000000","result":8205,"accuracy":0.015666569,"title":"Christmas+2008"}
{"id":8069113852,"url":"http://farm9.staticflickr.com/8312/8069113852_850a344eb4.jpg","path":"e28/aaf/e28aafb5debb6c6b6adaa5dfb5ce7bad.jpg","date":"2012-10-02","year":2012,"month":10,"lon":-119.2445,"lat":50.0585,"tags":"-al,alike,attribution,attribution-noncommercialshare,cc,commons,creative,ncsa,smith","S2CellId":"5140000000000000","result":5964,"accuracy":0.14286178,"title":"Autumn+2012","description":"Fly+fishing%2C"}
{"id":618440332,"url":"http://farm2.staticflickr.com/1193/618440332_19fd13653e.jpg","path":"b1d/5f0/b1d5f0e7ee3e24a5b6768d2a5646cd2d.jpg","date":"2007-06-24","year":2007,"month":6,"lon":-118.06303,"lat":48.60976,"tags":"geocaching,nature,scenic,washington","S2CellId":"4716440000000000","result":3207,"accuracy":0.013932867,"title":"St+Pauls+Mission","description":"St.+Paul%27s+Mission"}
{"id":9381498266,"url":"http://farm4.staticflickr.com/3806/9381498266_5d118d1dc8.jpg","path":"db9/348/db9348708efe33d196bf28e4e8d27bd.jpg","date":"2013-07-01","year":2013,"month":7,"lon":-119.43632,"lat":50.85516,"tags":"ceiling,chimney,inside","S2CellId":"4716440000000000","result":3207,"accuracy":0.007072189,"title":"130713-28","description":"Old+church+at+Notch+Hill%2C+British+Columbia"}
{"id":4969205022,"url":"http://farm5.staticflickr.com/4109/4969205022_721eb47bfc.jpg","path":"18d/c4b/18dc4b62be9d15ef4b15ba0d04b95cb.jpg","date":"2010-08-22","year":2010,"month":8,"lon":-119.58659,"lat":49.836475,"tags":"charles+zuckermann,glowbal+collection,glowbal+group,kelowna,mission+hill,okanagan+valley","S2CellId":"89c2588f00000000","result":8969,"accuracy":0.07703716,"title":"Mission+Hill+Winery+8"}
{"id":9068002719,"url":"http://farm3.staticflickr.com/2858/9068002719_61e7212b0c.jpg","path":"264/7b6/2647b6c9499f334a8ef7fbab568ccd5.jpg","date":"2013-06-09","year":2013,"month":6,"lon":-119.59546,"lat":49.503723,"tags":"british+columbia,penticton","S2CellId":"5483000000000000","result":6096,"accuracy":0.16188413,"title":"Penticton%2C+British+Columbia"}
{"id":2399792046,"url":"http://farm3.staticflickr.com/2335/2399792046_a8cb27ae20.jpg","path":"3e7/282/3e7282212f73bed725e9b886e0b75473.jpg","date":"2007-06-12","year":2007,"month":6,"lon":-117.09656,"lat":48.19828,"tags":"newport,pend+orielle,washington,wild+flowers+newport+pend+orielle+washington+wild+flowers","S2CellId":"54bf400000000000","result":6299,"accuracy":0.058220338,"title":"HPIM0043","description":"a+different+yellow+one."}
{"id":6905570806,"url":"http://farm8.staticflickr.com/7083/6905570806_b013c32f68.jpg","path":"77e/889/77e8892393b68670c11d52905bb136c1.jpg","date":"2012-04-06","year":2012,"month":4,"lon":-119.54328,"lat":49.193806,"tags":"instagram+app,iphoneography,normal,square,square+format","S2CellId":"12a0400000000000","result":674,"accuracy":0.031536773,"title":"Can%27t+seem+to+get+%40jakedevine_+out+of+the+tub.+%23vacation+%23okanagan"}
{"id":5352387211,"url":"http://farm6.staticflickr.com/5123/5352387211_672935b775.jpg","path":"837/76b/83776b15eec7959d479125482282784.jpg","date":"2006-01-01","year":2006,"month":1,"lon":-117.53174,"lat":49.42705,"tags":"%27heli+boarding%27,%27heli+skiing%27,%27powder+skiing%27,adventure+heli+skiing,adventure+skiing,heliski,total,total+heliski","S2CellId":"8f4c400000000000","result":9516,"accuracy":0.043387894,"title":"CIMG0295"}
{"id":7484739088,"url":"http://farm9.staticflickr.com/8164/7484739088_5843e32771.jpg","path":"9a9/e39/9a9e392ec5d422e242a7bfe728ce52a.jpg","date":"2012-06-19","year":2012,"month":6,"lon":-119.44968,"lat":49.03011,"tags":"banff,bicycle,cf,cystic+fibrosis,gearup4cf,vancouver","S2CellId":"47fc400000000000","result":4735,"accuracy":0.15151277,"title":"DSD_8857.jpg"}
{"id":3736592760,"url":"http://farm4.staticflickr.com/3424/3736592760_9a4b1b7ffb.jpg","path":"367/c16/367c1698b44697b4db8a3b6bbf59585.jpg","date":"2009-07-02","year":2009,"month":7,"lon":-119.57831,"lat":49.438286,"tags":"british+columbia,canada,d40,nikon,penticton","S2CellId":"5483000000000000","result":6096,"accuracy":0.17792591,"title":"Skaha+Homes"}
{"id":6039257379,"url":"http://farm7.staticflickr.com/6127/6039257379_003d4dc940.jpg","path":"663/cdd/663cdd28305d872da14f46d07264569b.jpg","date":"2011-06-30","year":2011,"month":6,"lon":-119.57068,"lat":49.85585,"tags":"%23%5Cokanagan%5Cp6305898_im.jpg,british+columbia,can,canada,im,jpg,kelowna+west,okanagan,p6305898","S2CellId":"809bc00000000000","result":7128,"accuracy":0.15155652,"title":"P6305898_im"}
{"id":4275902084,"url":"http://farm3.staticflickr.com/2713/4275902084_aa9ec4f63c.jpg","path":"625/767/6257674a5d848c3c8694d2528d7ff66.jpg","date":"2010-01-14","year":2010,"month":1,"lon":-119.61302,"lat":49.501274,"tags":"af-s+nikkor+16-85mm+f%2F3.5-5.6g+ed+vr,british+columbia,canada,d90,nikon,okanagan,penticton","S2CellId":"549a400000000000","result":6282,"accuracy":0.040367816,"title":"Mossy+Stone","description":"On+the+banks+of+the+Okanagan+River+Channel."}
{"id":716663861,"url":"http://farm2.staticflickr.com/1025/716663861_a5f76cff3a.jpg","path":"cdd/0a7/cdd0a7d3ce5d54f0206d32d4d95edc5.jpg","date":"2007-06-30","year":2007,"month":6,"lon":-119.27204,"lat":50.235126,"tags":"kanada,sommer,vernon","S2CellId":"808fb7c000000000","result":7059,"accuracy":0.19300313,"title":"DSC_9145"}
{"id":970099531,"url":"http://farm2.staticflickr.com/1171/970099531_0fe1bf188d.jpg","path":"c9e/d3c/c9ed3c80ce687a5e2cc242a4657b9e49.jpg","date":"2005-07-22","year":2005,"month":7,"lon":-119.57268,"lat":49.41411,"tags":"blasted+church,july,okanagan","S2CellId":"5483000000000000","result":6096,"accuracy":0.46734646,"title":"warcode+%26+amy+enjoying+the+view"}
{"id":3096741809,"url":"http://farm4.staticflickr.com/3277/3096741809_ae682fde96.jpg","path":"1f2/37b/1f237b38fc471773626c81967e2b9f.jpg","date":"2008-10-09","year":2008,"month":10,"lon":-117.790405,"lat":50.501255,"tags":"2008,bc,british+columbia,canada,october","S2CellId":"5470000000000000","result":6094,"accuracy":0.020112872,"title":"IMG_1494"}
{"id":7690860648,"url":"http://farm9.staticflickr.com/8026/7690860648_200ebee311.jpg","path":"b41/410/b414102e5d636abe63ce8cdea58230.jpg","date":"2012-07-15","year":2012,"month":7,"lon":-117.632675,"lat":48.528202,"tags":"stevens+county,wa,washington,waterfall","S2CellId":"5370c00000000000","result":6047,"accuracy":0.07083112,"title":"Crystal+Falls","description":"Stevens+County%2C+Washington"}
{"id":3097455088,"url":"http://farm4.staticflickr.com/3050/3097455088_621b80047d.jpg","path":"c32/8f9/c328f94a8405f96f6233682b38c8fbb.jpg","date":"2008-12-06","year":2008,"month":12,"lon":-118.07559,"lat":50.86228,"tags":"2008,abstract,bc,british+columbia,canada,december,night,revelstoke,snow","S2CellId":"883b500000000000","result":8352,"accuracy":0.08645423,"title":"PC060094"}
{"id":4882773592,"url":"http://farm5.staticflickr.com/4094/4882773592_f96ecae719.jpg","path":"b35/258/b352587236a2d68733c342ab99fd8e.jpg","date":"2010-08-09","year":2010,"month":8,"lon":-117.26686,"lat":49.492046,"tags":"bc,canada,giant,howies,love+me+love+my+bike,nelson,reignx,shasta","S2CellId":"54bfc00000000000","result":6300,"accuracy":0.04895907,"title":"Push+Ups","description":"Pushing+up+the+trail%2C+Nelson+BC.+Photo+taken+by+one-time-Canadian-national-MTB-champeen+%3Ca+href%3D%22https%3A%2F%2Ftwitter.com%2Ftheforestdesign%22+rel%3D%22nofollow%22%3E%40theforestdesign%3C%2Fa%3E.+Make+no+mistake+madam%2C+he+loves+nothing+better+than+putting+people+in+the+pain+cave.%0A%0AObviously%2C+the+photo+doesn%27t+do+justice+to+the+monster+gradient+%3B%29%0A%0AIn+truth%2C+I+was+on+my+chinstrap+going+up.+But+I%27ve+been+ill+most+of+this+year.+So+that%27s+made+me+mightily+unfit.+And+I+obviously+SHREDDED+the+downhill+%3A%29"}
{"id":3976706302,"url":"http://farm3.staticflickr.com/2582/3976706302_b2ae4009b2.jpg","path":"a55/27c/a5527c2587d99ca848c68524d31080.jpg","date":"2009-08-11","year":2009,"month":8,"lon":-119.47168,"lat":49.87539,"tags":"canada,canon30d,kelowna,scott+pullan,snake","S2CellId":"89c6c62b00000000","result":9150,"accuracy":0.03136869,"title":"It+Was+Adam+All+Along","description":"I+actually+kind+of+like+how+the+focus+point+isn%27t+actually+on+the+snake%27s+head.++And+yes%2C+I+have+a+digital+camera.++What.%0A%0A%0AKelowna%2C+Canada%0A%28Scott%27s+House%29"}
{"id":330463281,"url":"http://farm1.staticflickr.com/158/330463281_f08108ea24.jpg","path":"f04/6de/f046de6ed9ff8fe8f0287df4978b10.jpg","date":"2006-12-22","year":2006,"month":12,"lon":-118.93678,"lat":49.73591,"tags":"autostitch,big+white,british+columbia,canada,clouds,kelowna,light,panorama,ridge+rocket,skiers,skiing,sky,snow,snow+ghost,snowboarders,snowboarding","S2CellId":"45c4000000000000","result":2753,"accuracy":0.116373785,"title":"Panorama+at+top+of+the+Snow+Ghost+Express","description":"A+Panorama+made+with+%3Ca+href%3D%22http%3A%2F%2Fwww.cs.ubc.ca%2F%7Embrown%2Fautostitch%2Fautostitch.html%22%3EAutoStitch%3C%2Fa%3E+.+Photos+taken+at+the+top+of+the+Snow+Ghost+Express+at+Big+White+Ski+Resort+in+B.C.+Canada."}
{"id":3843738135,"url":"http://farm3.staticflickr.com/2451/3843738135_c0a4506ae0.jpg","path":"956/bf7/956bf722e12aa29466e866bdb4533b9.jpg","date":"2009-08-21","year":2009,"month":8,"lon":-117.29661,"lat":49.489902,"tags":"raw","S2CellId":"8085874300000000","result":6973,"accuracy":0.0031817127,"title":"IMG_3001"}
{"id":2515878892,"url":"http://farm4.staticflickr.com/3238/2515878892_bd8aeec439.jpg","path":"b1b/476/b1b476b6779b85d7eaf5746cb8a25de2.jpg","date":"2008-05-18","year":2008,"month":5,"lon":-119.574615,"lat":49.51508,"tags":"munsonmountain,penticton","S2CellId":"6d6dc00000000000","result":6853,"accuracy":0.04191784,"title":"Desert+plus+green"}
{"id":3735720159,"url":"http://farm3.staticflickr.com/2440/3735720159_6aa0d7aa36.jpg","path":"bca/a15/bcaa15dfda9e37ec2fc17bf3677bd022.jpg","date":"2009-07-01","year":2009,"month":7,"lon":-119.59682,"lat":49.503284,"tags":"british+columbia,canada,penticton","S2CellId":"5496400000000000","result":6277,"accuracy":0.22939974,"title":"Trimaran"}
{"id":4241324827,"url":"http://farm5.staticflickr.com/4070/4241324827_30e933f085.jpg","path":"bce/f79/bcef79efd4d3191fac29cda6761a89b5.jpg","date":"2009-07-18","year":2009,"month":7,"lon":-119.02219,"lat":50.985935,"tags":"at%26t,bars,lake,mountains,trees","S2CellId":"5367000000000000","result":6044,"accuracy":0.19384897,"title":"More+Bars+in+More+Places%3F"}
{"id":4994817774,"url":"http://farm5.staticflickr.com/4144/4994817774_91d917d782.jpg","path":"1a4/653/1a4653c24f7c9a26bef17abf51b14d.jpg","date":"2010-09-01","year":2010,"month":9,"lon":-119.34989,"lat":50.781384,"tags":"ford,ford+edsel,old+cars,rusty+cars,tgam+photo+desk+transportation,vintage+cars,white+post+auto+museum","S2CellId":"536c000000000000","result":6045,"accuracy":0.018972501,"title":"White+Post+Auto+Museum+somehwere+near+Salmon+Arm%2C+BC"}
{"id":7420550566,"url":"http://farm9.staticflickr.com/8156/7420550566_c72785bf4b.jpg","path":"2ce/ba7/2ceba7fd013e44a5b0c51554c48631.jpg","date":"2012-06-21","year":2012,"month":6,"lon":-117.743225,"lat":48.29964,"tags":"department+of+natural+resources,dnr,firefighter,firefighter+guard++school,wildfire","S2CellId":"4170000000000000","result":2739,"accuracy":0.52965415,"title":"Wildland+Firefighting+Guard+School","description":"The+firefighters+are+learning+how+topography%2C+fuels%2C+and+weather+affect+the+spread+of+wildfire%2C+how+to+properly+use+water+pumps+and+hand+tools%2C+and+how+to+deploy+a+fire+shelter"}
{"id":3829866561,"url":"http://farm3.staticflickr.com/2519/3829866561_fcc5f23229.jpg","path":"dcf/ada/dcfada3f93ad8eb0a522a75ce19f0.jpg","date":"2009-08-10","year":2009,"month":8,"lon":-119.39743,"lat":49.941303,"tags":"gc40,general+council,united+church+of+canada","S2CellId":"415c000000000000","result":2738,"accuracy":0.07850589,"title":"General+Council+40+%282009%29","description":"General+Council+40%0AThe+United+Church+of+Canada%0AAugust+9-15%2C+2009%0AKelowna%2C+BC"}
{"id":3736490760,"url":"http://farm3.staticflickr.com/2615/3736490760_d5a6ea78ac.jpg","path":"19c/3c6/19c3c6981e772a25155095bd2b4b3598.jpg","date":"2009-06-30","year":2009,"month":6,"lon":-119.54461,"lat":49.50658,"tags":"af-s+nikkor+55-200mm+f%2F4-5.6g+ed+vr,british+columbia,campbell+mountain,canada,long+exposure,penticton","S2CellId":"537dc00000000000","result":6064,"accuracy":0.24375452,"title":"Skaha+Lake%2FPenticton+South","description":"10s."}
{"id":8426651870,"url":"http://farm9.staticflickr.com/8500/8426651870_9773571485.jpg","path":"b09/6c7/b096c7919161ef5a715fe34e39f57bb.jpg","date":"2013-01-20","year":2013,"month":1,"lon":-119.75228,"lat":48.556442,"tags":"birds+of+washington,washington+state,winter+birding","S2CellId":"88d9300000000000","result":8584,"accuracy":0.03113563,"title":"01202013+242a+White-winged+Crossbill","description":"It+was+very+interesting+watching+these+birds+%27clip%27+a+cone+and+then+carry+it+to+a+perch+to+strip+the+seeds+out.++Once+done%2C+%27plunk%27+went+the+released%2Femptied+cone+and+the+bird+would+go+cut+another+one+loose+to+start+all+over+again."}
{"id":7168598304,"url":"http://farm6.staticflickr.com/5240/7168598304_d0172c40ec.jpg","path":"a4b/a26/a4ba26440e7632e46375f735e1a1930.jpg","date":"2009-06-19","year":2009,"month":6,"lon":-118.10131,"lat":49.871185,"tags":"britishcolumbia,canada,dlux4,kootenays,leica","S2CellId":"5470000000000000","result":6094,"accuracy":0.25970244,"title":"L1030233"}
{"id":4898918067,"url":"http://farm5.staticflickr.com/4076/4898918067_b4a4dc95b9.jpg","path":"bba/ef2/bbaef22e52ccb65148767564e359428.jpg","date":"2010-08-06","year":2010,"month":8,"lon":-119.45915,"lat":49.028416,"tags":"bc,britishcolumbia,canada,okanaganvalley,osoyoos,osoyooslake","S2CellId":"0d36100000000000","result":308,"accuracy":0.118527964,"title":"View+of+Osoyoos+Lake+from+our+Hotel+Balcony","description":"I+spent+a+lot+of+time+growing+up+at+this+lake.++I+just+love+the+Okanagan+Valley."}
{"id":716689655,"url":"http://farm2.staticflickr.com/1139/716689655_26c87ffbee.jpg","path":"f3d/c54/f3dc54f3fa58326846ac29c314b2f1.jpg","date":"2007-07-02","year":2007,"month":7,"lon":-119.27204,"lat":50.235126,"tags":"kanada,sommer,vernon","S2CellId":"80d9510000000000","result":7277,"accuracy":0.19218987,"title":"DSC_9371"}
{"id":7981495351,"url":"http://farm9.staticflickr.com/8457/7981495351_903a395d70.jpg","path":"70a/3b9/70a3b9f5345fda571023cacb72249b39.jpg","date":"2012-09-11","year":2012,"month":9,"lon":-118.487854,"lat":48.574223,"tags":"birding,birds,colville+national+forest,ferry+county,nature,republic+washington,sherman+pass,snow+peak,snow+peak+cabin,wildlife","S2CellId":"534e400000000000","result":6028,"accuracy":0.055112306,"title":"Flicker","description":"Taken+at+Snow+Peak+near+Sherman+Pass.+Closest+town%3A+Republic%2C+WA.%0ASeptember+2012"}
{"id":3390718926,"url":"http://farm4.staticflickr.com/3615/3390718926_25ce5689eb.jpg","path":"b0d/66f/b0d66f8917ef4a78255f1fc15b7b6ee4.jpg","date":"2009-02-28","year":2009,"month":2,"lon":-118.11616,"lat":50.96967,"tags":"patio,revelstoke,ski,skiing,snowboard,snowboarding,travel,trip","S2CellId":"478fb00000000000","result":3691,"accuracy":0.07473,"title":"P1000526"}
{"id":6713410927,"url":"http://farm8.staticflickr.com/7009/6713410927_f0672d847a.jpg","path":"e2e/cb2/e2ecb2ead4a9e389afe5d74a4fcf749e.jpg","date":"2011-10-29","year":2011,"month":10,"lon":-118.773796,"lat":48.648956,"tags":"dude+ranch,k+diamond+k,lodge,north+cascades","S2CellId":"8769700000000000","result":7857,"accuracy":0.04417678,"title":"K+Diamond+K+Lodge+House","description":"Steve+and+June+Konz+%E2%80%93+and+their+family+%E2%80%93+built+this+rustic+lodge%2C+made+from+logs+cut+and+peeled+on+the+ranch%E2%80%99s+18%2C000-acre+spread.++Image+copyright+%3Ca+href%3D%22http%3A%2F%2Fwww.amandacastleman.com%22+rel%3D%22nofollow%22%3Ewww.amandacastleman.com%3C%2Fa%3E+%E2%80%93+please+email+for+rates."}
{"id":5617485433,"url":"http://farm6.staticflickr.com/5301/5617485433_459da80aba.jpg","path":"d4e/822/d4e8224cb049f32557fda3e0fd9f7dd1.jpg","date":"2008-08-02","year":2008,"month":8,"lon":-118.19641,"lat":48.422592,"tags":"clouds,lake,roosevelt,sky,sunny,trees,washington","S2CellId":"5363000000000000","result":6042,"accuracy":0.050962754,"title":"Beautiful+Day","description":"Sun+looking+down+over+a+hill+and+lake.+Taken+at+Lake+Roosevelt+in+eastern+Washington."}
{"id":5746859967,"url":"http://farm4.staticflickr.com/3079/5746859967_ae9d6a836d.jpg","path":"8ca/b7c/8cab7c953734eb6fc2297ece993f4ba.jpg","date":"2011-04-29","year":2011,"month":4,"lon":-117.408,"lat":48.68512,"tags":"flowers","S2CellId":"6ad642a400000000","result":6620,"accuracy":0.012686579,"title":"flowers-4419","description":"flowerss"}
{"id":2661578343,"url":"http://farm4.staticflickr.com/3018/2661578343_6a00344ba8.jpg","path":"598/e3b/598e3b9deaa89dd3fde9312a4771181.jpg","date":"2008-07-03","year":2008,"month":7,"lon":-117.549416,"lat":49.113995,"tags":"tottenprimewedding","S2CellId":"4cb4b00000000000","result":5854,"accuracy":0.015924295,"title":"DSC_3714"}
{"id":4044631175,"url":"http://farm3.staticflickr.com/2557/4044631175_75d6ae5234.jpg","path":"e76/318/e76318db648f7637d99e8dff6ede3f9c.jpg","date":"2009-10-23","year":2009,"month":10,"lon":-117.66177,"lat":49.33083,"tags":"bridge,castlegar,columbia+river,cpr+bridge,waldie+island","S2CellId":"5483000000000000","result":6096,"accuracy":0.04116257,"title":"Many+Little+Wheels","description":"This+part+of+the+bridge+used+to+turn+to+allow+sailing+boats+and+other+taller+vessels+through."}
{"id":6334887740,"url":"http://farm7.staticflickr.com/6057/6334887740_852a971fcf.jpg","path":"b61/8ed/b618ed5e0abacbe8e961830836dbcec.jpg","date":"2011-11-07","year":2011,"month":11,"lon":-117.65418,"lat":49.29625,"tags":"37+ford,bomber+girl,canadian,hand+painted,hotrod,kelly%27s+kustom+pinstriping,maple+leaf,mountie,nose+art,pinup","S2CellId":"808fcc9000000000","result":7071,"accuracy":0.007951462,"title":"Blonde+Mountie+Pinup","description":"Free+hand+paint++by+Kelly%3A+%3Ca+href%3D%22http%3A%2F%2Fwww.kellyskustoms.ca%22+rel%3D%22nofollow%22%3Ewww.kellyskustoms.ca%3C%2Fa%3E"}
{"id":768330921,"url":"http://farm2.staticflickr.com/1309/768330921_ce3ca6e646.jpg","path":"925/43c/92543ce417dd72ede36863aaa9d3d68.jpg","date":"2007-07-08","year":2007,"month":7,"lon":-119.10175,"lat":50.280785,"tags":"mountain+biking,silver+star+trip,travel","S2CellId":"53f0000000000000","result":6090,"accuracy":0.23493032,"title":"Riders","description":"A+pair+of+riders+go+past+us+on+the+trail."}
{"id":5741571239,"url":"http://farm6.staticflickr.com/5309/5741571239_2221eb1546.jpg","path":"5d6/0d0/5d60d0d18fb5d65277f6c4da7d117e2c.jpg","date":"2011-05-21","year":2011,"month":5,"lon":-119.38754,"lat":49.890873,"tags":"amusement+parks,dusk,kelowna","S2CellId":"87e5000000000000","result":8030,"accuracy":0.008590674,"title":"I+Can%27t+Decide%2C+May+Days%2C+Kelowna"}
{"id":351348722,"url":"http://farm1.staticflickr.com/128/351348722_0b9d15382c.jpg","path":"71d/6a6/71d6a671d89a47e28c438ed92d17.jpg","date":"2007-01-04","year":2007,"month":1,"lon":-118.92571,"lat":49.721317,"tags":"synctomyappletv","S2CellId":"8814b00000000000","result":8185,"accuracy":0.010723818,"title":"DSC02346.JPG"}
{"id":146014490,"url":"http://farm1.staticflickr.com/44/146014490_69d45c7c86.jpg","path":"4a4/da1/4a4da103cd0db3f2aee8f7532976ca.jpg","date":"2006-05-13","year":2006,"month":5,"lon":-117.906944,"lat":48.550053,"tags":"artistic,flowers,forest,nature","S2CellId":"549a400000000000","result":6282,"accuracy":0.01145531,"title":"Flowers","description":"Another+of+my+attempts+to+capture+the+beauty+of+flowers."}
{"id":4442762482,"url":"http://farm5.staticflickr.com/4031/4442762482_96d1872cf9.jpg","path":"7e6/778/7e677898f405689a68bca4d2aba65.jpg","date":"2010-03-17","year":2010,"month":3,"lon":-119.56149,"lat":49.489323,"tags":"365%3A+the+2010+edition,365%3A2010,af+nikkor+50mm+f%2F1.8d,british+columbia,canada,d90,nikon,penticton","S2CellId":"94cc400000000000","result":9693,"accuracy":0.0019021794,"title":"365%3A%3A76+-+A+Star+Called+Henry","description":"March+17%2C+2010.%0A%0ASo+I+totally+spaced+out+on+St.+Paddy%27s+Day.+Didn%27t+think+to+put+together+any+sort+of+theme+shot+like+some+of+you.+So+what+I+have+instead+is+a+shot+of+flowers+growing+in+the+dark%2C+and+a+great+Irish+book+by+a+great+Irish+author+about+real+life+Irish+events.+Seriously%2C+read+this+book+if+you+haven%27t.+%27A+Star+Called+Henry%27+by+Roddy+Doyle.%0A%0AHand-held%2C+available+light.%0AExposure%3A++0.033+sec+%281%2F30%29%0AAperture%3A+f%2F1.8%0AFocal+Length%3A+50+mm"}
{"id":9068030211,"url":"http://farm6.staticflickr.com/5477/9068030211_3c7caeda0f.jpg","path":"b37/fdc/b37fdc4a59641aa091e36eaf596d94ab.jpg","date":"2013-06-09","year":2013,"month":6,"lon":-119.59528,"lat":49.504463,"tags":"british+columbia,penticton","S2CellId":"8099900000000000","result":7112,"accuracy":0.16277339,"title":"Penticton%2C+British+Columbia"}
{"id":7977776602,"url":"http://farm9.staticflickr.com/8295/7977776602_24021fed33.jpg","path":"642/3ad/6423ad70ad6622b47919bed610b2c7.jpg","date":"2012-09-10","year":2012,"month":9,"lon":-119.73298,"lat":49.805424,"tags":"arctic+cat,b.c.,camping,fire,garnet+lake,okanagan,peachland,peachland+fire,peachland+wildfire,prowler,utv,wildfire","S2CellId":"8099900000000000","result":7112,"accuracy":0.030825261,"title":"The+day+after+Peachland+burned","description":"Various+shots+of+Trepanier+Valley+and+Ponderossa+taken+from+the+Connector%28Hwy+97C%29.++%0AThe+ghostly+aftermath.+Nice+work+by+the+Wildcat+helicopter+pilots%21"}
{"id":8448462201,"url":"http://farm9.staticflickr.com/8377/8448462201_645a50e5b0.jpg","path":"c25/4b1/c254b10814ee9cb469be1114f70fa67.jpg","date":"2013-02-05","year":2013,"month":2,"lon":-117.83606,"lat":48.360516,"tags":"addy,bald+eagle,deer,eagle,eastern+washington,nature,road+kill,snow,spokane,stevens+county,white+tail+deer,wildlife,winter","S2CellId":"883cae5000000000","result":8363,"accuracy":0.03145093,"title":"Bald+Eagle+on+deer+carcass","description":"Addy%2C+WA%0AFebruary+2013"}
{"id":2109309976,"url":"http://farm3.staticflickr.com/2407/2109309976_bf5b77f1e2.jpg","path":"aef/506/aef50612b39a9901cfe18f18b552f9a.jpg","date":"2004-04-11","year":2004,"month":4,"lon":-119.48242,"lat":49.914845,"tags":"2004,april,british+columbia,geoff+sowrey,kelowna","S2CellId":"534e400000000000","result":6028,"accuracy":0.13537264,"title":"My+friends+and+I+in+Kelowna"}
{"id":10494749525,"url":"http://farm6.staticflickr.com/5487/10494749525_81ee117318.jpg","path":"92f/8b5/92f8b5a82a7daaa1c11941b696e02bc5.jpg","date":"2013-10-25","year":2013,"month":10,"lon":-119.50666,"lat":49.89763,"tags":"art,art+gala,canadian+mental+health+association,chma%E2%80%99s+artworks+studio,kelowna,mental+health,michelle+stilwell,premier+christy+clark","S2CellId":"8875000000000000","result":8503,"accuracy":0.1587078,"title":"Canadian+Mental+Health+Association+Art+Gala","description":"Premier+Christy+Clark+and+Parliamentary+Secretary+for+Healthy+Living+Michelle+Stilwell+attended+a+benefit+for++the+CHMA%E2%80%99s+ArtWorks+Studio+in+Kelowna%2C+a+safe+and+welcoming+space+for+people+experiencing+mental+health+concerns."}
{"id":253941673,"url":"http://farm1.staticflickr.com/98/253941673_3b2439889e.jpg","path":"30d/c67/30dc67c786aa8c3086f2cf38c6f76b6.jpg","date":"2006-08-26","year":2006,"month":8,"lon":-118.09,"lat":50.833164,"tags":"2006,bc,british+columbia,canada,kanada","S2CellId":"477ac00000000000","result":3438,"accuracy":0.04814631,"title":"Kanada_06_394_Blanket+Creek"}
{"id":3897879219,"url":"http://farm4.staticflickr.com/3465/3897879219_d3d4e48a2a.jpg","path":"71c/3e7/71c3e7af2c54bf37232425e84f9b5d1.jpg","date":"2009-09-06","year":2009,"month":9,"lon":-117.294,"lat":49.491993,"tags":"raw","S2CellId":"80dbfc0000000000","result":7323,"accuracy":0.020588966,"title":"IMG_3326"}
{"id":4337420810,"url":"http://farm3.staticflickr.com/2739/4337420810_dbe7b05cf8.jpg","path":"254/2ff/2542ffe407ff55346a2abe136c6c481.jpg","date":"2010-02-07","year":2010,"month":2,"lon":-119.81193,"lat":49.668903,"tags":"af-s+nikkor+16-85mm+f%2F3.5-5.6g+ed+vr,british+columbia,canada,d90,nikon,okanagan,summerland","S2CellId":"4659400000000000","result":2884,"accuracy":0.005347235,"title":"The+Tree","description":"Exposure%3A++24.7%0AAperture%3A+f%2F8.0%0AFocal+Length%3A+58+mm"}
{"id":6039877406,"url":"http://farm7.staticflickr.com/6190/6039877406_cc37918770.jpg","path":"8b1/f0d/8b1f0d5d5498a532085a40d922fbe5.jpg","date":"2011-07-01","year":2011,"month":7,"lon":-119.51648,"lat":49.92657,"tags":"%23%5Cokanagan%5Cp7014168_im.jpg,british+columbia,can,canada,im,jpg,kelowna+north,okanagan,p7014168","S2CellId":"45cc000000000000","result":2754,"accuracy":0.10451658,"title":"P7014168_im"}
{"id":4302184604,"url":"http://farm3.staticflickr.com/2751/4302184604_8905d0db5d.jpg","path":"755/f6a/755f6abd91ea679dd6129c2839a58189.jpg","date":"2010-01-24","year":2010,"month":1,"lon":-117.80178,"lat":49.077156,"tags":"133th+rossland+winter+carnival,bobsled,rossland,rossland+bobsled,rossland+winter+carnival,winter+carnival","S2CellId":"56c8c00000000000","result":6320,"accuracy":0.055531066,"title":"P1246962"}
{"id":4644296504,"url":"http://farm4.staticflickr.com/3330/4644296504_2390f78d1e.jpg","path":"4b5/41e/4b541e3eb25c876bf7aab613fabf3bf8.jpg","date":"2010-05-26","year":2010,"month":5,"lon":-119.28191,"lat":49.882908,"tags":"joe+rich,kelowna,okanagan","S2CellId":"47a3400000000000","result":3877,"accuracy":0.03975266,"title":"Shirt+stick","description":"DSC_0332-1"}
{"id":5346674291,"url":"http://farm6.staticflickr.com/5163/5346674291_a841932fa3.jpg","path":"bf6/a6b/bf6a6b344193ebba67812c6391bd5a2.jpg","date":"2010-12-28","year":2010,"month":12,"lon":-119.21059,"lat":49.984787,"tags":"black+and+white,british+columbia,canada,cross+country,okanagan,shadows,ski,snow,sun,tracks,trees,winter","S2CellId":"5377000000000000","result":6058,"accuracy":0.08530822,"title":"Make+your+own+path...","description":"Cross+country+skiing+on+Postill+Lake+near+Kelowna%2C+British+Columbia+Canada"}
{"id":6192041889,"url":"http://farm7.staticflickr.com/6134/6192041889_010802e439.jpg","path":"d27/24c/d2724c9d449c6ce62b6b22ff3f47d92.jpg","date":"2005-01-08","year":2005,"month":1,"lon":-119.40027,"lat":50.078403,"tags":"4-laning,bc,bchwy97,britishcolumbia,country,hwy97,lake,ministryoftransportationandinfrastructure,okanagan,oyama,photo,tranbc,vernon,westbank,winfield,wood","S2CellId":"534e400000000000","result":6028,"accuracy":0.067437336,"title":"Progress+Being+Made+from+Winfield+to+Oyama","description":"The+Ministry+of+Transportation+and+Infrastructure+is+making+significant+progress+on+the+project+to+upgrade+Highway+97+to+four+lanes+between+Winfield+and+Oyama+in+the+District+Of+Lake+Country%2C+B.C.%0A%0AThis+new+alignment+will+remove+highway+traffic+from+the+last+two+lane+section+of+Highway+97+between+Westbank+and+Vernon.+The+new+9+km+alignment+will+be+west+of+the+existing+highway+above+Wood+Lake.%0A%0A%3Ca+href%3D%22http%3A%2F%2Fwww.tranbc.ca%22+rel%3D%22nofollow%22%3Ewww.tranbc.ca%3C%2Fa%3E"}
{"id":4887525416,"url":"http://farm5.staticflickr.com/4098/4887525416_ce76eff43d.jpg","path":"7f9/076/7f907698fc98ac24caa8ebbc15a1c79.jpg","date":"2010-08-08","year":2010,"month":8,"lon":-117.27351,"lat":49.096672,"tags":"shambhala+2010","S2CellId":"809f000000000000","result":7130,"accuracy":0.05380567,"title":"Lit+hoop","description":"DSC_0474-1"}
{"id":433928177,"url":"http://farm1.staticflickr.com/163/433928177_e1c16a74a9.jpg","path":"e59/73b/e5973b44386accc7ef232e18a953e05.jpg","date":"2007-03-19","year":2007,"month":3,"lon":-117.36265,"lat":49.967804,"tags":"bc,holga,kootenays,lake,slocan+lake,winter","S2CellId":"5483000000000000","result":6096,"accuracy":0.098030455,"title":"Slocan+Lake+from+Highway+6","description":"Autosave-File+vom+d-lab2%2F3+der+AgfaPhoto+GmbH"}
{"id":2140517942,"url":"http://farm3.staticflickr.com/2113/2140517942_5a5563efe4.jpg","path":"284/a98/284a98624e97acf4dbe898495d2afa.jpg","date":"2007-12-25","year":2007,"month":12,"lon":-118.02029,"lat":48.600056,"tags":"apple,christmas,deer,doe,eating,snow","S2CellId":"883cae5000000000","result":8363,"accuracy":0.03376023,"title":"IMG_5853.JPG"}
{"id":4183746752,"url":"http://farm3.staticflickr.com/2599/4183746752_b6570f0b8f.jpg","path":"592/748/592748a5921ace0cffa2e744e7b17bf.jpg","date":"2009-12-13","year":2009,"month":12,"lon":-119.55758,"lat":49.489433,"tags":"af-s+nikkor+16-85mm+f%2F3.5-5.6g+ed+vr,british+columbia,canada,d90,nikon,okanagan,penticton,snow","S2CellId":"89e1400000000000","result":9290,"accuracy":0.005294002,"title":"Bridge+Over+Frozen+Waters","description":"We+finally+got+some+snow+overnight.+A+paltry+2cm.+I%27m+the+kind+of+guy+who+likes+weather+extremes.+It+should+either+dump+a+metre+or+warm+up+to+tropical+temperatures.+Enough+of+this+moderate+crap+%3B%29"}
{"id":2847901702,"url":"http://farm4.staticflickr.com/3080/2847901702_eec13e4396.jpg","path":"d6d/69a/d6d69ac48839bfd3f5d43aa957a33dc.jpg","date":"2008-08-26","year":2008,"month":8,"lon":-119.82387,"lat":49.20501,"tags":"bokeh,canada,keremeos,street,windshield","S2CellId":"8740300000000000","result":7807,"accuracy":0.08807937,"title":"080826.005","description":"Keremeos%2C+British+Columbia%2C+Canada.%0A26+August+2008."}
{"id":5916978012,"url":"http://farm7.staticflickr.com/6002/5916978012_9edb0267e2.jpg","path":"868/1f9/8681f99f96151dbf1f07dc43ef4b8d4.jpg","date":"2011-06-24","year":2011,"month":6,"lon":-119.39752,"lat":50.084244,"tags":"4-laning,bc,bchwy97,britishcolumbia,country,hwy97,lake,ministryoftransportationandinfrastructure,okanagan,oyama,photo,tranbc,vernon,westbank,winfield,wood","S2CellId":"534e400000000000","result":6028,"accuracy":0.14570887,"title":"Work+Continues+on+the+the+Winfield+to+Oyama+Highway+97+Project","description":"The+Ministry+of+Transportation+and+Infrastructure+is+upgrading+Highway+97+to+four+lanes+between+Winfield+and+Oyama+in+the+District+Of+Lake+Country%2C+B.C.%0A%0AThis+will+remove+the+last+two+lane+section+of+Highway+97+between+Westbank+and+Vernon.+The+new+9+km+alignment+will+be+west+of+the+existing+highway+above+Wood+Lake.%0A%0A%3Ca+href%3D%22http%3A%2F%2Fwww.tranbc.ca%22+rel%3D%22nofollow%22%3Ewww.tranbc.ca%3C%2Fa%3E"}
{"id":265396177,"url":"http://farm1.staticflickr.com/90/265396177_5283b097cd.jpg","path":"cc5/997/cc5997f92448622cbe43e64e9db1d72.jpg","date":"2006-10-07","year":2006,"month":10,"lon":-119.63013,"lat":49.57716,"tags":"adora+estate+winery,bc,fall,folliage,okanagan,red,row,valley,vines,winery","S2CellId":"8084500000000000","result":6907,"accuracy":0.22340725}
{"id":1073523418,"url":"http://farm2.staticflickr.com/1209/1073523418_3ca13fabfd.jpg","path":"1d7/e7c/1d7e7c2b31326638e64747b5bb0165.jpg","date":"2007-08-03","year":2007,"month":8,"lon":-119.02614,"lat":50.991123,"tags":"bigdipper,constellation,longexposure,night,stars","S2CellId":"45c4000000000000","result":2753,"accuracy":0.019261817,"title":"Night+Sky","description":"You%27ll+probably+want+to+view+this+one+larger.%0A%0AI+set+the+camera+up+for+30+second+exposures+and+tried+a+few+different+lenses+and+settings.+Turns+out+30+seconds+is+short+enough+to+not+get+much+light+even+at+a+high+ISO+and+wide+open+aperture%2C+but+long+enough+to+pick+up+the+Earth%27s+rotation+depending+on+lens+width+and+angle+of+the+sky.+Stars+went+streaky+the+further+from+north+I+pointed+it.%0A%0AThis+is+one+of+the+better+results.+I%27m+glad+I+managed+to+at+least+capture+something+recognizable."}
{"id":3834594994,"url":"http://farm4.staticflickr.com/3444/3834594994_9033170a2d.jpg","path":"841/08d/84108d8211a2e4aa50a7b2ef7f40ecf6.jpg","date":"2009-08-18","year":2009,"month":8,"lon":-119.46409,"lat":49.03349,"tags":"2009,35mm,attractive,bc,beautful,blonde,britishcolumbia,canada,cross+processed,desert,editorial,expired+film,fashion,film,fiona+garden,flm,grass,green,headband,hot,hotweather,lily+%26+jae,lily+and+jae,lookbook,modeling,models,osoyoos,outside,photoassisting,photography,processed+by+specialty+color+services,styling,stylized,summer,vancouverdesigner,woman,yellow","S2CellId":"132f100000000000","result":1072,"accuracy":0.0071187657,"title":"Photo+assisting+w%2F+Fiona+Garden+for+Lily+and+Jae","description":"%3Ca+href%3D%22http%3A%2F%2Fwww.lilyandjae.com%2F%22+rel%3D%22nofollow%22%3Ewww.lilyandjae.com%2F%3C%2Fa%3E%0A%0A%3Ca+href%3D%22http%3A%2F%2Ffionagardenphotography.com%2F%22+rel%3D%22nofollow%22%3Efionagardenphotography.com%2F%3C%2Fa%3E"}
{"id":6955509113,"url":"http://farm8.staticflickr.com/7069/6955509113_81ac91e26c.jpg","path":"925/aca/925acaadaa1b51484a3231431fc8ab0.jpg","date":"2012-03-03","year":2012,"month":3,"lon":-119.58751,"lat":49.492996,"tags":"a%26s,an+tir,bc,canada,danescombe,kingdom,penticton,sca","S2CellId":"48761b3240000000","result":5320,"accuracy":0.14372309,"title":"At+An+Tir+Arts+and+Sciences+competition+2012","description":"16th+century+portrait+miniature%2C+gouache+on+vellum."}
{"id":2356434601,"url":"http://farm4.staticflickr.com/3073/2356434601_308e48d0a5.jpg","path":"99a/1bf/99a1bffa76cc4ed197e883169c0679e.jpg","date":"2008-03-23","year":2008,"month":3,"lon":-118.43262,"lat":49.03262,"tags":"fave,fave-hpm,hanspetermeyer,hanspetermeyer.ca,hpm","S2CellId":"80cd000000000000","result":7265,"accuracy":0.029459784,"title":"interior+BC"}
{"id":7417946884,"url":"http://farm9.staticflickr.com/8027/7417946884_e7ee51ef91.jpg","path":"636/58b/63658b2ef43b26f35746f7836cece18.jpg","date":"2012-06-21","year":2012,"month":6,"lon":-119.64317,"lat":48.917988,"tags":"loomis+state+forest,washington+dnr","S2CellId":"5353000000000000","result":6037,"accuracy":0.1987189,"title":"View+of+Palmer+Lake%2C+Loomis+State+Forest%2C+DNR","description":"This+photo+was+taken+from+the+road+going+to+Toats+Coulee.+In+the+back+of+the+photo+you+can+see+Palmer+Lake+nestled+in+the+valley.%0A%0APhotos+by%3A+DNR%2FDiana+Lofflin%0AJune+2012"}
{"id":2662567992,"url":"http://farm4.staticflickr.com/3245/2662567992_4f40968a75.jpg","path":"b6b/03a/b6b03a841c44478e120c8407ea8ceda.jpg","date":"2008-07-05","year":2008,"month":7,"lon":-117.549416,"lat":49.113995,"tags":"tottenprimewedding","S2CellId":"8753400000000000","result":7846,"accuracy":0.066311255,"title":"Luc"}
{"id":4759184393,"url":"http://farm5.staticflickr.com/4078/4759184393_e7d040c113.jpg","path":"e7e/b2f/e7eb2f6e3b287fa8b2c5233ee69e5ca.jpg","date":"2010-07-03","year":2010,"month":7,"lon":-119.50246,"lat":49.478107,"tags":"british+columbia,canada,d90,lost+moose+lodge,nikon,penticton,tokina+sd+11-16mm+f%2F2.8+%28if%29+dx","S2CellId":"48d5000000000000","result":5789,"accuracy":0.019854737,"title":"Shed+and+Backhoe","description":"Meh...didn%27t+even+mean+to+upload+this+one+but+it+snuck+in+there...."}
{"id":1102755370,"url":"http://farm2.staticflickr.com/1024/1102755370_20f4c799a6.jpg","path":"101/180/101180d925ed8a521a95a13bb25aa0c6.jpg","date":"2007-08-12","year":2007,"month":8,"lon":-119.49904,"lat":49.824585,"tags":"kelowna,okanagan,summer","S2CellId":"89e6500000000000","result":9380,"accuracy":0.0072468976,"title":"IMG_1751.jpg"}
{"id":3783008902,"url":"http://farm4.staticflickr.com/3484/3783008902_9f95b8dd90.jpg","path":"a85/8db/a858db886f903d926aaf707557ee619e.jpg","date":"2009-07-25","year":2009,"month":7,"lon":-118.71688,"lat":48.900036,"tags":"droplets,drops,green+leaves,leaves,water","S2CellId":"864e640000000000","result":7620,"accuracy":0.18907638,"title":"After+the+rain"}
{"id":3736532916,"url":"http://farm3.staticflickr.com/2543/3736532916_92688f68d8.jpg","path":"805/6aa/8056aaf36b9def367d889db573feed.jpg","date":"2009-06-30","year":2009,"month":6,"lon":-119.59303,"lat":49.4999,"tags":"british+columbia,canada,penticton","S2CellId":"87d5000000000000","result":7996,"accuracy":0.012618672,"title":"The+Book+Store","description":"This+is+the+best+used+book+store+I+have+ever+been+to.+Huge+selection%2C+good+prices.+Excellent+section+on+Canadian+literature.+I+have+probably+spent+over+a+grand+in+here+on+used+books+over+the+years."}
{"id":717555274,"url":"http://farm2.staticflickr.com/1423/717555274_771935a4dc.jpg","path":"136/d54/136d547a1b541ec5457c750d975d2ef.jpg","date":"2007-07-02","year":2007,"month":7,"lon":-119.27204,"lat":50.235126,"tags":"kanada,sommer,vernon","S2CellId":"536c000000000000","result":6045,"accuracy":0.016202236,"title":"DSC_9321"}
{"id":969628269,"url":"http://farm2.staticflickr.com/1333/969628269_3bd53e1d59.jpg","path":"836/68b/83668bfc2564e608115219d1ebbd071.jpg","date":"2005-07-21","year":2005,"month":7,"lon":-119.561226,"lat":49.54199,"tags":"alpaca,july,okanagan,riddle+road+retreat","S2CellId":"4790c00000000000","result":3710,"accuracy":0.020088118,"title":"the+stare"}
{"id":5087105918,"url":"http://farm5.staticflickr.com/4154/5087105918_f04a58a2b8.jpg","path":"207/8f2/2078f21c823eaae51df7a51e48e0b24.jpg","date":"2010-08-17","year":2010,"month":8,"lon":-117.96707,"lat":49.160603,"tags":"british+columbia,mountain+biking,seven+summits+trail","S2CellId":"548e400000000000","result":6158,"accuracy":0.087257616,"title":"BC+TRIP+AUG+2010+061"}
{"id":6248122224,"url":"http://farm7.staticflickr.com/6237/6248122224_b909e9c0f0.jpg","path":"aba/39f/aba39f9be1ac377a6b986f2298e2d38a.jpg","date":"2011-09-17","year":2011,"month":9,"lon":-119.558716,"lat":49.186417,"tags":"okanagan","S2CellId":"5351f00000000000","result":6036,"accuracy":0.31352007,"title":"Purple+sulphur+bacteria"}
{"id":4172248371,"url":"http://farm3.staticflickr.com/2665/4172248371_4ac196d64a.jpg","path":"2bc/fbc/2bcfbc14453135941dbaa39f87079ff.jpg","date":"2009-12-08","year":2009,"month":12,"lon":-117.74344,"lat":49.131184,"tags":"creek,frozen,hanna,hanna+creek,ice,kootenays,water","S2CellId":"8740300000000000","result":7807,"accuracy":0.6233323,"title":"Glace"}
{"id":3142856587,"url":"http://farm4.staticflickr.com/3086/3142856587_769274681e.jpg","path":"e32/5c2/e325c2d1eb82752d68dbe4f088c1a5ea.jpg","date":"2008-12-24","year":2008,"month":12,"lon":-117.91076,"lat":48.693794,"tags":"2009,celebration,children,christmas,family,friends,holiday,love,presents","S2CellId":"5363000000000000","result":6042,"accuracy":0.19301078,"title":"Christmas+2008","description":"Denim%2C+Tanner%2C+Dad"}
{"id":8289314921,"url":"http://farm9.staticflickr.com/8071/8289314921_e51362de2d.jpg","path":"734/f1a/734f1a9024887e136c21d237185f5b4.jpg","date":"2012-12-18","year":2012,"month":12,"lon":-119.571075,"lat":49.767075,"tags":"birds,kelowna,nuthatch,okanagan,okanaganlake,pygmy+nuthatch","S2CellId":"88d0a631cabb5071","result":8563,"accuracy":0.014861155,"title":"Pygmy+Nuthatch"}
{"id":4444018408,"url":"http://farm5.staticflickr.com/4048/4444018408_100cc51f35.jpg","path":"eeb/377/eeb3773e6e80287c22c832e39d136c2b.jpg","date":"2010-03-15","year":2010,"month":3,"lon":-119.558655,"lat":49.497307,"tags":"af-s+nikkor+70-300mm+f%2F4.5-5.6g+ed+vr,british+columbia,campbell+mountain,canada,d40,nikon,penticton","S2CellId":"54906d0000000000","result":6220,"accuracy":0.038113743,"title":"Downtown+Pen"}
{"id":350028922,"url":"http://farm1.staticflickr.com/147/350028922_441a2bd62c.jpg","path":"9aa/02c/9aa02cf7a3ddd6c1bef43994986983f.jpg","date":"2007-01-01","year":2007,"month":1,"lon":-119.55774,"lat":49.47554,"tags":"christmas","S2CellId":"12b6ac0000000000","result":818,"accuracy":0.003973765,"title":"Portait+of+Kelly+As+Well%21"}
{"id":3136883167,"url":"http://farm4.staticflickr.com/3229/3136883167_43d5e49386.jpg","path":"a4a/ef7/a4aef76c7d3cab773a5cab6a7b028b.jpg","date":"2008-12-25","year":2008,"month":12,"lon":-118.126495,"lat":50.968956,"tags":"2008,bc,british+columbia,canada,christmas,december,revelstoke,rmr,snowboarding","S2CellId":"5370c00000000000","result":6047,"accuracy":0.07322972,"title":"IMG_1975"}
{"id":6810798900,"url":"http://farm8.staticflickr.com/7183/6810798900_4fa4533fa6.jpg","path":"d75/fa1/d75fa131b634fa6baaad7da7f0dcc33d.jpg","date":"2010-09-05","year":2010,"month":9,"lon":-119.42137,"lat":49.87468,"tags":"bc,british+columbia,canada,granja,kelowna,kelowna+land+and+orchard,klo,okanagan","S2CellId":"3e8c000000000000","result":2626,"accuracy":0.016715273,"title":"Manzanas","description":"Kelowna+Land+and+Orchard%2C+Kelowna%2C+BC"}
{"id":7607533990,"url":"http://farm8.staticflickr.com/7107/7607533990_16f708f54f.jpg","path":"879/af5/879af54ee3cc2b047847732be681f6.jpg","date":"2012-07-19","year":2012,"month":7,"lon":-117.900665,"lat":50.518166,"tags":"al,maddie,nancy","S2CellId":"5371740000000000","result":6053,"accuracy":0.013239115,"title":"Summer+2012","description":"Travel"}
{"id":2139753273,"url":"http://farm3.staticflickr.com/2354/2139753273_213ae2807f.jpg","path":"727/b68/727b681958d74c685f5f5a75058fc6.jpg","date":"2007-12-25","year":2007,"month":12,"lon":-118.02029,"lat":48.600056,"tags":"apple,christmas,deer,doe,eating,snow","S2CellId":"8842400000000000","result":8397,"accuracy":0.007695205,"title":"IMG_5841.JPG"}
{"id":5028449236,"url":"http://farm5.staticflickr.com/4104/5028449236_df24b98bf6.jpg","path":"45c/6f9/45c6f9621bcf534c0c1628a6d1e67c.jpg","date":"2010-09-22","year":2010,"month":9,"lon":-118.01834,"lat":48.69693,"tags":"columbia+river,evans+campground,lake+roosevelt","S2CellId":"5370c00000000000","result":6047,"accuracy":0.07941618,"title":"On+the+Dock"}
{"id":2515095461,"url":"http://farm3.staticflickr.com/2153/2515095461_549f92fc60.jpg","path":"4e4/0f3/4e40f391c589469a51e6f3494b53a444.jpg","date":"2008-05-19","year":2008,"month":5,"lon":-119.654655,"lat":49.56603,"tags":"kettlevalley,summerland","S2CellId":"88d0a631cabb5071","result":8563,"accuracy":0.03145721,"title":"Kettle+Valley+Railroad+and+Orchards"}
{"id":3897867270,"url":"http://farm3.staticflickr.com/2560/3897867270_98bcc8ffd1.jpg","path":"79a/a77/79aa77ef5a6ae8e7351da17ef8ee739b.jpg","date":"2009-06-11","year":2009,"month":6,"lon":-117.29332,"lat":49.49137,"tags":"raw","S2CellId":"8893000000000000","result":8521,"accuracy":0.00329635,"title":"IMG_2304"}
{"id":3297721283,"url":"http://farm4.staticflickr.com/3510/3297721283_a4b16f3b10.jpg","path":"8de/69b/8de69b873c37b3a4d9cd9717fecd96.jpg","date":"2009-02-21","year":2009,"month":2,"lon":-117.65218,"lat":49.320675,"tags":"castlegar,island,zuckerberg","S2CellId":"880e290000000000","result":8109,"accuracy":0.022777192,"title":"Zuckerberg%27s+Roof"}
{"id":3837842595,"url":"http://farm4.staticflickr.com/3432/3837842595_7fc054be7f.jpg","path":"89c/2d3/89c2d3d02d4e95b021457125f5547aa1.jpg","date":"2009-08-19","year":2009,"month":8,"lon":-119.46409,"lat":49.03349,"tags":"2009,35mm,cross+processed,expired+film,fashion,fiona+garden,flm,lily+%26+jae,lily+and+jae,photography,processed+by+specialty+color+services","S2CellId":"56c4000000000000","result":6318,"accuracy":0.06901317,"title":"Photo+assisting+w%2F+Fiona+Garden+for+Lily+and+Jae","description":"%3Ca+href%3D%22http%3A%2F%2Fwww.lilyandjae.com%2F%22+rel%3D%22nofollow%22%3Ewww.lilyandjae.com%2F%3C%2Fa%3E%0A%0A%3Ca+href%3D%22http%3A%2F%2Ffionagardenphotography.com%2F%22+rel%3D%22nofollow%22%3Efionagardenphotography.com%2F%3C%2Fa%3E"}
{"id":2146732453,"url":"http://farm3.staticflickr.com/2214/2146732453_bd4d1e040d.jpg","path":"8fe/c47/8fec47fc5438bfb992ee13f7157d8d0.jpg","date":"2007-09-08","year":2007,"month":9,"lon":-119.890366,"lat":50.900814,"tags":"sun+peaks","S2CellId":"5353000000000000","result":6037,"accuracy":0.0626406,"title":"Up+at+Sun+Peaks"}
{"id":2515881126,"url":"http://farm3.staticflickr.com/2272/2515881126_a6d0b7f172.jpg","path":"3f9/d4d/3f9d4dfae475dd4b52a49ef7f0313061.jpg","date":"2008-05-18","year":2008,"month":5,"lon":-119.574615,"lat":49.51508,"tags":"munsonmountain,penticton","S2CellId":"88fb990000000000","result":8747,"accuracy":0.013245724,"title":"Munson+Mountain"}
{"id":8559889187,"url":"http://farm9.staticflickr.com/8099/8559889187_1b548ba185.jpg","path":"88a/f5e/88af5eddc6414e1e876f46cf6fd9c60.jpg","date":"2012-03-15","year":2012,"month":3,"lon":-119.5134,"lat":49.900826,"tags":"2013,ben+stewart,british+columbia,citizens%E2%80%99+services,citz++archive,kelowna,norm+letnick,province+of+bc,servicebc,steve+thomson","S2CellId":"87df500000000000","result":8025,"accuracy":0.059543077,"title":"New+Service+BC+Centre+opens+in+Kelowna","description":"Citizens%27+Services+and+Open+Government+Minister+Ben+Stewart%2C+Acting+Deputy+Minister+Bette-Jo+Hughes%2C+Mayor+of+Kelowna+Walter+Gray%2C+MLA+for+Kelowna-Lake+Country+Norm+Letnick%2C+MLA+for+Kelowna-Mission%2C+Steve+Thomson%2C+ServiceBC+staff+and+Executive+Director+Ron+Hinshaw+at+the+official+opening+of+the+new+integrated+ServiceBC+Centre+in+Kelowna.+%0A%0ALearn+more%3A+%3Ca+href%3D%22http%3A%2F%2Fwww.newsroom.gov.bc.ca%2F2013%2F03%2Fnew-service-bc-centre-opens-in-kelowna.html%22+rel%3D%22nofollow%22%3Ewww.newsroom.gov.bc.ca%2F2013%2F03%2Fnew-service-bc-centre-open...%3C%2Fa%3E"}
{"id":234017692,"url":"http://farm1.staticflickr.com/94/234017692_8c785f0eb0.jpg","path":"9f3/f5a/9f3f5a16686167e76f9233c15ecad9bf.jpg","date":"2006-08-31","year":2006,"month":8,"lon":-119.49486,"lat":49.86012,"tags":"bc,okanagan,vacation","S2CellId":"89b7b78300000000","result":8852,"accuracy":0.016512038,"title":"Tanks+at+SummerHill"}
{"id":4379734326,"url":"http://farm3.staticflickr.com/2757/4379734326_b49396c014.jpg","path":"467/a59/467a59c6328d557e7e36779cf24062f3.jpg","date":"2010-02-12","year":2010,"month":2,"lon":-118.94796,"lat":49.745094,"tags":"british+columbia,can,canada,kelowna+east","S2CellId":"1240000000000000","result":651,"accuracy":0.03482491,"title":"P1000164"}
{"id":3081251809,"url":"http://farm4.staticflickr.com/3170/3081251809_4fcc8b3ee0.jpg","path":"686/c43/686c43ac4770824f13feb124ef9278c0.jpg","date":"2008-11-30","year":2008,"month":11,"lon":-117.3975,"lat":48.824173,"tags":"canyon,desolate,drop,nelson+british+columbia+2008,off+the+beaten+path,pend+oreille+county,picnik,rocky,scenic,sweet+creek+falls,trees,water,waterfall","S2CellId":"0d57f00000000000","result":477,"accuracy":0.32741442,"title":"Sweet+Creek+Falls","description":"A+hidden+away+waterfall+off+the+North+Pend+Oreille+Scenic+Byway+in+extreme+northeast+Washington"}
{"id":856469883,"url":"http://farm2.staticflickr.com/1155/856469883_29cb4dfd81.jpg","path":"13c/198/13c198e4eec244aa5454d7786270c0.jpg","date":"2005-06-24","year":2005,"month":6,"lon":-119.594055,"lat":49.45281,"tags":"june,okanagan,skaha+lake,who+can+resist+baby+ducks","S2CellId":"4713400000000000","result":3199,"accuracy":0.01138326,"title":"relaxing+in+the+%21rain"}
{"id":9070267070,"url":"http://farm3.staticflickr.com/2813/9070267070_bb71250e5d.jpg","path":"636/ec4/636ec459d93fcd90346b9f9576233c.jpg","date":"2013-06-09","year":2013,"month":6,"lon":-119.59566,"lat":49.504803,"tags":"british+columbia,penticton","S2CellId":"5353000000000000","result":6037,"accuracy":0.07480819,"title":"Penticton%2C+British+Columbia"}
{"id":8305036884,"url":"http://farm9.staticflickr.com/8354/8305036884_44e59f54b9.jpg","path":"ee4/461/ee44616cc7937812e37382b5921243.jpg","date":"2012-04-07","year":2012,"month":4,"lon":-119.4673,"lat":49.882385,"tags":"instagram","S2CellId":"12a4a2f640000000","result":731,"accuracy":0.035998143,"title":"undefined","description":"undefined"}
{"id":8653302669,"url":"http://farm9.staticflickr.com/8261/8653302669_836f4f9ef4.jpg","path":"417/351/41735155d73e81be73577aa3879fe3.jpg","date":"2013-04-15","year":2013,"month":4,"lon":-119.60266,"lat":49.771507,"tags":"birds,doves,mourning+dove,okanagan,okanaganlake","S2CellId":"88d0a631cabb5071","result":8563,"accuracy":0.1885277,"title":"Mourning+Dove"}
{"id":3998876391,"url":"http://farm4.staticflickr.com/3460/3998876391_1c2e534f75.jpg","path":"125/c45/125c45a0a287eeb01cd227a20825ee4.jpg","date":"2009-07-22","year":2009,"month":7,"lon":-119.2738,"lat":50.26568,"tags":"2009,canada,fire,kelowna+fire,sunset,vernon","S2CellId":"4790c00000000000","result":3710,"accuracy":0.020913767,"title":"Sunset+in+Vernon+during+July+09%27s+Kelowna+fire","description":"End+of+the+world+is+coming%3F"}
{"id":4722858418,"url":"http://farm2.staticflickr.com/1182/4722858418_d8dc67768b.jpg","path":"918/a4f/918a4f99436ad0c8f28c6d528fd8ad7a.jpg","date":"2010-06-21","year":2010,"month":6,"lon":-119.39558,"lat":49.94007,"tags":"library,me,photo+booth,sequesterd+from+the+sun,ubc+okanagan","S2CellId":"4872100000000000","result":5075,"accuracy":0.042243883,"title":"Library","description":"Photo+on+2010-06-21+at+16.40+edit"}
{"id":6882035500,"url":"http://farm8.staticflickr.com/7196/6882035500_b70c12a462.jpg","path":"f7e/17f/f7e17f996a63e22b1cecbc0249192b7.jpg","date":"2011-05-20","year":2011,"month":5,"lon":-119.312035,"lat":50.346447,"tags":"bc,british+columbia,canada,lake,landscape,mountains,north,north+america,okanagan,reflection,rural,tire,vernon,water","S2CellId":"537dc00000000000","result":6064,"accuracy":0.0153379515,"title":"North+Okanagan"}
{"id":9633513941,"url":"http://farm3.staticflickr.com/2863/9633513941_9748293ed5.jpg","path":"192/47a/19247a76a9eb12a7b93999727acfd3.jpg","date":"2013-08-27","year":2013,"month":8,"lon":-117.603165,"lat":49.336666,"tags":"fisheye,kootenay+river,photo+stream,selkirk+loop,selkirk+mountains,selkirks","S2CellId":"5470000000000000","result":6094,"accuracy":0.06933124,"title":"Fisheye+on+Columbia+River"}
{"id":4400310295,"url":"http://farm3.staticflickr.com/2699/4400310295_387b60a9e0.jpg","path":"331/bd7/331bd74c1a363b3b1691b9967bee1fcf.jpg","date":"2010-02-27","year":2010,"month":2,"lon":-119.90485,"lat":49.39092,"tags":"af+nikkor+50mm+f%2F1.8d,apex+mountain+resort,d90,nikon","S2CellId":"88f5010000000000","result":8705,"accuracy":0.07118151,"title":"Will+Inside"}
{"id":2302519039,"url":"http://farm4.staticflickr.com/3091/2302519039_aca31f0c9f.jpg","path":"f1f/126/f1f126556e3c2b1868542757cf44aab4.jpg","date":"2008-02-29","year":2008,"month":2,"lon":-119.88676,"lat":50.88479,"tags":"bc,britishcolumbia,canada,kamloops,sunpeaks","S2CellId":"5377000000000000","result":6058,"accuracy":0.06306302,"title":"Typical+day+on+the+hill+for+Katrin"}
{"id":4958099993,"url":"http://farm5.staticflickr.com/4130/4958099993_06aac7180e.jpg","path":"b1e/91b/b1e91be928cbdffec3b3b37496915046.jpg","date":"2010-08-31","year":2010,"month":8,"lon":-117.28497,"lat":49.51281,"tags":"big+orange+bridge,bob,bridge,british+columbia,canada,highway,highway+3a,nelson,road,welcome,welcome+sign,west+arm+bridge","S2CellId":"5370c00000000000","result":6047,"accuracy":0.2935823,"title":"Nelson%2C+British+Columbia","description":"Constructed+in+1957%2C+this+bridge+across+the+West+Arm+of+Kootenay+Lake+is+known+locally+as+BOB%2C+Big+Orange+Bridge."}
{"id":2534052757,"url":"http://farm3.staticflickr.com/2287/2534052757_8ea556b99e.jpg","path":"5d8/3c9/5d83c9ba62724e14ce66df8381748d7a.jpg","date":"2008-05-22","year":2008,"month":5,"lon":-119.1251,"lat":48.98247,"tags":"2008,abandoned,history,may,molson,okanogan,polandchinamine,seniorproject,washington,washingtonstatehistory","S2CellId":"877c000000000000","result":7905,"accuracy":0.07055871,"title":"Distant+houses","description":"Two+far+away+houses+as+seen+from+the+Poland-China+homestead."}
{"id":8426642906,"url":"http://farm9.staticflickr.com/8076/8426642906_68995329e2.jpg","path":"80a/f21/80af21e2e394368f6857c3316f4b4ac7.jpg","date":"2013-01-20","year":2013,"month":1,"lon":-119.75228,"lat":48.556442,"tags":"birds+of+washington,washington+state,winter+birding","S2CellId":"45d4000000000000","result":2755,"accuracy":0.06247421,"title":"01202013+137"}
{"id":6976338960,"url":"http://farm8.staticflickr.com/7270/6976338960_8f0d09682b.jpg","path":"a06/087/a06087fc4a886fab6f8db139985738c.jpg","date":"2009-06-12","year":2009,"month":6,"lon":-119.3195,"lat":50.24918,"tags":"2009,britishcolumbia,canada,dlux4","S2CellId":"879c000000000000","result":7927,"accuracy":0.062025774,"title":"L1030049"}
