{"id":485544557,"url":"http://farm1.staticflickr.com/185/485544557_d36f100845.jpg","path":"a2c/d58/a2cd581a668a48b51db192a87565254.jpg","date":"2007-04-21","year":2007,"month":4,"lon":-95.37196,"lat":29.760023,"tags":"3d,crosseye,festival,houston,houston+international+festival,texas","S2CellId":"94ce585c00000000","result":9713,"accuracy":0.020789718,"title":"Houston+International+Festival%2C+Houston%2C+Texas+2007.04.21","description":"486"}
{"id":3205100252,"url":"http://farm4.staticflickr.com/3399/3205100252_ebd1337649.jpg","path":"967/fd2/967fd2e2a510522ebaea62532ab3bef.jpg","date":"2008-08-16","year":2008,"month":8,"lon":-95.36217,"lat":29.750807,"tags":"concert,houston,lights+in+the+sky,lights+in+the+sky+over+north+america,live+music,music,nineinchnails,ninta36q8nxai,rock+and+roll,texas,toyota+center","S2CellId":"89e4700000000000","result":9368,"accuracy":0.0037194397,"title":"Nine+Inch+Nails+%2345+-+08%2F16%2F08"}
{"id":6185044115,"url":"http://farm7.staticflickr.com/6161/6185044115_f8ab66e667.jpg","path":"3b8/eda/3b8edafdbceec2b88beb43cdf57ca8ea.jpg","date":"2011-09-23","year":2011,"month":9,"lon":-95.77123,"lat":29.577648,"tags":"fair+day+parade,fair+parade,fort+bend+county,fort+bend+county+fair,foster+high+school,marching+band,parade","S2CellId":"8620a5c000000000","result":7508,"accuracy":0.061387222,"title":"DSC_4782"}
{"id":7466976518,"url":"http://farm9.staticflickr.com/8020/7466976518_214fd9a6be.jpg","path":"116/02f/11602f2ccd0909d307d3724db895c40.jpg","date":"2012-06-24","year":2012,"month":6,"lon":-95.35967,"lat":29.753136,"tags":"2012,discovery+green,dock+dogs,houston","S2CellId":"89c8037000000000","result":9187,"accuracy":0.28598124,"title":"dock+dogs-10"}
{"id":4170230494,"url":"http://farm3.staticflickr.com/2667/4170230494_1a2859a609.jpg","path":"c91/f13/c91f13e1b6384173c2e615a35d4bb5b.jpg","date":"2009-11-22","year":2009,"month":11,"lon":-95.60051,"lat":29.747934,"tags":"mcsbg%4012418","S2CellId":"4cc91d0000000000","result":5899,"accuracy":0.014914602,"title":"2009-11-22+at+12-13-37"}
{"id":4777637284,"url":"http://farm5.staticflickr.com/4081/4777637284_abd22052e7.jpg","path":"24d/c7e/24dc7ecd558f6e877ef225841d36e1a.jpg","date":"2010-06-16","year":2010,"month":6,"lon":-95.4808,"lat":29.538921,"tags":"1953,buick,canon,car,g11,macro,miniature,model,scale","S2CellId":"4685000000000000","result":2952,"accuracy":0.083083495,"title":"1953+Buick"}
{"id":214626325,"url":"http://farm1.staticflickr.com/97/214626325_859f749099.jpg","path":"d2e/6ce/d2e6ce624e97a9a2ee698ea48d8403.jpg","date":"2006-08-12","year":2006,"month":8,"lon":-95.39598,"lat":29.737823,"tags":"350d,houston,tamron2875mmf28,the+rothko+chapel","S2CellId":"88d9f00000000000","result":8605,"accuracy":0.0041606757,"title":"Flip-flops","description":"On+the+grounds+of+the+Rothko+Chapel"}
{"id":5317941633,"url":"http://farm6.staticflickr.com/5045/5317941633_5aed24455b.jpg","path":"ce9/3b4/ce93b4ed7f8d2933d108dcba1d1461.jpg","date":"2011-01-02","year":2011,"month":1,"lon":-95.64984,"lat":29.592691,"tags":"hmns,hmns+at+sugar+land,houston+museum+of+natural+science,science+on+a+sphere,sugar+land,tx,usa","S2CellId":"8640bfc000000000","result":7555,"accuracy":0.02850851,"title":"EP2_P1023839"}
{"id":5672609874,"url":"http://farm6.staticflickr.com/5141/5672609874_f57aa2a6bd.jpg","path":"a62/ed8/a62ed891bda1ecefab49586664e640bd.jpg","date":"2011-04-30","year":2011,"month":4,"lon":-95.46808,"lat":29.702991,"tags":"100camerasin1","S2CellId":"48723c0000000000","result":5079,"accuracy":0.22235687,"title":"My+Creation+with+%22100+Cameras+in+1%22","description":"Not+my+car+%28but+I+wish+mine+looked+like+this.%29"}
{"id":6018580145,"url":"http://farm7.staticflickr.com/6007/6018580145_20dd4491fb.jpg","path":"bb1/6d4/bb16d47d1c1a1daa2b42a2799726ebc4.jpg","date":"2011-06-25","year":2011,"month":6,"lon":-95.393524,"lat":29.744884,"tags":"houston,texas,united+states","S2CellId":"8620a5c000000000","result":7508,"accuracy":0.099322245,"title":"IMG_0576.JPG","description":"Created+by+%3Ca+href%3D%22http%3A%2F%2Fwww.bankruptcy4austin.com%2F%22+rel%3D%22nofollow%22%3EAustin+Bankruptcy+Attorney+Alex+Wathen%3C%2Fa%3E.++You+may+use+it+if+you+provide+a+link+to+this+website+or+another+one+of+Alex+Wathen%27s+bankruptcy+websites."}
{"id":398421246,"url":"http://farm1.staticflickr.com/128/398421246_d1384ce3db.jpg","path":"cc5/17a/cc517a846b35eeca589fc94341933a.jpg","date":"2007-02-17","year":2007,"month":2,"lon":-95.405045,"lat":29.714611,"tags":"3d,crosseye,houston,louisiana+state+university,rice+university,tennis,texas","S2CellId":"89c25fc000000000","result":9084,"accuracy":0.14666529,"title":"Women%27s+Tennis%2C+LSU+%28%2347%29+at+Rice+%28%2369%29%2C+Houston%2C+Texas+2007.02.17","description":"169A.+%232+Megan+Falcon+%28LSU%29"}
{"id":2670739293,"url":"http://farm4.staticflickr.com/3136/2670739293_645b797285.jpg","path":"b54/73d/b5473dd15f593b5806cc1aad4f38e.jpg","date":"2008-07-13","year":2008,"month":7,"lon":-95.36753,"lat":29.76255,"tags":"derby,houston,houstonist,roller,shot+by+tony+sodaro,sodaro,tony,tonysodaro.com","S2CellId":"47900ac000000000","result":3700,"accuracy":0.07884447,"title":"HaRD+Knocks+vs.+Texecutioners++7-13-2008+5-00-24+PM"}
{"id":4781940983,"url":"http://farm5.staticflickr.com/4095/4781940983_9780ca529d.jpg","path":"115/d73/115d738f5df6f58cc379a2976614a65.jpg","date":"2010-07-10","year":2010,"month":7,"lon":-95.56823,"lat":29.055864,"tags":"3d,brazoria,crosseye,texas","S2CellId":"889d000000000000","result":8525,"accuracy":0.010223438,"title":"Brazoria%2C+Brazoria+Co.%2C+Texas+2010.07.10","description":"060.+So+much+bigger+than+our+Houston+Freeway+turtles..."}
{"id":7693710242,"url":"http://farm9.staticflickr.com/8150/7693710242_4a379ff2fc.jpg","path":"2a1/f30/2a1f3032d3e11a361a4df68868528e9c.jpg","date":"2012-07-08","year":2012,"month":7,"lon":-95.386345,"lat":29.719736,"tags":"butterfly,center,houston,houston+museum+of+natural+science,museum,natural+history,texas","S2CellId":"94ce5b4000000000","result":9726,"accuracy":0.055774618,"title":"Flutterbyes%21","description":"Fun+day+out+at+the+Houston+Museum+of+Natural+Science"}
{"id":8714430027,"url":"http://farm8.staticflickr.com/7351/8714430027_81d02aa353.jpg","path":"41b/4f1/41b4f15f424232119fd9414ecee8cfc0.jpg","date":"2013-05-06","year":2013,"month":5,"lon":-95.623116,"lat":29.593287,"tags":"foxy+lens,hipstamatic,standard+flash,sugar+film","S2CellId":"88fb9f0000000000","result":8750,"accuracy":0.02533079,"title":"%23cheesecakefactory+%23firstcolonymall+%23sugarland+%23texas"}
{"id":364252408,"url":"http://farm1.staticflickr.com/183/364252408_18b14b9a8c.jpg","path":"d3a/dd1/d3add12837bacabf3d846f1f421c47.jpg","date":"2007-01-20","year":2007,"month":1,"lon":-95.400856,"lat":29.742615,"tags":"assignmenthouston9,cc,dof,houston,leaf,meet+up,photosafari,t-rex,westheimer","S2CellId":"465a400000000000","result":2886,"accuracy":0.013983148,"title":"Flickr+Houston+Meetup+2007+-+52"}
{"id":497084269,"url":"http://farm1.staticflickr.com/228/497084269_63659f42ee.jpg","path":"985/653/985653f0ef9d90b03e6fb12a83f1a97.jpg","date":"2007-05-13","year":2007,"month":5,"lon":-95.423676,"lat":29.0354,"tags":"animals,cat,cats,pets,siamese+cat","S2CellId":"8893000000000000","result":8521,"accuracy":0.04988457,"title":"Nicholas+close-up"}
{"id":2596277373,"url":"http://farm4.staticflickr.com/3147/2596277373_397e491e63.jpg","path":"418/742/418742a184b9033119e656dedb5b3a.jpg","date":"2008-04-04","year":2008,"month":4,"lon":-95.12908,"lat":29.685503,"tags":"3d,crosseye,deer+park,kingwood+high+school,soccer,strake+jesuit+college+preparatory,texas","S2CellId":"47edc00000000000","result":4703,"accuracy":0.037892725,"title":"Kingwood+Mustangs+vs.+Strake+Jesuit+Crusaders%2C+5A+Region+3+Semifinals%2C+Abshier+Stadium%2C+Deer+Park%2C+Texas+2008.04.04","description":"485"}
{"id":5066010053,"url":"http://farm5.staticflickr.com/4128/5066010053_091b99394c.jpg","path":"2f6/0d9/2f60d9b590ed7c136c513a5e6536db11.jpg","date":"2010-10-09","year":2010,"month":10,"lon":-95.282005,"lat":29.715311,"tags":"african+american,black,cemetery,freedman,harris+county,harrisburg,historic,houston,negro,project+respect,texas,w+w+jones,woodrow+jones","S2CellId":"8643000000000000","result":7566,"accuracy":0.05394781,"title":"Harrisburg+Cemetery%2C+Bowie+St.%2C+Houston%2C+Texas+0925101456BW","description":"The+Historical+Marker+at+the+cemetery+reads%3A%0A%0A%3Ci%3EHarrisburg-Jackson+Cemetery%0A+%0AThe+earliest+origins+of+this+cemetery+are+undocumented.++African+American+burials+likely+began+with+development+of+the+local+cattle+industry+and+area+railroads+during+the+1840s+and+1850s%2C++By+the+1870s+an+African+American+Community+was+well+established+in+Harrisburg.++About+that+time%2C+former+slaves+began+to+establish+their+own+fraternal+organizations.++The+mutual+benevolent+association+was+chartered+in+1878.++As+a+service+to+its+members%2C+the+association+arranged+and+sometimes+financed+burial+services+on+this+site%2C+located+between+Harrisburg+and+what+apparently+was+a+proposed+Freedman%27s+town+which+never+materialized.++Ownership+of+the+land+changed+several+times+in+the+ensuing+years%2C+and+a+benevolent+organization+called+Loving+Band+of+Hope+acquired+the+property+in+1899%2C+caring+for+the+cemetery+for+23+years.++In+1922%2C+the+Jackson+Funeral+Home%2C+among+the+oldest+African-American+funeral+homes+in+Houston%2C+bought+the+cemetery+property+and+used+it+as+its+primary+burial+ground+until+the+last+recorded+burial+in+1967.%0A%0AAmong+the+graves+is+that+of+Tom+Blue%2C+once+a+body+servant+of+Sam+Houston.++Blue+reported+that+he+was+present+at+the+Battle+of+San+Jacinto.++He+served+Houston+until+escaping+to+Mexico+before+the+Emancipation+Proclamation+and+later+returned+to+live+out+his+long+life+in+Harrisburg.++Also+buried+here+are+Steve+Ray%2C+a+rodeo+rider+and+cowboy+of+the+Samuel+Allen+Ranch+in+Pasadena%2C+Black+civic+leader+George+W.+Sanders%2C+Wilson+Burley%2C+who+fought+in+the+Civil+War+in+the+84th+U.+S.+Colored+Infantry%2C+Austin+C.+Winfree%2C+a+Buffalo+Soldier+who+served+in+Cuba+during+the+Spanish+American+War%2C+and+veterans+of+World+War+I.%0A%0AThe+cemetery+is+a+chronicle+of+the+African+American+slaves%2C+former+slaves+and+pioneers+of+Harrisburg+and+of+Texas.%3C%2Fi%3E%0A%0AAccess+to+this+and+several+other+historic+cemeteries+is+made+possible+only+through+the+tireless+efforts+of+Woodrow+W.+%22Woody%22+Jones+and+Project+Respect+%28+%3Ca+href%3D%22http%3A%2F%2Fwww.projectrespect.com%2Fmembers%2Fwhoweare.htm%22+rel%3D%22nofollow%22%3Ewww.projectrespect.com%2Fmembers%2Fwhoweare.htm%3C%2Fa%3E++%29+."}
{"id":6733548679,"url":"http://farm8.staticflickr.com/7169/6733548679_e7c40275e6.jpg","path":"bc0/353/bc035347b8f6beee6bed7347a6aa0.jpg","date":"2012-01-20","year":2012,"month":1,"lon":-95.3912,"lat":29.714443,"tags":"blossom,flower,houston,houston+zoo,texas","S2CellId":"47abc00000000000","result":3957,"accuracy":0.011443934,"title":"Color+Beside+the+Elephant+Cage+2","description":"A+flower+of+some+kind+%28iris%2C+maybe%3F%29+beside+the+elephant+enclosure+at+the+Houston+Zoo"}
{"id":485734872,"url":"http://farm1.staticflickr.com/205/485734872_5d4ccdbb4a.jpg","path":"de6/bbf/de6bbf20f138a08f31c5696822f55b5.jpg","date":"2007-05-05","year":2007,"month":5,"lon":-95.39706,"lat":29.707167,"tags":"comcast,foundation,http%3A%2F%2Freggiebibbs.wordpress.com,http%3A%2F%2Fwww.ctf.org%2F,http%3A%2F%2Fwww.flickr.com%2Fphotos%2Freggiebibbs,http%3A%2F%2Fwww.myspace.com%2Fbibbs42,http%3A%2F%2Fwww.nfinc.org%2F,http%3A%2F%2Fwww.reggiebibbs.com,http%3A%2F%2Fwww.youtube.com%2Freggiebibbs,neurofibromatosis,neurofibromatosis+cafe,nf,nf+symposium-houston,reggie+bibbs,reggie+bibbs+nf,reggiebibbs.com,texas,texas+nf+foundation,wordpress","S2CellId":"88f5047400000000","result":8718,"accuracy":0.021325985,"title":"Reggie+Bibbs+%26+Dr+Phon.jpg","description":"Meeting+Dr.+Phon+Texas+Children%27s+Hospital."}
{"id":3155182044,"url":"http://farm4.staticflickr.com/3293/3155182044_fd95322f51.jpg","path":"9b1/7e6/9b17e6312e84b6dbd86bfa262cc5e1.jpg","date":"2008-10-26","year":2008,"month":10,"lon":-95.38927,"lat":29.72201,"tags":"butterfly,houston,houston+science+and+natural+history+museum,museum,natural+history,science,texas","S2CellId":"48760dd000000000","result":5282,"accuracy":0.033284195,"title":"Butterfly"}
{"id":5736962214,"url":"http://farm4.staticflickr.com/3130/5736962214_9166bdc4c2.jpg","path":"a6b/e92/a6be92ea0fada4271995b0043c818.jpg","date":"2011-05-07","year":2011,"month":5,"lon":-95.36746,"lat":29.760748,"tags":"houston,texas,united+states","S2CellId":"88d0a631cabb5071","result":8563,"accuracy":0.010438197,"title":"IMG_0089.JPG","description":"Created+by+%3Ca+href%3D%22http%3A%2F%2Fwww.bankruptcy4austin.com%2F%22+rel%3D%22nofollow%22%3EAustin+Bankruptcy+Attorney+Alex+Wathen%3C%2Fa%3E.++You+may+use+it+if+you+provide+a+link+to+this+website+or+another+one+of+Alex+Wathen%27s+bankruptcy+websites."}
{"id":7656182704,"url":"http://farm9.staticflickr.com/8161/7656182704_afd5bb7c57.jpg","path":"ac4/9bf/ac49bfd8bb634e1dc61dd7a352a750f3.jpg","date":"2012-06-30","year":2012,"month":6,"lon":-95.334335,"lat":29.985832,"tags":"airport,chair,george+bush+intercontinental+airport,houston,iah,seating,texas,tx","S2CellId":"480ed00000000000","result":4783,"accuracy":0.005949802,"title":"George+Bush+Intercontinental+Airport+%28IAH%29+Chairs","description":"Seating+at+George+Bush+Intercontinental+Airport+%28IAH%29+-+Houston%2C+TX."}
{"id":7828682352,"url":"http://farm9.staticflickr.com/8439/7828682352_4c3f44b0ea.jpg","path":"b1a/a43/b1aa43f11d27e2f2a27a31ea3988e8b.jpg","date":"2012-08-11","year":2012,"month":8,"lon":-95.362015,"lat":29.761099,"tags":"viaje+texas-viaje","S2CellId":"8640bf3000000000","result":7552,"accuracy":0.07616199,"title":"Blog_Houstonbulding"}
{"id":9666703659,"url":"http://farm4.staticflickr.com/3667/9666703659_ba9a185e38.jpg","path":"faf/e7b/fafe7bab677e2f73762fa8962b8fa0.jpg","date":"2013-09-02","year":2013,"month":9,"lon":-95.5941,"lat":29.377089,"tags":"brazos+bend,bullfrog,creekfield+lake,frog,pentax,state+park,texas,water","S2CellId":"3d00000000000000","result":2580,"accuracy":0.01559518,"title":"Creekfield+Croaker","description":"Bullfrog+in+Creekfield+Lake+at+Brazos+Bend+State+Park"}
{"id":215633045,"url":"http://farm1.staticflickr.com/67/215633045_91afb0f816.jpg","path":"b8b/332/b8b3323b5be35c65bfc5defb8c0ba.jpg","date":"2006-04-30","year":2006,"month":4,"lon":-95.36897,"lat":29.759962,"tags":"abstract,rectangle,trees,windows","S2CellId":"8640bf3000000000","result":7552,"accuracy":0.6231127,"title":"patterns+and+chaos"}
{"id":3770898570,"url":"http://farm3.staticflickr.com/2517/3770898570_9e43037d33.jpg","path":"f1f/ec3/f1fec38ed4d372e35dccdf6368365b43.jpg","date":"2007-08-21","year":2007,"month":8,"lon":-95.39115,"lat":29.721266,"tags":"district,geomapped,houston,jfre81,museum","S2CellId":"886466c000000000","result":8463,"accuracy":0.072651416,"description":"Museum+District%2C+Houston.+One+of+the+few+%22early+shots%22+from+the+Coolpix+I+liked%2C+before+I+really+knew+what+I+was+doing+with+it."}
{"id":4821020042,"url":"http://farm5.staticflickr.com/4140/4821020042_f310e0692a.jpg","path":"34a/348/34a348691f4cd91d2533f03ad1be3a9a.jpg","date":"2010-07-21","year":2010,"month":7,"lon":-95.391884,"lat":29.747948,"tags":"b%2Fw,bar,black,city,drainage,end,flag,gay,gayborhood,glass,houston,montrose,neighborhood,plants,pretty,tales,texas,thetalesend,tx,white","S2CellId":"80c2bf5000000000","result":7182,"accuracy":0.016825823}
{"id":8589444681,"url":"http://farm9.staticflickr.com/8505/8589444681_fecb980e7d.jpg","path":"aed/9e0/aed9e02c9ae2b9ae67f7bdd6af2a8.jpg","date":"2013-03-16","year":2013,"month":3,"lon":-95.1131,"lat":29.644707,"tags":"pasadena,rodeo,texas","S2CellId":"8654000000000000","result":7645,"accuracy":0.044739883,"title":"Rodeo+in+Houston%2C+March+2013"}
{"id":9553532222,"url":"http://farm8.staticflickr.com/7291/9553532222_c47a54ab46.jpg","path":"330/92b/33092b9d73935cdc51cca8254e22d5.jpg","date":"2013-08-16","year":2013,"month":8,"lon":-95.349144,"lat":29.987309,"tags":"airplane,airport,houston,rain,sunset,united","S2CellId":"89c2670000000000","result":9088,"accuracy":0.16344513,"title":"George+Bush+Intercontinental+Airport+in+Houston+Sunset+After+the+Rain"}
{"id":357205492,"url":"http://farm1.staticflickr.com/144/357205492_cd72c0f6ce.jpg","path":"c89/033/c89033993bdf7105f47fca9f2d8290.jpg","date":"2007-01-14","year":2007,"month":1,"lon":-95.5932,"lat":29.628422,"tags":"28mm,430ex,audi,bounced,canon,f18,jamie,portrait,sigma","S2CellId":"8862400000000000","result":8452,"accuracy":0.06760182,"title":"Audi%2C+the+faithful+pooch","description":"I+took+this+mostly+for+Kazoofus%2C+to+perhaps+get+her+to+post+a+piccie+of+her+Aussie.++I+gave+Jamie+the+camera+and+asked+her+to+take+a+snap.++That+turned+out+to+be+a+lengthy+process.++My+elderly+camera+is+more+complicated+than+I+thought%21"}
{"id":7404806552,"url":"http://farm8.staticflickr.com/7232/7404806552_675b7e6251.jpg","path":"7e3/e4d/7e3e4db1a1f297136d2280389214d735.jpg","date":"2012-05-19","year":2012,"month":5,"lon":-95.017456,"lat":29.547392,"tags":"2012-05-20","S2CellId":"88e7809f00000000","result":8683,"accuracy":0.050363522,"title":"2012-05-20+062"}
{"id":146613877,"url":"http://farm1.staticflickr.com/50/146613877_562bbc2a7e.jpg","path":"35b/a97/35ba97c9eaa102d2f643f0dc9099c8.jpg","date":"2006-05-13","year":2006,"month":5,"lon":-95.38586,"lat":29.761364,"tags":"art+car,art+car+parade,houston","S2CellId":"2bfc000000000000","result":1527,"accuracy":0.019866008,"title":"band+on+the+dragon"}
{"id":244732788,"url":"http://farm1.staticflickr.com/96/244732788_83bd94b82a.jpg","path":"8ee/169/8ee169317ee1224b77e8f8c37448b745.jpg","date":"2006-09-16","year":2006,"month":9,"lon":-95.01869,"lat":29.547476,"tags":"landrys","S2CellId":"8099500000000000","result":7110,"accuracy":0.05652345,"title":"Landrys","description":"Kemah+Boardwalk"}
{"id":6796715568,"url":"http://farm8.staticflickr.com/7191/6796715568_5ffce3c475.jpg","path":"d2e/8ed/d2e8edf1d2a7dc0101adea6995208f.jpg","date":"2012-01-14","year":2012,"month":1,"lon":-95.391884,"lat":29.713606,"tags":"houston+zoo","S2CellId":"8620a4c000000000","result":7506,"accuracy":0.10679608,"title":"Ring-tailed+Lemur"}
{"id":2402907243,"url":"http://farm3.staticflickr.com/2292/2402907243_3abbcc11f2.jpg","path":"182/29f/18229fcbe6bae1a1c4522d397764931c.jpg","date":"2008-03-20","year":2008,"month":3,"lon":-95.39703,"lat":29.78909,"tags":"houston+real+estate+luncheon,mayssite","S2CellId":"4876054400000000","result":5265,"accuracy":0.005725479,"title":"Houston+Real+Estate+Luncheon"}
{"id":5687027894,"url":"http://farm6.staticflickr.com/5307/5687027894_a6d204c1a8.jpg","path":"4c8/ee9/4c8ee92588cd60141ea4e8765c6dc41e.jpg","date":"2011-04-16","year":2011,"month":4,"lon":-95.45938,"lat":29.761381,"tags":"douglas+gnepp,houston+society+of+clinical+pathologists,spring+symposium","S2CellId":"0d19331000000000","result":217,"accuracy":0.033676475,"title":"DSC_3948"}
{"id":8034025770,"url":"http://farm9.staticflickr.com/8033/8034025770_b0a61f71e0.jpg","path":"49c/ceb/49ccebc62cf98c6c19d132bb4c3ca66.jpg","date":"2012-09-28","year":2012,"month":9,"lon":-95.77123,"lat":29.577648,"tags":"fort+bend+county+fair,fort+bend+county+fair+parade,parade,rosenberg+health+%26+rehabilitation+center","S2CellId":"53a0224000000000","result":6072,"accuracy":0.107130915,"title":"DSC_6120"}
{"id":2066644861,"url":"http://farm3.staticflickr.com/2316/2066644861_fb6f2885dc.jpg","path":"c1d/9c9/c1d9c95ab476dc1081cdc67047c3d1c.jpg","date":"2007-09-12","year":2007,"month":9,"lon":-95.08334,"lat":29.654745,"tags":"dogs","S2CellId":"4769400000000000","result":3319,"accuracy":0.021214651,"title":"P1000845.JPG"}
{"id":8665029381,"url":"http://farm9.staticflickr.com/8263/8665029381_678d4b7721.jpg","path":"bf7/86f/bf786f65941b71c97acb7944c302aa5.jpg","date":"2013-04-13","year":2013,"month":4,"lon":-95.39096,"lat":29.718372,"tags":"3d,crosseye,festival,houston,japan,texas","S2CellId":"53a0224000000000","result":6072,"accuracy":0.11623526,"title":"Japan+Festival%2C+Hermann+Park%2C+Houston%2C+Texas+2013.04.13","description":"050"}
{"id":497947860,"url":"http://farm1.staticflickr.com/228/497947860_c76b831a81.jpg","path":"399/92b/39992b60c5b442c37c3d5c4f1ec9c769.jpg","date":"2007-05-11","year":2007,"month":5,"lon":-95.409485,"lat":29.793701,"tags":"art+car","S2CellId":"487b213c00000000","result":5554,"accuracy":0.019584818,"title":"game+car","description":"One+of+the+cars+in+our+lineup+for+Friday%27s+Main+Street+Drag."}
{"id":4047033070,"url":"http://farm3.staticflickr.com/2606/4047033070_fddfd8f370.jpg","path":"5df/3b2/5df3b2e79ae7c429591f227f98ac215.jpg","date":"2009-10-23","year":2009,"month":10,"lon":-95.95865,"lat":29.885118,"tags":"christian,dewberrry,dewberry+farms,farms,grove,school,sgcs,sugar,sugar+grove+christian+school","S2CellId":"878f000000000000","result":7910,"accuracy":0.036955383,"title":"SGCS+2nd+Graders+at+Dewberry+Farms"}
{"id":375411897,"url":"http://farm1.staticflickr.com/136/375411897_84a3150485.jpg","path":"ce7/8e9/ce78e98367652c1f2ab6f8ed49841a9e.jpg","date":"2007-01-26","year":2007,"month":1,"lon":-95.46042,"lat":29.746046,"tags":"blue+friday,fashion+show,galleria","S2CellId":"6b93f00000000000","result":6773,"accuracy":0.16247414,"title":"Prf_BluFri_Fash_0088"}
{"id":3108440985,"url":"http://farm4.staticflickr.com/3272/3108440985_e0b019f835.jpg","path":"afe/5d6/afe5d647806445803fabf739bff24cf.jpg","date":"2008-10-26","year":2008,"month":10,"lon":-95.38927,"lat":29.72201,"tags":"adamite,azurite,cerussite,houston,houston+science+and+natural+history+museum,museum,natural+history,science,smithsonite,texas","S2CellId":"89b7b79b00000000","result":8861,"accuracy":0.006919827,"title":"Azurite%2C+Cerussite%2C+Smithsonite+and+Adamite","description":"1%29+Azurite%2C+2%29+Cerussite%2C+3%29+Smithsonite%2C+4%29+Adamite"}
{"id":3367344044,"url":"http://farm4.staticflickr.com/3653/3367344044_1e2ef628d5.jpg","path":"1ac/4be/1ac4be741eb06199fe4a892467b8978.jpg","date":"2009-03-17","year":2009,"month":3,"lon":-95.408966,"lat":29.688667,"tags":"09,2009,cowboy,dark,farming,fat,go,heritage,hlsr,houston,lights,night,nikon,park,ranching,reliant,rodeo,show,stadium,stock,texan,texas,tradition,tx,west,western","S2CellId":"47e66fe1c0000000","result":4638,"accuracy":0.0071034203,"title":"Rodeo+Houston+2009"}
{"id":3687896809,"url":"http://farm4.staticflickr.com/3541/3687896809_619b6b589d.jpg","path":"10b/a67/10ba6782a5ccab958e6ed13556f62449.jpg","date":"2007-12-13","year":2007,"month":12,"lon":-95.40705,"lat":29.701529,"tags":"braes+bayou,gasteracantha+cancriformis,spinyback++orbweaver","S2CellId":"80d9549000000000","result":7295,"accuracy":0.0073256046,"title":"Spiny+Orb+Weaver+-+Gasteracantha+cancriformis+%E2%99%80","description":"Location%3A++Braes+Bayou+Near+Greenbriar"}
{"id":4518582157,"url":"http://farm5.staticflickr.com/4069/4518582157_9a5ff64b53.jpg","path":"861/93d/86193db4125a28a21ad70b27bf1ccc9.jpg","date":"2010-04-11","year":2010,"month":4,"lon":-95.39102,"lat":29.71873,"tags":"houston,texas","S2CellId":"478ff00000000000","result":3693,"accuracy":0.017909346,"title":"Japan+Fest+2010+Houston+TX"}
{"id":3364682092,"url":"http://farm4.staticflickr.com/3439/3364682092_935b1af0d0.jpg","path":"614/149/61414994ea4d8cfb1afa8b1d264ca7b.jpg","date":"2009-03-17","year":2009,"month":3,"lon":-95.36918,"lat":29.756945,"tags":"houston","S2CellId":"864e991000000000","result":7632,"accuracy":0.12812285,"title":"8%2F17%2F09+Houston"}
{"id":4128290990,"url":"http://farm3.staticflickr.com/2665/4128290990_8502a37d2e.jpg","path":"a3f/324/a3f324834578a112ed92b3a3c73c56.jpg","date":"2009-11-22","year":2009,"month":11,"lon":-95.3728,"lat":29.76027,"tags":"28mm,40d,bokeh,canon,f%2F1.8,gimp,hbsitbw,hbw,lab+enhancement,sam+houston+park,sigma","S2CellId":"88d0a631cabb5071","result":8563,"accuracy":0.075258344,"title":"Cypress+Knee+with+Duck+and+Bank+Bokeh","description":"Hbw%21%0AHbsitbw%21"}
{"id":9374707860,"url":"http://farm4.staticflickr.com/3790/9374707860_4046fa78bd.jpg","path":"d64/46a/d6446afeafaf1242f61964f34d252480.jpg","date":"2013-07-25","year":2013,"month":7,"lon":-95.39025,"lat":29.71452,"tags":"antelope,gerenuk,houston,houston+zoo,olympus,texas","S2CellId":"8654000000000000","result":7645,"accuracy":0.014980684,"title":"Houston+Gerenuk","description":"The+gerenuk+is+a+small+antelope+with+long+legs+and+a+long+neck.+The+word+%27gerenuk%27+comes+from+an+African+language+that+means+something+like+%27giraffe-like+neck%27.+This+one+is+at+the+Houston+Zoo+and+is+one+of+the+zoo%27s+most+recent+acquisitions."}
{"id":463362733,"url":"http://farm1.staticflickr.com/216/463362733_ced6bbfb70.jpg","path":"c8f/ad6/c8fad67dd76c6cc95fb1d111a8b62512.jpg","date":"2005-06-20","year":2005,"month":6,"lon":-95.08876,"lat":29.55833,"tags":"2005,johnsonspacecenter,texas,usa","S2CellId":"808fb74000000000","result":7058,"accuracy":0.013402239,"title":"dsc05696.jpg"}
{"id":2511630464,"url":"http://farm3.staticflickr.com/2018/2511630464_33b22a90f4.jpg","path":"332/6d6/3326d6b5362e2ad9ffd15b5a2a1a4c.jpg","date":"2008-05-19","year":2008,"month":5,"lon":-95.36751,"lat":29.761396,"tags":"bca,bcl,bct,bulldog,bulldogs,d40x,english,nikon,shot+by+tony+sodaro,sodaro,sodaro%27s,sodaro.com,sodarobulldogs.com,tonysodaro.com","S2CellId":"47a6fc0000000000","result":3896,"accuracy":0.023846336,"title":"Sodaro+Bulldogs+2008+Breeding++5-19-2008+6-32-02+PM"}
{"id":3155249925,"url":"http://farm4.staticflickr.com/3210/3155249925_2efe84df5a.jpg","path":"698/2de/6982def6248ca0e8f4284d376149f2c.jpg","date":"2008-10-26","year":2008,"month":10,"lon":-95.38927,"lat":29.72201,"tags":"butterfly,houston,houston+science+and+natural+history+museum,museum,natural+history,science,texas","S2CellId":"46b54f0000000000","result":3070,"accuracy":0.013805673,"title":"Butterfly"}
{"id":4533788038,"url":"http://farm5.staticflickr.com/4035/4533788038_f416927d2c.jpg","path":"15c/2a2/15c2a2c92bb3a962cdad97bf64cc329.jpg","date":"2010-04-17","year":2010,"month":4,"lon":-95.38953,"lat":29.721928,"tags":"3d,crosseye,houston,houston+orchid+society,orchids,texas","S2CellId":"47edc00000000000","result":4703,"accuracy":0.9537883,"title":"Houston+Orchid+Society%27s+Annual+Spring+Show+and+Sale%2C+Houston+Museum+of+Natural+Science%2C+Houston%2C+Texas+2010.04.17","description":"045.+Paphiopedilum+sp.+%28%3F%29"}
{"id":5463337823,"url":"http://farm6.staticflickr.com/5254/5463337823_76c4b6af11.jpg","path":"141/13c/14113c7aa62d16e4fd7661a88e28db6a.jpg","date":"2011-02-19","year":2011,"month":2,"lon":-95.39377,"lat":29.71344,"tags":"2011,5d+mark+ii,canon+100-400+4.5-5.6+is,february,giraffe,houston,houston+zoo,photo+day+at+the+houston+zoo,texas","S2CellId":"48746c0000000000","result":5139,"accuracy":0.024333186,"title":"Betty+Davis+eye"}
{"id":7423987046,"url":"http://farm8.staticflickr.com/7106/7423987046_7cd33ef3a7.jpg","path":"187/e73/187e73a6c90403439948340b9a1edce.jpg","date":"2012-06-22","year":2012,"month":6,"lon":-95.64547,"lat":29.626247,"tags":"baseball,game,land,skeeters,sugar","S2CellId":"48760f4000000000","result":5286,"accuracy":0.15850691,"title":"IMG_6393"}
{"id":8433855499,"url":"http://farm9.staticflickr.com/8084/8433855499_c2183d0e40.jpg","path":"4ff/3a0/4ff3a0168c1516ca20988f1a8e34d.jpg","date":"2012-12-19","year":2012,"month":12,"lon":-95.1294,"lat":29.526062,"tags":"3d,crosseye,hooters+girls,texas,webster","S2CellId":"88f5047400000000","result":8718,"accuracy":0.07920298,"title":"Swimsuit+Contest%2C+Hooters-NASA%2C+Webster%2C+Texas+2012.12.19","description":"024"}
{"id":4933384982,"url":"http://farm5.staticflickr.com/4074/4933384982_cb60885745.jpg","path":"f4e/d50/f4ed50b3d9bba7cded4702becccec22.jpg","date":"2010-08-13","year":2010,"month":8,"lon":-95.31464,"lat":29.673735,"tags":"back+to+school,health,houston,immunization,neighborhood+centers,shots","S2CellId":"1e8c000000000000","result":1465,"accuracy":0.20687157,"title":"Harbach-Ripley+Health+Fair","description":"Harbach-Ripley+Neighborhood+Center+in+southeast+Houston+held+its+annual+Back-to-School+Health+Fair+on+August+14th."}
{"id":8359569961,"url":"http://farm9.staticflickr.com/8082/8359569961_15a1e633ba.jpg","path":"7f8/0eb/7f80ebe253253ba077a5b72d985b2d7d.jpg","date":"2013-01-07","year":2013,"month":1,"lon":-95.3986,"lat":29.76693,"tags":"fisheye,houston","S2CellId":"48718ec000000000","result":5061,"accuracy":0.034141604,"title":"My+messy+desk."}
{"id":75419957,"url":"http://farm1.staticflickr.com/43/75419957_dbb795fd6b.jpg","path":"b3a/0b4/b3a0b415128e689bbf3bec3296827674.jpg","date":"2005-12-18","year":2005,"month":12,"lon":-95.39042,"lat":29.725859,"tags":"beats+of+basquiat,dj,houston,mfah,museum+of+fine+arts+houston,peanut+butter+wolf,turntables","S2CellId":"80d9535400000000","result":7284,"accuracy":0.08720308,"title":"Peanut+Butter+Wolf"}
{"id":2497050587,"url":"http://farm4.staticflickr.com/3241/2497050587_b9505dd8ed.jpg","path":"336/34f/33634fd71d80e04be5c1b56dd569e9f2.jpg","date":"2008-04-21","year":2008,"month":4,"lon":-95.386185,"lat":29.744564,"tags":"avant+garden+houston,avantgarden,dr+sketchy,houston,texas,this+sunday","S2CellId":"47ba500000000000","result":4074,"accuracy":0.15839832,"title":"dr+sketchy","description":"%3Ca+href%3D%22http%3A%2F%2Fhoustonsketchy.wordpress.com%2F%22%3EHouston%27s+Dr.+Sketchy%27s%3C%2Fa%3E+at+%3Ca+href%3D%22http%3A%2F%2Fwww.avantgardenhouston.com%22%3EAvant+Garden%3C%2Fa%3E+is+this+Sunday."}
{"id":3419411665,"url":"http://farm4.staticflickr.com/3387/3419411665_00e7300885.jpg","path":"e9d/9a4/e9d9a41897e6891cc3a53e236979fde.jpg","date":"2009-04-06","year":2009,"month":4,"lon":-95.44143,"lat":29.70603,"tags":"bellaire,cinema,cybershot,dscs750,houston,motion,movie,picture,sony,texas,theater,theatre","S2CellId":"89d4d40000000000","result":9260,"accuracy":0.050926607,"title":"Old+Bellaire+Theater%2C+4020+Bellaire+Blvd%2C+Houston%2C+Texas+0406091728","description":"At+the+northwest+corner+of+the+intersection+of+Bellaire+Blvd+and+Weslayan+St.++%0A%0AHere+is+a+great+old+photo+of+the+theater%3A++%3Ca+href%3D%22http%3A%2F%2Fwww.flickr.com%2Fphotos%2Fbarbaramills%2F2591108012%2F%22%3Ewww.flickr.com%2Fphotos%2Fbarbaramills%2F2591108012%2F%3C%2Fa%3E%0A%0AThe+Cinema+Treasures+listing%3A+%3Ca+href%3D%22http%3A%2F%2Fcinematreasures.org%2Ftheater%2F9910%2F%22%3Ecinematreasures.org%2Ftheater%2F9910%2F%3C%2Fa%3E"}
{"id":166509534,"url":"http://farm1.staticflickr.com/68/166509534_e17a87c3e6.jpg","path":"d22/1c6/d221c6daeb4f8a321fdc94e47af71a.jpg","date":"2006-05-27","year":2006,"month":5,"lon":-95.39035,"lat":29.722197,"tags":"butterfly,canon,houston+museum+of+natural+science,powershot,sd400,the+cockrell+butterfly+center","S2CellId":"4cc91d0000000000","result":5899,"accuracy":0.08681208,"title":"Look+at++my+big+proboscis"}
{"id":430941683,"url":"http://farm1.staticflickr.com/180/430941683_af05bb29d9.jpg","path":"2eb/b4e/2ebb4e9845439353ef588abadbb20f9.jpg","date":"2007-03-22","year":2007,"month":3,"lon":-95.136406,"lat":29.061796,"tags":"032207,beach,macro+flowers","S2CellId":"46f9000000000000","result":3115,"accuracy":0.08631641,"title":"macro+flowers"}
{"id":2131319948,"url":"http://farm3.staticflickr.com/2016/2131319948_521b8598a0.jpg","path":"1a2/25a/1a225a8923ad1fdba723fd8fa161265f.jpg","date":"2007-12-15","year":2007,"month":12,"lon":-95.7191,"lat":29.942896,"tags":"bushes,cypress,dusk,silhouette,texas,trees","S2CellId":"95d0000000000000","result":9860,"accuracy":0.009395778,"title":"Tree+Silhouette","description":"Houston%2C+Texas"}
{"id":3221749582,"url":"http://farm4.staticflickr.com/3482/3221749582_15a46809c5.jpg","path":"65b/762/65b762f4255222ba2e01745eaa97ac9.jpg","date":"2009-01-23","year":2009,"month":1,"lon":-95.3917,"lat":29.75023,"tags":"art+league+of+houston,elaine+bradford,museum+of+unnatural+history","S2CellId":"89c2588f00000000","result":8969,"accuracy":0.0062503167,"title":"%22Museum+of+Unnatural+History%22+-++Elaine+Bradford+57"}
{"id":4742713166,"url":"http://farm5.staticflickr.com/4119/4742713166_9a816020f3.jpg","path":"e8a/e60/e8ae6072dc8410d67bc6796973fa865a.jpg","date":"2010-06-26","year":2010,"month":6,"lon":-95.413345,"lat":29.717176,"tags":"2010,ansteorra,college,houston,kings,sca,tx,united+states,usa","S2CellId":"548ff00000000000","result":6177,"accuracy":0.04280624,"title":"KingsCollege2010-241"}
{"id":4800294045,"url":"http://farm5.staticflickr.com/4114/4800294045_b8855a569f.jpg","path":"f36/cd6/f36cd6a18cd264959e22bd3d813f41.jpg","date":"2010-07-15","year":2010,"month":7,"lon":-95.39024,"lat":29.722229,"tags":"3d,cockrell+butterfly+center,crosseye,hmns,houston,texas","S2CellId":"47e61d1d00000000","result":4562,"accuracy":0.007425933,"title":"Cockrell+Butterfly+Center%2C+Houston+Museum+of+Natural+Science%2C+Houston%2C+Texas+2010.07.15","description":"030.+Butterflies"}
{"id":7619345070,"url":"http://farm8.staticflickr.com/7120/7619345070_b4594fea44.jpg","path":"67c/4ce/67c4ce0fa96754e5eb1c11822de2a4.jpg","date":"2012-07-21","year":2012,"month":7,"lon":-95.38179,"lat":29.761322,"tags":"art+cars,houston,houston+art+car+parade,orange+show,texas,tx","S2CellId":"80c32c0000000000","result":7216,"accuracy":0.042606264,"title":"DSCF0226","description":"Buddha+Buggy+%0A%0APhotos+of+the+2007+Houston+Art+Car+Parade.+Shot+with+a+Fuji+FinePix+s6000fd+digital+camera."}
{"id":3302691217,"url":"http://farm4.staticflickr.com/3491/3302691217_76201df34f.jpg","path":"2b8/7c7/2b87c7566d9d92b9c34df37aa5f2cf3a.jpg","date":"2009-02-22","year":2009,"month":2,"lon":-95.39027,"lat":29.722261,"tags":"butterflies,etee+in+space+ceetee,hmns","S2CellId":"4cc91d0000000000","result":5899,"accuracy":0.014810918,"title":"20090222_9080-Index"}
{"id":3519024534,"url":"http://farm4.staticflickr.com/3649/3519024534_09db5a0f2e.jpg","path":"132/bcd/132bcdd1375bae83e4cd62519f1de22b.jpg","date":"2009-05-05","year":2009,"month":5,"lon":-95.38642,"lat":29.744402,"tags":"3d,avant+garden,belly+dance,crosseye,houston,texas","S2CellId":"88f5047400000000","result":8718,"accuracy":0.29812536,"title":"Avant+Garden%2C+Houston%2C+Texas+2009.05.05","description":"091"}
{"id":3901405042,"url":"http://farm4.staticflickr.com/3525/3901405042_053eededa0.jpg","path":"8ed/564/8ed564fe8acbad5943407ef5529dce.jpg","date":"2009-09-06","year":2009,"month":9,"lon":-95.45282,"lat":29.760056,"tags":"arboretum,coreidae,hemiptera,insect,squash+bugs++leaf-footed+bugs","S2CellId":"80e9500000000000","result":7405,"accuracy":0.017955236,"title":"Coreidae+Sp.+%28%3F%29","description":"Location%3A+Houston+Arboretum%2C+Memorial+Park%2C+Houston+TX."}
{"id":4516508257,"url":"http://farm3.staticflickr.com/2706/4516508257_739f289be3.jpg","path":"778/cb1/778cb1c58ea82fdf8c5e57c210d06e6.jpg","date":"2010-04-10","year":2010,"month":4,"lon":-95.35956,"lat":29.75306,"tags":"10,2010,april,disco,discogreen,discovery,green,houston,soul,texas+soulful+house,tortured","S2CellId":"872b124000000000","result":7761,"accuracy":0.03127046,"title":"Discovery+Green_041010_416"}
{"id":7540971030,"url":"http://farm8.staticflickr.com/7270/7540971030_5088ba78bb.jpg","path":"74e/e51/74ee515229a503660e3c961a1351c6a.jpg","date":"2012-07-08","year":2012,"month":7,"lon":-95.46446,"lat":29.738316,"tags":"3d,brick+fiesta,crosseye,houston,lego,texas,texas+lego+user+group,texlug","S2CellId":"5490154700000000","result":6189,"accuracy":0.14806005,"title":"Brick+Fiesta%2C+Texas+LEGO+User+Group%2C+Westin+Galleria+Hotel%2C+Houston%2C+Texas+2012.07.08","description":"071"}
{"id":12623944363,"url":"http://farm6.staticflickr.com/5505/12623944363_ec6168ec2e.jpg","path":"8ed/8fb/8ed8fb2dcbff4c54debb9cb8f83fb61.jpg","date":"2014-02-17","year":2014,"month":2,"lon":-95.36653,"lat":29.762196,"tags":"eye-fi,houston,texas,united+states","S2CellId":"89c258fec0000000","result":8990,"accuracy":0.11480469,"title":"P1000212.JPG","description":"Effortlessly+uploaded+by+%3Ca+href%3D%22http%3A%2F%2Fwww.eye.fi%22+rel%3D%22nofollow%22%3EEye-Fi%3C%2Fa%3E"}
{"id":6978481411,"url":"http://farm8.staticflickr.com/7047/6978481411_b2934d679c.jpg","path":"ae1/d79/ae1d79623bcf60df28125a867dc0b0fe.jpg","date":"2012-01-12","year":2012,"month":1,"lon":-95.027084,"lat":29.564077,"tags":"3d,crosseye,fashion+show,hooters+girls,seabrook,texas","S2CellId":"47e9400000000000","result":4694,"accuracy":0.012001469,"title":"Fashion+Show%2C+Hooters%2C+Seabrook%2C+Texas+2012.01.12","description":"039"}
{"id":5307445529,"url":"http://farm6.staticflickr.com/5041/5307445529_00c5ba9abe.jpg","path":"ab7/238/ab7238dbc17656e41d48249442a2154.jpg","date":"2010-12-28","year":2010,"month":12,"lon":-95.04328,"lat":29.78181,"tags":"madera,textura","S2CellId":"87ef400000000000","result":8042,"accuracy":0.022156144,"title":"Texturas+de+madera+-+TX+2010+0136"}
{"id":8442441681,"url":"http://farm9.staticflickr.com/8474/8442441681_85c08507ee.jpg","path":"f8e/a65/f8ea65d6bf4039cf4486c4471d71c5f.jpg","date":"2013-02-03","year":2013,"month":2,"lon":-95.6497,"lat":29.592657,"tags":"frogs+and+toads,hmns,houston+museum+of+sugar+land,sugar+land,telfair,tx,usa","S2CellId":"880e2b7000000000","result":8112,"accuracy":0.27556944,"title":"EM5_P2032000"}
{"id":10113268683,"url":"http://farm3.staticflickr.com/2889/10113268683_35593b566c.jpg","path":"771/45e/77145e3eb37a6df1eb6f6c9dccc7b96d.jpg","date":"2013-10-05","year":2013,"month":10,"lon":-95.5235,"lat":29.802946,"tags":"2013,ansteorra,fall,houston,queens,sca,texas,united+states,usa","S2CellId":"47c7500000000000","result":4373,"accuracy":0.053186134,"title":"QueensFall2013-404"}
{"id":2965732829,"url":"http://farm4.staticflickr.com/3180/2965732829_a182aeec46.jpg","path":"958/f23/958f23f6d63b361b3aa1ff1379ec28.jpg","date":"2008-04-19","year":2008,"month":4,"lon":-95.35543,"lat":29.469791,"tags":"canoe,gates+gardens,manvel+texas","S2CellId":"477ead0000000000","result":3460,"accuracy":0.018430095,"title":"Waiting+for+someone+to+go+boating","description":"Little+canoe+for+rowing+out+on+the+lake+at+Gates+Gardens+in+Manvel%2C+Texas"}
{"id":4073057401,"url":"http://farm3.staticflickr.com/2454/4073057401_2ab69619d3.jpg","path":"524/dcb/524dcbef8f2981712ac71d52bcb965.jpg","date":"2009-11-01","year":2009,"month":11,"lon":-95.16988,"lat":29.607716,"tags":"2009,air,airport,airshow,ellington,field,houston,pearl+harbor,reenactment,show,tora%21,tora+tora+tora,wings+over+houston","S2CellId":"47df740000000000","result":4525,"accuracy":0.07772177,"title":"WingsOverHouston09+0342"}
{"id":8095744935,"url":"http://farm9.staticflickr.com/8056/8095744935_af0e05492c.jpg","path":"9af/9ef/9af9efe717f34bdad2db42c128d63743.jpg","date":"2012-10-13","year":2012,"month":10,"lon":-95.56184,"lat":29.780167,"tags":"citycentre,emba,grand+opening,jerry+strawser,karan+watson,mays+business+school,pmba,tamu,texas+a%26m+university","S2CellId":"882b34cc00000000","result":8250,"accuracy":0.03779508,"title":"CITYCENTRE+Grand+Opening","description":"Mays+faculty%2C+students%2C+staff+and+guests+celebrate+the+opening+of+the+new+home+of+the+Texas+A%26M+Executive+and+Professional+MBA+programs+at+CITYCENTRE+in+west+Houston.%0A%0A%5BPhoto%3A+John+Lewis+for+Mays+Communications%5D"}
{"id":8377879924,"url":"http://farm9.staticflickr.com/8235/8377879924_2d525689d8.jpg","path":"496/3ca/4963cac1a8ea40164cc71f59e77ee589.jpg","date":"2013-01-13","year":2013,"month":1,"lon":-95.387695,"lat":29.78977,"tags":"%23houmarathon,2013,houston,houston+marathon,marathon,race,rain,running","S2CellId":"4887c64000000000","result":5709,"accuracy":0.15605102,"title":"I+think+Tiffany+is+cold","description":"2013+Houston+Marathon"}
{"id":107187819,"url":"http://farm1.staticflickr.com/19/107187819_9030260eca.jpg","path":"4d6/8ee/4d68ee4d5b481de5cc806fa5dcebadb9.jpg","date":"2006-02-26","year":2006,"month":2,"lon":-95.37781,"lat":29.757223,"tags":"ilovenature,reflections,tres+notas+para+decir+te+quiero","S2CellId":"89e37a7000000000","result":9346,"accuracy":0.26059496,"title":"Three+Notes+To+Say+I++Love+You","description":"inspired+by+Vicente+Amigo%27s+song"}
{"id":8442507687,"url":"http://farm9.staticflickr.com/8079/8442507687_1b584e45ac.jpg","path":"d6c/5e3/d6c5e3ec92ea411162872b573f7c333.jpg","date":"2013-02-03","year":2013,"month":2,"lon":-95.64053,"lat":29.372751,"tags":"alligator,brazos+bend,houston,park,texas","S2CellId":"88d0a631cabb5071","result":8563,"accuracy":0.24405359,"title":"alligator4"}
{"id":12417950913,"url":"http://farm8.staticflickr.com/7311/12417950913_7099b93d79.jpg","path":"c0c/a68/c0ca68a47bb750d5edac15dd4677d3e.jpg","date":"2014-02-08","year":2014,"month":2,"lon":-95.35369,"lat":29.752407,"tags":"3d,crosseye,dance,houston,irish,irish+music+festival,texas","S2CellId":"89b7b7ac00000000","result":8868,"accuracy":0.11907377,"title":"Irish+Music+Festival+%26+Stew+Cook-Off%2C+Lucky%27s+Pub%2C+Houston%2C+Texas+2014.02.08","description":"0249.+McTeggart+Irish+Dance"}
{"id":2854165003,"url":"http://farm4.staticflickr.com/3122/2854165003_a1f2b8630d.jpg","path":"311/9a5/3119a584b17e62fd82a29659fecc76c.jpg","date":"2008-09-13","year":2008,"month":9,"lon":-95.59099,"lat":29.750406,"tags":"damage,houston,hurricane,hurricane+ike,ike,rain,storm,trees,weather","S2CellId":"889d000000000000","result":8525,"accuracy":0.054532703,"title":"IMG_8139","description":"Trees+down+on+Briar+Forest+westbound+near+the+Country+Village+subdivision"}
{"id":3585645572,"url":"http://farm4.staticflickr.com/3633/3585645572_b5998eebb6.jpg","path":"ffd/f57/ffdf57b58ce3a9e8424521dc488cf618.jpg","date":"2009-05-31","year":2009,"month":5,"lon":-95.2615,"lat":29.424082,"tags":"cat,kitten,picnik","S2CellId":"88d9300000000000","result":8584,"accuracy":0.01235834,"title":"Mama+and+Kitten","description":"Returning+from+helping+our+son+and+DIL+Sunday%2C+we+saw+this+wild+neighborhood+cat+and+her+new+kitten.+They+didn%27t+seem+too+scared+of+us."}
{"id":3973746464,"url":"http://farm4.staticflickr.com/3533/3973746464_33a78fe505.jpg","path":"233/210/2332109444fffa9781066a5b931de21.jpg","date":"2009-10-02","year":2009,"month":10,"lon":-95.37549,"lat":29.74153,"tags":"2009,houston,leadership,leadership+houston+2009","S2CellId":"8621400000000000","result":7528,"accuracy":0.3562135,"title":"Lh1-75"}
{"id":5361686635,"url":"http://farm6.staticflickr.com/5245/5361686635_b19595372f.jpg","path":"cc3/36c/cc336ce17fd5741168dac5fa1d5eefe8.jpg","date":"2011-01-15","year":2011,"month":1,"lon":-95.55887,"lat":29.051273,"tags":"1888,brazoria,brazoria+county,cemetery,pioneer+cemetery,texas","S2CellId":"8644cc0000000000","result":7595,"accuracy":0.040360954,"title":"1888+Pioneer+Cemetery%2C+Brazoria%2C+Texas+0115111332BW","description":"This+cemetery+is+rather+barren%2C+and%2C+though+I%27d+parked+across+the+street+from+it%2C+I+had+missed+it+when+I+was+last+in+the+area.++I%27ll+attribute+that+partially%2C+though%2C+to+my+tendency+to+focus+on+the+nearby+bridges."}
{"id":2886282065,"url":"http://farm4.staticflickr.com/3014/2886282065_039e614569.jpg","path":"8a9/25b/8a925ba4477eb8444d772d926868953b.jpg","date":"2008-09-13","year":2008,"month":9,"lon":-95.20557,"lat":29.430515,"tags":"alvin+texas+ike,flood+water,hurricane+ike,red,underwater,water","S2CellId":"5488c00000000000","result":6153,"accuracy":0.013637638,"title":"Hurricane+Ike+fire+plug+cropped","description":"Fireplug+near+home+after+Hurricane+Ike%0A%0A%3Ca+href%3D%22http%3A%2F%2Ffiveprime.org%2Fblackmagic%22+rel%3D%22nofollow%22%3EView+on+Black%3C%2Fa%3E"}
{"id":4468786876,"url":"http://farm3.staticflickr.com/2714/4468786876_1d2c5e8bbb.jpg","path":"e9d/7e4/e9d7e4876a10e5d7449805ba63073a1.jpg","date":"2010-03-27","year":2010,"month":3,"lon":-95.39102,"lat":29.71398,"tags":"composer,hermann+park,houston,houston+camera+club,houston+zoo,lensbaby,orangutan,tx,usa,wortham+world+of+primates","S2CellId":"88d0a631cabb5071","result":8563,"accuracy":0.06794902,"title":"20100327_P3270844"}
{"id":6029927433,"url":"http://farm7.staticflickr.com/6122/6029927433_6303fa75b8.jpg","path":"57c/cac/57ccacd4999fdffa14d16d52ead4d5.jpg","date":"2011-08-06","year":2011,"month":8,"lon":-95.39218,"lat":29.712395,"tags":"bird,houston,houston+zoo,texas","S2CellId":"80d9549000000000","result":7295,"accuracy":0.070740275,"title":"The+Dirt+is+no+Surprise","description":"You%27d+have+dirt+on+your+face%2C+too%2C+if+you+stuck+your+head+in+the+sand+all+the+time."}
{"id":8711912338,"url":"http://farm9.staticflickr.com/8269/8711912338_a23ff07c78.jpg","path":"96a/5d6/96a5d6d486a1ad324759d0d95c12bb.jpg","date":"2013-04-28","year":2013,"month":4,"lon":-95.39284,"lat":29.711666,"tags":"2013,houston,rhino,rhinocerous,texas,zoo","S2CellId":"87d8b54000000000","result":8008,"accuracy":0.073612906,"title":"IMG_1498"}
{"id":203189640,"url":"http://farm1.staticflickr.com/77/203189640_4cd716e0da.jpg","path":"b93/8f1/b938f1c7edd1df5f822bcc2b1328a11f.jpg","date":"2006-07-31","year":2006,"month":7,"lon":-95.08334,"lat":29.654745,"tags":"boston+terrier,bostonterriers,dogs","S2CellId":"485b900000000000","result":4824,"accuracy":0.014528104,"title":"alexinsun"}
{"id":426133636,"url":"http://farm1.staticflickr.com/168/426133636_fd4ee079b2.jpg","path":"b4a/371/b4a3717ad593e77abd42a22f45333d3.jpg","date":"2007-02-11","year":2007,"month":2,"lon":-95.38742,"lat":29.764378,"tags":"bautizo,david,houston,jaime+enrique,sonia","S2CellId":"8824b00000000000","result":8226,"accuracy":0.13247168}
{"id":4184794918,"url":"http://farm3.staticflickr.com/2713/4184794918_8cac55f9d9.jpg","path":"964/576/96457652aec0d32af2774f755e585a18.jpg","date":"2009-12-12","year":2009,"month":12,"lon":-95.391655,"lat":29.714594,"tags":"hermann+park,houston,houston+zoo,photo+day,tx,usa,zoo","S2CellId":"8620af4000000000","result":7522,"accuracy":0.05837637,"title":"20091212_PC122359","description":"Taken+at+the+Houston+Zoo+during+Photo+Day+activities%2C+12.Dec.2009"}
{"id":5246202705,"url":"http://farm6.staticflickr.com/5202/5246202705_e4acb21bce.jpg","path":"734/69b/73469b598ee2a069f1c79def53a14afe.jpg","date":"2010-12-06","year":2010,"month":12,"lon":-95.39611,"lat":29.781387,"tags":"06december2010,houston,mildred%27s+umbrella,museum+of+dysfunction+iii,obsidian+art+space,texas,united+states","S2CellId":"882b34bc00000000","result":8248,"accuracy":0.60669196,"title":"IMG_5942"}
{"id":9366524501,"url":"http://farm4.staticflickr.com/3706/9366524501_7580800859.jpg","path":"e69/3e0/e693e0943ba2291337c2b6b0ce35564f.jpg","date":"2013-07-25","year":2013,"month":7,"lon":-95.37764,"lat":29.766472,"tags":"houston,m.e.c.a.,meca+summer+arts+day+camp+recital+2013,texas,united+states,united+way+of+greater+houston","S2CellId":"87cb000000000000","result":7985,"accuracy":0.1569156,"title":"MECA+Summer+arts+day+camp+Recital+2013"}
{"id":9612906057,"url":"http://farm8.staticflickr.com/7383/9612906057_eaa4874ff0.jpg","path":"271/01a/27101a11e15a4a7aca4f7d4faceecfa.jpg","date":"2012-04-21","year":2012,"month":4,"lon":-95.18317,"lat":29.7995,"tags":"dylans+3rd+bday+party+042112","S2CellId":"346836c000000000","result":2150,"accuracy":0.18019658,"title":"Dylans+3rd+bday+party+042112+103"}
{"id":17581294,"url":"http://farm1.staticflickr.com/14/17581294_1db86f4367.jpg","path":"bea/522/bea522d0665b39a7f22c74a763ace9d5.jpg","date":"2005-06-05","year":2005,"month":6,"lon":-95.38605,"lat":29.764378,"tags":"childhood+memories,life,linkwood,parks,picasa","S2CellId":"47c4100000000000","result":4245,"accuracy":0.026587132,"title":"Life+as+a+Train","description":"This+childhood+park+remains......but%2C+wow%2C+all+changed%21+Time+flies....+The+Soundrack+was+the+new+Coldplay%2C+%22the+Speed+of+Sound%22%2C+Coincidence..."}
{"id":506232463,"url":"http://farm1.staticflickr.com/230/506232463_dbc119409c.jpg","path":"9e8/63b/9e863b7329cec6030fd2c4f4bfbcfcc.jpg","date":"2007-05-19","year":2007,"month":5,"lon":-95.3668,"lat":29.73367,"tags":"350d,canon+24-70mm+2.8+l,flower+man,folk+art,houston,tx","S2CellId":"6b12adc000000000","result":6679,"accuracy":0.062777594,"title":"I%2C+for+one%2C+welcome+our+new+penguin+overlords"}
{"id":5501160337,"url":"http://farm6.staticflickr.com/5133/5501160337_bd044857d8.jpg","path":"6fc/813/6fc813f59125ede898ed3d786fd9cb4.jpg","date":"2011-03-05","year":2011,"month":3,"lon":-95.3983,"lat":29.750797,"tags":"accident,driveway,marty","S2CellId":"89b64c0000000000","result":8830,"accuracy":0.014402367,"title":"IMG_7275.jpg"}
{"id":8710770363,"url":"http://farm9.staticflickr.com/8262/8710770363_252246583b.jpg","path":"61f/50b/61f50bed621a1e894ceac9758d9adb7.jpg","date":"2013-04-28","year":2013,"month":4,"lon":-95.39167,"lat":29.715166,"tags":"2013,houston,lindsay,texas,zoo","S2CellId":"87d8b54000000000","result":8008,"accuracy":0.027565252,"title":"IMG_1488"}
{"id":13474058,"url":"http://farm1.staticflickr.com/10/13474058_da1cd61385.jpg","path":"9ef/7ed/9ef7ed818d17b38faa23cc2a765a4ba8.jpg","date":"2005-05-08","year":2005,"month":5,"lon":-95.31982,"lat":29.722523,"tags":"rain","S2CellId":"8620a5c000000000","result":7508,"accuracy":0.0916593,"title":"2005_0508_175708","description":"We+had+a+HUGE+storm+Sunday+night.++Notice+the+new+oak+tree+I+planted+that+morning."}
{"id":495336402,"url":"http://farm1.staticflickr.com/231/495336402_a934b17a6e.jpg","path":"f52/2ab/f522abaee428cb633865d302387d29.jpg","date":"2007-05-12","year":2007,"month":5,"lon":-95.37052,"lat":29.759794,"tags":"art+car,art+car+parade,houston","S2CellId":"5490154c00000000","result":6190,"accuracy":0.04718037,"title":"art+car"}
{"id":2687353646,"url":"http://farm4.staticflickr.com/3236/2687353646_ea6a87dee7.jpg","path":"24a/6c7/24a6c79b434538bc1839ec25e6d2b1.jpg","date":"2008-07-19","year":2008,"month":7,"lon":-95.408104,"lat":29.68518,"tags":"bulldogs,dog,houston,houstonist,shot+by+tony+sodaro,show,sodaro,tonysodaro.com","S2CellId":"89c29c0000000000","result":9095,"accuracy":0.06031601,"title":"Houston+Dog+Show+7-19-2008+8-47-12+AM"}
{"id":4125558742,"url":"http://farm3.staticflickr.com/2576/4125558742_781917a247.jpg","path":"e99/c57/e99c579ef5cba458ce27a32e9c391.jpg","date":"2009-11-15","year":2009,"month":11,"lon":-95.38942,"lat":29.721964,"tags":"faberge%3F+exhibit,faberge%CC%81+exhibit,hermann+park,hmns,houston,meetup,museum+district,tx,usa","S2CellId":"4876054400000000","result":5265,"accuracy":0.062070657,"title":"20091115_IMG_9889","description":"Fabrege%3A+Imperial+Jeweler+to+the+Tsars+exhibit"}
{"id":5308229626,"url":"http://farm6.staticflickr.com/5086/5308229626_414a226c97.jpg","path":"a26/2fd/a262fd1513bc26ce49ef9256639a9cc.jpg","date":"2010-12-30","year":2010,"month":12,"lon":-95.25936,"lat":29.013544,"tags":"avian,bird,gulf+coast,heron,little+green+heron,nature,outdoors,texas,wetlands","S2CellId":"88fb990000000000","result":8747,"accuracy":0.03576926,"title":"Dancing...","description":"Enjoyed+another+day+of+going+coastal.++I%27m+ready+to+move+nearer+the+coast+and+just+not+worry+about+hurricanes%21%0A%0ALittle+Green+Heron"}
{"id":7619415450,"url":"http://farm8.staticflickr.com/7126/7619415450_376e05391d.jpg","path":"48c/c29/48cc292e368f2fc82de41ac3de71eb.jpg","date":"2012-07-21","year":2012,"month":7,"lon":-95.38179,"lat":29.761322,"tags":"art+cars,houston,houston+art+car+parade,orange+show,texas,tx","S2CellId":"8830fbc000000000","result":8292,"accuracy":0.9181611,"title":"DSCF0324","description":"Muscipula+%0A%0APhotos+of+the+2007+Houston+Art+Car+Parade.+Shot+with+a+Fuji+FinePix+s6000fd+digital+camera."}
{"id":8670578492,"url":"http://farm9.staticflickr.com/8099/8670578492_9fbcbece4c.jpg","path":"aa7/0b0/aa70b08267831468ecb68b8c6374f44.jpg","date":"2013-04-21","year":2013,"month":4,"lon":-95.389694,"lat":29.72175,"tags":"flower,hmns,houston,houston+museum+of+natural+science,orchid,orchid+show,tx,usa","S2CellId":"8085874300000000","result":6973,"accuracy":0.02259972,"title":"EM5_P4212675"}
{"id":35166373,"url":"http://farm1.staticflickr.com/23/35166373_ae626a5cff.jpg","path":"2fc/7f7/2fc7f7869e6b8731a0bffd8a9e23a390.jpg","date":"2005-08-17","year":2005,"month":8,"lon":-95.35552,"lat":29.756311,"tags":"astros,baseball,chicago+cubs,cubs,houston,houston+astros,minute+maid+park","S2CellId":"89e379f000000000","result":9339,"accuracy":0.14209613,"title":"Chicago+Cubs+vs.+Houston+Astros+%40+Minute+Maid+Park","description":"First+Cubs+game+I%27ve+seen+in+person+at+Minute+Maid+where+they+actually+won."}
{"id":44465864,"url":"http://farm1.staticflickr.com/30/44465864_1ff87c32f7.jpg","path":"237/6ac/2376ac37ad3a0cd2df389af422ebd8.jpg","date":"2005-09-18","year":2005,"month":9,"lon":-95.53619,"lat":29.731487,"tags":"kits,sbc,sc1,z80","S2CellId":"88fd000000000000","result":8754,"accuracy":0.004496606,"title":"Bag+from+EPO","description":"%3Ca+href%3D%22http%3A%2F%2Fwww.epo-houston.com%22%3EElectronic+Parts+Outlet%3C%2Fa%3E+will+usually+grab+a+random+bag+from+under+the+counter+to+hold+your+purchases.++I+got+a+POPCORN+BAG."}
{"id":578934080,"url":"http://farm2.staticflickr.com/1233/578934080_edd09ca271.jpg","path":"921/d8d/921d8d71af575d7d53455b14b297eb9d.jpg","date":"2007-06-17","year":2007,"month":6,"lon":-95.017235,"lat":29.547312,"tags":"3d,crosseye,kemah,texas","S2CellId":"31da190700000000","result":1848,"accuracy":0.04102204,"title":"Kemah+Boardwalk%2C+Kemah%2C+Texas+2007.06.17","description":"275"}
{"id":2244925303,"url":"http://farm3.staticflickr.com/2345/2244925303_b62e40d96a.jpg","path":"354/63c/35463c432c601a62421b7d44e8be50c8.jpg","date":"2008-02-05","year":2008,"month":2,"lon":-95.576416,"lat":29.785236,"tags":"fisheye,sky,street,tree,wide","S2CellId":"8621400000000000","result":7528,"accuracy":0.014574363,"title":"memorial"}
{"id":4129424237,"url":"http://farm3.staticflickr.com/2736/4129424237_66476ff242.jpg","path":"b45/6b9/b456b9c9921c8b58fae877431fc5e67.jpg","date":"2009-11-22","year":2009,"month":11,"lon":-95.455925,"lat":29.698105,"tags":"backyard,bellaire,harris+co.+tx,neoscona+crucifera,orbweaver,spider,texas,usa","S2CellId":"4872500000000000","result":5080,"accuracy":0.06619704,"title":"K2011494._LR"}
{"id":4623105481,"url":"http://farm5.staticflickr.com/4004/4623105481_f5700d9a7c.jpg","path":"fdc/c91/fdcc916336aeab19d81d55f970fcc461.jpg","date":"2010-05-19","year":2010,"month":5,"lon":-95.08534,"lat":29.555843,"tags":"%23nasatweetup,johnson+space+center,jsc,nasa,space+center+houston","S2CellId":"4cc91a5100000000","result":5890,"accuracy":0.027703118,"title":"Apollo+MCC+and+%40InetNomad"}
{"id":6185165149,"url":"http://farm7.staticflickr.com/6178/6185165149_80c79514bc.jpg","path":"e3d/463/e3d463c14d9a9a7e660c88d81a4f23c.jpg","date":"2011-09-23","year":2011,"month":9,"lon":-95.77123,"lat":29.577648,"tags":"fair+day+parade,fair+parade,fort+bend+county,fort+bend+county+fair,parade","S2CellId":"880ef00000000000","result":8147,"accuracy":0.06796546,"title":"DSC_4918"}
{"id":6185536854,"url":"http://farm7.staticflickr.com/6161/6185536854_00905034f5.jpg","path":"3a7/b29/3a7b29108da94fb67f7ff77b4781457f.jpg","date":"2011-09-23","year":2011,"month":9,"lon":-95.77123,"lat":29.577648,"tags":"fair+day+parade,fair+parade,fort+bend+county,fort+bend+county+fair,parade","S2CellId":"89b7b79b00000000","result":8861,"accuracy":0.3508815,"title":"DSC_4737"}
{"id":380619850,"url":"http://farm1.staticflickr.com/170/380619850_c9f1a9080d.jpg","path":"397/9e1/3979e12b1f723bccee967f65bc2569da.jpg","date":"2007-02-04","year":2007,"month":2,"lon":-95.33544,"lat":29.984428,"tags":"2007,houston,london","S2CellId":"89c2670000000000","result":9088,"accuracy":0.09206392,"title":"DSC_0002","description":"At+George+Bush+Intercontinental+Airport+in+Houston"}
{"id":3473952420,"url":"http://farm4.staticflickr.com/3321/3473952420_883c3d01da.jpg","path":"544/71e/54471e72fc7cea118313f272b73bdbf.jpg","date":"2009-04-24","year":2009,"month":4,"lon":-95.39635,"lat":29.709227,"tags":"houston,zoo","S2CellId":"85d1ff5000000000","result":7480,"accuracy":0.07677656,"title":"Strange+bird","description":"Kim+and+I+visiting+the+zoo+on+her+birthday."}
{"id":3702955930,"url":"http://farm3.staticflickr.com/2643/3702955930_50bfe896cb.jpg","path":"607/cb0/607cb0da7e3f2f5912e041828642e92d.jpg","date":"2009-07-03","year":2009,"month":7,"lon":-95.402374,"lat":29.73838,"tags":"abandoned,apartments,architecture,art+deco,houston,montrose,wilshire+village","S2CellId":"8839c00000000000","result":8335,"accuracy":0.011668903,"title":"Porch+light","description":"This+fixture+is+between+the+back+doors+of+two+adjacent+apartments."}
{"id":3714229424,"url":"http://farm4.staticflickr.com/3437/3714229424_741d829c74.jpg","path":"afd/9c0/afd9c041d6bb9b4c0803ff7b4e1b7.jpg","date":"2009-07-03","year":2009,"month":7,"lon":-95.09937,"lat":29.557405,"tags":"2009,clear+lake,family+vacation,johnson+space+center,july,nasa,rocket+park,space+center+houston,texas","S2CellId":"4876750000000000","result":5372,"accuracy":0.045652777,"title":"Galveston-Houston_2009-2083"}
{"id":4747708888,"url":"http://farm5.staticflickr.com/4081/4747708888_fe78fdaeaf.jpg","path":"f06/94e/f0694ec78e554302bf30df824c71dd.jpg","date":"2010-06-29","year":2010,"month":6,"lon":-95.40189,"lat":29.708975,"tags":"clouds,glass.+reflection,houston,houstontexas,medicalcenter,stlukes,stlukeshospital,texas","S2CellId":"47c3c24000000000","result":4197,"accuracy":0.031501587,"title":"St.+Luke+in+the+Clouds","description":"St.+Luke%27s+Medical+Building%2C+Houston+Medical+Center%2C+Texas"}
{"id":6227967041,"url":"http://farm7.staticflickr.com/6212/6227967041_68c0eb8f59.jpg","path":"7cb/b18/7cbb1859dbdef34e192b798e5f0e159.jpg","date":"2011-10-09","year":2011,"month":10,"lon":-95.38124,"lat":29.71827,"tags":"houston,rain,silver+efex+pro,tx,usa","S2CellId":"94cc400000000000","result":9693,"accuracy":0.02289908,"title":"EP2_PA095217-bw","description":"RAIN%21"}
{"id":7121460247,"url":"http://farm8.staticflickr.com/7271/7121460247_68838c9564.jpg","path":"beb/8ba/beb8ba2ecdce5e3fd6add9e99ff0954f.jpg","date":"2012-04-28","year":2012,"month":4,"lon":-95.45173,"lat":29.67172,"tags":"minature+rose,orange+triumph,rose","S2CellId":"883cae5000000000","result":8363,"accuracy":0.048570506,"title":"Orange+Triumph"}
{"id":9532295287,"url":"http://farm4.staticflickr.com/3736/9532295287_40df6bc44c.jpg","path":"47d/ede/47dede319e6dfd1dbcd9cba28bc26ac7.jpg","date":"2013-08-17","year":2013,"month":8,"lon":-95.452446,"lat":29.760994,"tags":"%40mikegras,houston+arboretum","S2CellId":"12a47c0000000000","result":692,"accuracy":0.009501916,"title":"DSCN8579"}
{"id":2686630811,"url":"http://farm4.staticflickr.com/3112/2686630811_eb381353a9.jpg","path":"1dc/099/1dc0992777b81db922e6c03033a252.jpg","date":"2008-07-20","year":2008,"month":7,"lon":-95.408104,"lat":29.68518,"tags":"bulldogs,dog,houston,houstonist,shot+by+tony+sodaro,show,sodaro,tonysodaro.com","S2CellId":"2a32a50000000000","result":1500,"accuracy":0.034854874,"title":"Houston+Dog+Show+7-20-2008+9-01-10+AM"}
{"id":5728808691,"url":"http://farm6.staticflickr.com/5190/5728808691_aa664e85bb.jpg","path":"e82/3ed/e823ed22fb13d36f3c239d09f7dfef.jpg","date":"2011-05-15","year":2011,"month":5,"lon":-95.15732,"lat":29.654955,"tags":"3d,crosseye,hooters,pageant,pasadena,texas","S2CellId":"88f5047400000000","result":8718,"accuracy":0.23229814,"title":"Hooters+Texas+Finals+Swimsuit+Pageant%2C+Pasadena%2C+Texas+2011.05.15","description":"033"}
{"id":8088470181,"url":"http://farm9.staticflickr.com/8469/8088470181_f32ec211c5.jpg","path":"721/b59/721b596685fc2530ae7f4386558c6c73.jpg","date":"2012-10-12","year":2012,"month":10,"lon":-95.378845,"lat":29.741161,"tags":"houston,texas,usa","S2CellId":"80c2c63000000000","result":7192,"accuracy":0.024918314,"title":"Houston"}
{"id":199437194,"url":"http://farm1.staticflickr.com/63/199437194_53257dc7ba.jpg","path":"8c2/ea0/8c2ea03114f841702844c081c15aaf50.jpg","date":"2005-05-28","year":2005,"month":5,"lon":-95.38742,"lat":29.764378,"tags":"cumplean%CC%83os,houston,laura","S2CellId":"8620a5c000000000","result":7508,"accuracy":0.02426216}
{"id":294835252,"url":"http://farm1.staticflickr.com/105/294835252_c8cac966c9.jpg","path":"d19/c37/d19c37e2b2c1afaf73664ee0952a6a95.jpg","date":"2006-11-11","year":2006,"month":11,"lon":-95.00092,"lat":29.448425,"tags":"beautiful,bouquet,flowers,fragrant,frangipani,lei,plumeria,texas","S2CellId":"89c6fc0000000000","result":9178,"accuracy":0.020226644,"title":"Plumeria+flower","description":"Copyright%C2%A9+JP+Smith+%2F+Pure+Logic+Co.+for+PlumeriaGrove."}
{"id":12043420945,"url":"http://farm6.staticflickr.com/5479/12043420945_0202abfcc9.jpg","path":"e1a/a89/e1aa891cb43c41adda76875239aa4899.jpg","date":"2014-01-19","year":2014,"month":1,"lon":-95.397804,"lat":29.766893,"tags":"%23houmarathon,2014+houston+marathon,houston,marathon,runner,texas,united+states","S2CellId":"89b7b85000000000","result":8887,"accuracy":0.13716857,"title":"20140119-IMG_1548.jpg"}
{"id":13839701085,"url":"http://farm8.staticflickr.com/7427/13839701085_8c72478d8c.jpg","path":"10b/2d2/10b2d278e0e060232929832047d18d7b.jpg","date":"2014-04-12","year":2014,"month":4,"lon":-95.39096,"lat":29.718372,"tags":"3d,crosseye,festival,houston,japan,texas","S2CellId":"89c8037000000000","result":9187,"accuracy":0.030549431,"title":"Japan+Festival%2C+Hermann+Park%2C+Houston%2C+Texas+2014.04.12","description":"200"}
{"id":81377752,"url":"http://farm1.staticflickr.com/36/81377752_ffe6761d8c.jpg","path":"525/91d/52591d7edddba2de137eb632b18236c.jpg","date":"2005-12-28","year":2005,"month":12,"lon":-95.39149,"lat":29.726492,"tags":"balloons,december+2005,houston,nikon,nikon+d70,rachel,yellow","S2CellId":"30e29ed000000000","result":1671,"accuracy":0.047417123,"title":"Balloons..."}
{"id":463348264,"url":"http://farm1.staticflickr.com/188/463348264_f0c1defc34.jpg","path":"271/89f/27189ff132f011141f7b8f6b49e9b539.jpg","date":"2005-06-20","year":2005,"month":6,"lon":-95.09827,"lat":29.55197,"tags":"2005,johnsonspacecenter,texas,usa,viriolvera","S2CellId":"34693d4000000000","result":2182,"accuracy":0.011737008,"title":"dsc05744.jpg"}
{"id":2622838744,"url":"http://farm4.staticflickr.com/3017/2622838744_3207f530ab.jpg","path":"275/543/275543a84ea84e43f5336640302dd7.jpg","date":"2008-06-29","year":2008,"month":6,"lon":-95.02094,"lat":29.5449,"tags":"kemah","S2CellId":"863f400000000000","result":7539,"accuracy":0.04496874,"title":"Kemah","description":"A+view+of+the+Kemah+roller+coaster+as+seen+from+across+the+marina."}
{"id":8651963896,"url":"http://farm9.staticflickr.com/8102/8651963896_d5f633f3a1.jpg","path":"c87/17e/c8717e639d514e268c26e74f8718381.jpg","date":"2013-04-13","year":2013,"month":4,"lon":-95.3911,"lat":29.718466,"tags":"hermann+park,houston,japan+festival,tx,usa","S2CellId":"89b7b7c400000000","result":8874,"accuracy":0.07467988,"title":"EM5_P4132491"}
{"id":11111034683,"url":"http://farm6.staticflickr.com/5480/11111034683_f06a3e1286.jpg","path":"8e5/f43/8e5f430b7dcedd3da90e6582afd4c87.jpg","date":"2013-11-28","year":2013,"month":11,"lon":-95.36763,"lat":29.75975,"tags":"downtown+houston,equestrian,houston+holiday+parade,parade,thanksgiving+day+parade","S2CellId":"89b7b82c00000000","result":8884,"accuracy":0.12495972,"title":"TEL_4028"}
{"id":12036156493,"url":"http://farm4.staticflickr.com/3797/12036156493_1e12db133e.jpg","path":"dfd/19e/dfd19e7d3e1fbcb1c2ddef04de6ad48.jpg","date":"2014-01-19","year":2014,"month":1,"lon":-95.39699,"lat":29.76728,"tags":"%23houmarathon,2014+houston+marathon,houston,runner,texas,united+states","S2CellId":"8640c10000000000","result":7556,"accuracy":0.6011333,"title":"2014+Houston+Marathon"}
{"id":261951835,"url":"http://farm1.staticflickr.com/120/261951835_a01025b4cf.jpg","path":"ac4/77f/ac477f11bae177632287e80e8364074.jpg","date":"2006-10-05","year":2006,"month":10,"lon":-95.38742,"lat":29.764378,"tags":"david,houston","S2CellId":"0098c00000000000","result":3,"accuracy":0.39299002}
{"id":561284832,"url":"http://farm2.staticflickr.com/1373/561284832_9b88dcf2ae.jpg","path":"127/a36/127a368f4eb876d573744d8f01a5196.jpg","date":"2007-06-15","year":2007,"month":6,"lon":-95.38742,"lat":29.764378,"tags":"claire,houston,martha","S2CellId":"889d000000000000","result":8525,"accuracy":0.07572119}
{"id":3138761033,"url":"http://farm4.staticflickr.com/3224/3138761033_76d475bba6.jpg","path":"1a0/646/1a064661a42b77cf79851c6c66aa6e.jpg","date":"2008-12-25","year":2008,"month":12,"lon":-95.72058,"lat":29.562315,"tags":"christmas,flickr,houston,moore,tx,us","S2CellId":"87f1000000000000","result":8044,"accuracy":0.16607575,"title":"Moore_Christmas_0190"}
{"id":6934323585,"url":"http://farm8.staticflickr.com/7208/6934323585_514c751656.jpg","path":"599/a72/599a720e6df3695bfeb32841650be98.jpg","date":"2012-02-26","year":2012,"month":2,"lon":-95.405045,"lat":29.714611,"tags":"3d,crosseye,houston,tennis,texas,university+of+oklahoma,women%27s","S2CellId":"80daf00000000000","result":7312,"accuracy":0.22830543,"title":"University+of+Oklahoma+at+Rice+University%2C+Houston%2C+Texas+2012.02.26","description":"005"}
{"id":788217546,"url":"http://farm2.staticflickr.com/1431/788217546_a5019b8cb2.jpg","path":"118/def/118defafd33c7592c371f8933f47216.jpg","date":"2006-03-04","year":2006,"month":3,"lon":-95.39429,"lat":29.736563,"tags":"%D7%A8%D7%97%D7%9C+%D7%90%D7%91%D7%99%D7%93%D7%9F-%D7%A7%D7%99%D7%A0%D7%92,david55king,houston,kim%27s+taekwondo,rachel+avidan-king,taekwondo,texas,usa","S2CellId":"5486770000000000","result":6147,"accuracy":0.52525544,"title":"Rachel+20060304m"}
{"id":1395227214,"url":"http://farm2.staticflickr.com/1079/1395227214_ba340adb94.jpg","path":"40c/abf/40cabf64868639187ba6b1e4c33a55a7.jpg","date":"2007-09-16","year":2007,"month":9,"lon":-95.4305,"lat":29.989637,"tags":"houston,national+museum+of+funeral+history","S2CellId":"48761acc00000000","result":5306,"accuracy":0.008261736,"title":"Mourning+Pins%2C+National+Museum+of+Funeral+History","description":"%22Victorian+Mourning+Pins+used+by+the+widow+to+pin+on+her+veil+and+other+accessories.%22"}
{"id":3583703376,"url":"http://farm3.staticflickr.com/2452/3583703376_7b5698aaf1.jpg","path":"f6c/55e/f6c55ed8ee51632e27aa4217444c98a.jpg","date":"2009-05-31","year":2009,"month":5,"lon":-95.38942,"lat":29.721964,"tags":"hmns,houston,terra+cotta+warriors,tx,usa","S2CellId":"3663000000000000","result":2397,"accuracy":0.649107,"title":"IMG_9703"}
{"id":4013840627,"url":"http://farm4.staticflickr.com/3547/4013840627_18869e63e7.jpg","path":"956/b9d/956b9de4e9592724920e6a8be813c.jpg","date":"2009-10-14","year":2009,"month":10,"lon":-95.41077,"lat":29.684977,"tags":"360,houston,live,muse,reliant,stadium,texas,tour,u2,world","S2CellId":"60188bd000000000","result":6480,"accuracy":0.018496314,"title":"U2+in+Houston%2C+Texas+Oct.+2009+%3A%3A+An+open+stadium","description":"Licensed+under+a+creative+commons+share-alike.+Use+freely+but+give+attribution+to+%3Ca+href%3D%22http%3A%2F%2Fwww.casadeblundell.com%22+rel%3D%22nofollow%22%3EJonathan+Blundell%3C%2Fa%3E+and+link+to+%3Ca+href%3D%22http%3A%2F%2Fwww.casadeblundell.com%2Fjonathan%22+rel%3D%22nofollow%22%3Ewww.casadeblundell.com%2Fjonathan%3C%2Fa%3E"}
{"id":7858571818,"url":"http://farm9.staticflickr.com/8305/7858571818_ab2702ced5.jpg","path":"ad6/18c/ad618c9a128262ba1642f969fab2b64a.jpg","date":"2012-08-24","year":2012,"month":8,"lon":-95.64547,"lat":29.626247,"tags":"baseball,roger+clemens,skeeters","S2CellId":"89c2f44000000000","result":9105,"accuracy":0.20949326,"title":"IMG_8080"}
{"id":136000969,"url":"http://farm1.staticflickr.com/55/136000969_cd72948ca8.jpg","path":"114/ade/114adebdf2a7fb9673c2b26d2f11d13.jpg","date":"2006-04-24","year":2006,"month":4,"lon":-95.35552,"lat":29.756311,"tags":"astros,baseball,dodgers,houston,los+angeles+dodgers,minute+maid+park","S2CellId":"89e379f000000000","result":9339,"accuracy":0.12932011,"title":"Dodgers+%40+Astros"}
{"id":3474020372,"url":"http://farm4.staticflickr.com/3551/3474020372_c47eed6e72.jpg","path":"a84/e92/a84e92c4502cce74b695ec559597ff0.jpg","date":"2009-04-24","year":2009,"month":4,"lon":-95.39635,"lat":29.709227,"tags":"houston,zoo","S2CellId":"87d8b54000000000","result":8008,"accuracy":0.01873594,"title":"Pink+Flamingos","description":"Kim+%26+I+visited+the+Houston+Zoo+on+her+birthday."}
{"id":1177774383,"url":"http://farm2.staticflickr.com/1097/1177774383_7b8feb83c7.jpg","path":"f58/482/f584824711b33a77a454c2c7d9b3d.jpg","date":"2007-08-19","year":2007,"month":8,"lon":-95.36345,"lat":29.764023,"tags":"beverly+kills,comcast,david+beebe,dementia+13,foundation,hooston+roller+derby,hrd,mistilla+the+killa,neurofibromatosis,neurofibromatosis+cafe,nf,psycho+ward+sirens,reggie+bibbs,reggiebibbs.com,texas,wordpress","S2CellId":"89c8049000000000","result":9190,"accuracy":0.030729393,"title":"P1080125.JPG"}
{"id":2712548138,"url":"http://farm4.staticflickr.com/3084/2712548138_e913400587.jpg","path":"7cb/bec/7cbbecb7dd13fec06dcd10459d49c06.jpg","date":"2008-07-27","year":2008,"month":7,"lon":-95.36141,"lat":29.761238,"tags":"3d,crosseye,houston,texas","S2CellId":"80c2bf2400000000","result":7178,"accuracy":0.01314822,"title":"Houston+Press+Music+Awards+Showcase%2C+Houston%2C+Texas+2008.07.27","description":"147"}
{"id":6285413776,"url":"http://farm7.staticflickr.com/6101/6285413776_a7a455f343.jpg","path":"1fc/bcc/1fcbccbd421c6e745f7a7b1b9718cc59.jpg","date":"2011-10-22","year":2011,"month":10,"lon":-95.404305,"lat":29.718029,"tags":"3d,crosseye,houston,rice+university,swimming,texas,university+of+miami,women%27s","S2CellId":"89b7c8c000000000","result":8897,"accuracy":0.025195679,"title":"University+of+Miami+at+Rice+University%2C+Houston%2C+Texas+2011.10.22","description":"101"}
{"id":8564931401,"url":"http://farm9.staticflickr.com/8250/8564931401_cd9b3eb28f.jpg","path":"6ed/dd3/6eddd31e17b30695f9a997422eabbf4.jpg","date":"2013-03-13","year":2013,"month":3,"lon":-95.2463,"lat":29.067415,"tags":"birds,freeport,texas,united+states","S2CellId":"88d0a631cabb5071","result":8563,"accuracy":0.089159824,"title":"Brazoria+National+Wildlife+Refuge"}
{"id":2687441980,"url":"http://farm4.staticflickr.com/3240/2687441980_bfb3b0b265.jpg","path":"8d1/a28/8d1a2824b1835b81881effb8c162936.jpg","date":"2008-07-20","year":2008,"month":7,"lon":-95.408104,"lat":29.68518,"tags":"bulldogs,dog,houston,houstonist,shot+by+tony+sodaro,show,sodaro,tonysodaro.com","S2CellId":"5486100000000000","result":6110,"accuracy":0.031405494,"title":"Houston+Dog+Show+7-20-2008+8-31-43+AM"}
{"id":3642014878,"url":"http://farm4.staticflickr.com/3608/3642014878_ef5b372262.jpg","path":"ff2/47a/ff247a32f716d10713b73308b9b50a7.jpg","date":"2009-06-18","year":2009,"month":6,"lon":-95.499344,"lat":29.707289,"tags":"head+start,houston+zoo,neighborhood+centers,new+horizon,pre-school,southwest+houston,zoomobile","S2CellId":"8804c00000000000","result":8073,"accuracy":0.04674751,"title":"NewHorizonZooMobile06190959","description":"The+Houston+Zoo%27s+ZooMobile+visited+New+Horizon+Head+Start+in+southwest+Houston+to+teach+the+pre-school+aged+children+about+reptiles%2C+mammals+and+birds."}
{"id":4763400680,"url":"http://farm5.staticflickr.com/4122/4763400680_abfba7a31d.jpg","path":"9cd/9f4/9cd9f4cec9f2ea3b8316e183d9f77be8.jpg","date":"2010-07-04","year":2010,"month":7,"lon":-95.34117,"lat":29.749466,"tags":"3d,crosseye,houston,texas","S2CellId":"8620a5c000000000","result":7508,"accuracy":0.037402336,"title":"3300+block+Preston+St.%2C+East+End+District%2C+Houston%2C+Texas+2010.07.04","description":"126"}
{"id":8688750905,"url":"http://farm8.staticflickr.com/7054/8688750905_b453422437.jpg","path":"7ae/934/7ae934889ab7d3d488add569e539e768.jpg","date":"2013-04-28","year":2013,"month":4,"lon":-95.416534,"lat":29.719479,"tags":"amaro,instagram+app,iphoneography,square,square+format","S2CellId":"1319ec0000000000","result":982,"accuracy":0.004456881,"title":"Duck+confit%2C+kale+%26+orzo"}
{"id":332010709,"url":"http://farm1.staticflickr.com/153/332010709_0e4b4c307b.jpg","path":"ab3/955/ab395595921d49b67a2d401c2a4bd8f1.jpg","date":"2006-12-24","year":2006,"month":12,"lon":-95.32462,"lat":29.766724,"tags":"abandoned,d70s,december+2006,digital,houston,location,nikon,nikon+d70s,old,photoshoot,rice+mill,rust,texas","S2CellId":"87c0f40000000000","result":7974,"accuracy":0.045127664,"title":"Imminent","description":"The+storm+slowly+rolled+in+during+our+shoot."}
{"id":5247905613,"url":"http://farm6.staticflickr.com/5242/5247905613_2fbc23ed01.jpg","path":"1de/ff4/1deff459e26c22c32f1eb748761d2.jpg","date":"2010-12-09","year":2010,"month":12,"lon":-95.09251,"lat":29.574352,"tags":"houston,johnson+space+center,nasa,olga+luci%CC%81a","S2CellId":"89b7b7a700000000","result":8867,"accuracy":0.012907531}
{"id":375415413,"url":"http://farm1.staticflickr.com/140/375415413_c18c10230a.jpg","path":"e5e/fdd/e5efdde83c4bffd09dc30fb414d6dc3.jpg","date":"2007-01-26","year":2007,"month":1,"lon":-95.46042,"lat":29.746046,"tags":"blue+friday,fashion+show,galleria","S2CellId":"6b93f00000000000","result":6773,"accuracy":0.37643957,"title":"Prf_BluFri_Fash_0165"}
{"id":3578700642,"url":"http://farm4.staticflickr.com/3604/3578700642_db270eac35.jpg","path":"509/1d7/5091d7b1336a2c28949c4776177bed2.jpg","date":"2009-05-02","year":2009,"month":5,"lon":-95.35978,"lat":29.753462,"tags":"%E2%80%9Ccarolyn,1500,90,attractive,beautiful,bob,carolyn,carolyn+wonderland,city,close,concert,concerts,counts,cute,d90,dancing,digital,discovery,downtown,dylan,family-friendly,fans,free,fun,girl,goddess,gorgeous,green,guitar,hot,houston,jam,lawn,life,live,live+music,mckinney,music,nikon,outdoor,park,party,photo,pretty,rock,sexy,show,singer,singing,smile,soul,spot,stage,stunning,sultry,texas,tx,up,vacation,wonderland,wonderland%E2%80%9D,worman","S2CellId":"80dcd7df00000000","result":7356,"accuracy":0.05843468,"title":"Carolyn+Wonderland+at+Discovery+Green"}
{"id":4780003658,"url":"http://farm5.staticflickr.com/4082/4780003658_66c9bd672d.jpg","path":"81c/357/81c357f8868e116b17e9268f2ced22.jpg","date":"2010-07-09","year":2010,"month":7,"lon":-95.38987,"lat":29.721954,"tags":"amorphophallus,amorphophallus+titanum,cockrell+butterfly+center,corpse+flower,endangered+flower,endangered+plant,evolution,exotic+flower,exotic+plant,flower,hmns,horticulture,houston+museum+of+natural+science,plants+of+sumatra,rare,rare+plant,smelly+flower,sumatra","S2CellId":"8085874500000000","result":6974,"accuracy":0.026905052,"title":"7.10.10+Amorphophallus+titanum","description":"Learn+more+about+this+extraordinary+flower+-+and+follow+its+progress+-+%3Ca+href%3D%22http%3A%2F%2Fblog.hmns.org%2F%3Ftag%3Dlois%22+rel%3D%22nofollow%22%3Eon+the+HMNS+blog%21%3C%2Fa%3E"}
{"id":5308080198,"url":"http://farm6.staticflickr.com/5210/5308080198_45a188480b.jpg","path":"b83/061/b8306117f61222a28be329cb14ace2.jpg","date":"2010-12-30","year":2010,"month":12,"lon":-95.44915,"lat":29.768051,"tags":"arboretum,christmas+2010,houston","S2CellId":"864e640000000000","result":7620,"accuracy":0.06462778,"title":"Arboretum","description":"At+the+Houston+Arboretum+with+Grandma."}
{"id":7877962502,"url":"http://farm8.staticflickr.com/7110/7877962502_bffd1c6857.jpg","path":"b6f/267/b6f2679718aee7f914b6c783e6abfd9.jpg","date":"2012-04-14","year":2012,"month":4,"lon":-95.42487,"lat":29.752806,"tags":"2012,april,atp+tour,canon+70-200mm+2.8+l+is,canon+7d,houston,james+blake,river+oaks+country+club,tennis,texas,us+men%27s+clay+court+championship","S2CellId":"47e1c00000000000","result":4530,"accuracy":0.15519176,"title":"IMG_6884"}
{"id":306054964,"url":"http://farm1.staticflickr.com/102/306054964_0d1a735f6a.jpg","path":"c7e/78d/c7e78db2be581ed5c9df91afaca52db.jpg","date":"2006-10-21","year":2006,"month":10,"lon":-95.36119,"lat":29.751808,"tags":"hotel,houston,texas","S2CellId":"8640bf3000000000","result":7552,"accuracy":0.08831209,"title":"Houston+01"}
{"id":1978973918,"url":"http://farm3.staticflickr.com/2082/1978973918_2797db3a36.jpg","path":"4c7/d82/4c7d82bb322c85ffce75cb70a63118.jpg","date":"2007-11-10","year":2007,"month":11,"lon":-95.37212,"lat":29.760298,"tags":"aga+khan+foundation,akf,partnership+walk,sam+houston+park","S2CellId":"883b2d2400000000","result":8342,"accuracy":0.2554853,"title":"Partnership+Walk+2007+C+060.jpg"}
{"id":4025024602,"url":"http://farm3.staticflickr.com/2504/4025024602_a311785431.jpg","path":"72e/496/72e4961c679b8de91b22c8293e27389d.jpg","date":"2009-10-14","year":2009,"month":10,"lon":-95.408066,"lat":29.685312,"tags":"bono,concert,houston,live,music,reliant,stadium,texas,u2,u2360","S2CellId":"80c2b94000000000","result":7162,"accuracy":0.032248527,"title":"Bono","description":"U2+360+concert+live+%40+Reliant+Stadium.+Houston%2C+TX+10%2F14%2F09."}
{"id":4820872022,"url":"http://farm5.staticflickr.com/4137/4820872022_8414fd1275.jpg","path":"816/661/816661f9cbb0cf8ed7ddd7188fa2be6a.jpg","date":"2010-07-21","year":2010,"month":7,"lon":-95.391884,"lat":29.747948,"tags":"b%2Fw,bar,black,city,drainage,end,flag,gay,gayborhood,glass,houston,montrose,neighborhood,plants,pretty,tales,texas,thetalesend,tx,white","S2CellId":"89e3709c00000000","result":9318,"accuracy":0.008824363}
{"id":5068527193,"url":"http://farm5.staticflickr.com/4154/5068527193_2cd5a91dec.jpg","path":"555/b52/555b52735f2d9e5dadf7645bb02d5b.jpg","date":"2004-09-24","year":2004,"month":9,"lon":-95.77123,"lat":29.577648,"tags":"fort+bend+county,fort+bend+county+fair+parade,parade","S2CellId":"88e5d00000000000","result":8657,"accuracy":0.024792641,"title":"Fair_parade_2004_74"}
{"id":6610247247,"url":"http://farm8.staticflickr.com/7166/6610247247_c1676b8e7c.jpg","path":"e90/b79/e90b7986d3ad7d3c9b66a1ac06a275.jpg","date":"2011-12-23","year":2011,"month":12,"lon":-95.39043,"lat":29.71791,"tags":"houston,monument,zoo","S2CellId":"8640bfc000000000","result":7555,"accuracy":0.19854082,"title":"mini+washington+monument"}
{"id":417137877,"url":"http://farm1.staticflickr.com/174/417137877_5ec04fc261.jpg","path":"896/664/896664e416fcb5159bb6971fa97ff753.jpg","date":"2007-03-10","year":2007,"month":3,"lon":-95.35541,"lat":29.756609,"tags":"2004,al_hikesaz,all-star+game,ballpark,baseball,enron,houston,league,major,major+league+baseball,minute+maid,minute+maid+ballpark,mlb,park,stadium","S2CellId":"864e840000000000","result":7627,"accuracy":0.04293805,"title":"Minute+Maid+Ballpark+from+Hilton+Americas+Hotel+-+MLB+All+Star+Game+2004+Houston","description":"View+from+our+hotel.++2004+MLB+All-Star+Baseball+Game+2004+in+Houston+at+Minutemaid+Stadium.++This+was+Enron+Field+before+that+debacle."}
{"id":1810999325,"url":"http://farm3.staticflickr.com/2120/1810999325_85887ccaf1.jpg","path":"12f/3e8/12f3e8538f3cddcdb2d6a4657bdbdc.jpg","date":"2007-10-31","year":2007,"month":10,"lon":-95.41476,"lat":29.788364,"tags":"eleanor","S2CellId":"886b570000000000","result":8492,"accuracy":0.053274475,"title":"Halloween-ing+Clarks","description":"During+the+parade+up+the+streets+in+our+neighborhood."}
{"id":2276229876,"url":"http://farm3.staticflickr.com/2023/2276229876_48f23e336a.jpg","path":"a19/413/a19413c691adc89e3294fedb2b767e.jpg","date":"2008-02-17","year":2008,"month":2,"lon":-95.39377,"lat":29.71344,"tags":"2008,40d,canon+70-200mm+4.0+l+is,extender+1.4x,february,houston,houston+zoo,monk+saki,texas","S2CellId":"464b400000000000","result":2815,"accuracy":0.02165758,"title":"Reaching+out","description":"I+know+it+looks+like+he%27s+reaching+out+and%2For+contemplating+his+hand%2C+but+in+reality%2C+it%27s+just+that+this+is+the+best+position+for+scratching+one%27s+armpit."}
{"id":2905678599,"url":"http://farm4.staticflickr.com/3115/2905678599_5feb842128.jpg","path":"d22/49b/d2249be6dbe1778cbf8a9a44d7ab99.jpg","date":"2008-10-01","year":2008,"month":10,"lon":-95.456345,"lat":29.69797,"tags":"arachnid,macro,pentaxk20d,salticidae,spider,texas","S2CellId":"4875bc0000000000","result":5166,"accuracy":0.13715956,"title":"K20D3409_cr","description":"Anasaitis+canosa+%28Twinflagged+Jumping+Spider%29"}
{"id":8304076675,"url":"http://farm9.staticflickr.com/8075/8304076675_2357b13b7a.jpg","path":"cee/44c/cee44cf4dcd2a6c8b54d60949c48aa87.jpg","date":"2012-11-17","year":2012,"month":11,"lon":-95.58466,"lat":29.962166,"tags":"braunwedding","S2CellId":"8085808700000000","result":6942,"accuracy":0.04239735,"title":"The+happy+couple%21+%23braunwedding","description":"1+Likes+on+Instagram"}
{"id":312906316,"url":"http://farm1.staticflickr.com/120/312906316_688a2f68fe.jpg","path":"447/f99/447f99f95bb4bb858f3458e05e5003b.jpg","date":"2006-11-24","year":2006,"month":11,"lon":-95.5932,"lat":29.628422,"tags":"430ex,85mm,canon,f18,portrait","S2CellId":"89c2f61000000000","result":9109,"accuracy":0.15096022,"title":"Mousestaches","description":"My+daughter+and+her+friend%2C+mugging+for+the+camera.++It+took+significant+prodding+to+get+them+to+do+this%2C+then+I+had+to+pull+some+slight-of-hand+to+keep+them+from+deleting+the+photos.++Lesson%3A+keep+a+spare+card+around+when+you+are+photographing+teens%21"}
{"id":2897464677,"url":"http://farm4.staticflickr.com/3070/2897464677_ac7434f303.jpg","path":"be6/9c3/be69c35c8c5fe6167d6acae8abb956a.jpg","date":"2008-09-28","year":2008,"month":9,"lon":-95.383064,"lat":29.71008,"tags":"birthday,children,cole,party,seth","S2CellId":"5485500000000000","result":6101,"accuracy":0.10281339,"title":"Seth%27s+2nd+Birthday"}
{"id":364230823,"url":"http://farm1.staticflickr.com/99/364230823_64854880a6.jpg","path":"633/8c8/6338c8d24bbd5423c54eba6121539898.jpg","date":"2007-01-20","year":2007,"month":1,"lon":-95.400856,"lat":29.742615,"tags":"assignmenthouston9,cc,houston,meet+up,meetup+assignment+houston+%239+flickr,photosafari,red,westheimer","S2CellId":"6b13400000000000","result":6709,"accuracy":0.0033890186,"title":"Flickr+Houston+Meetup+2007+-+23"}
{"id":787559123,"url":"http://farm2.staticflickr.com/1047/787559123_0d1864979f.jpg","path":"d39/28e/d3928e9931e5c9f94035743ab3bafec.jpg","date":"2007-07-12","year":2007,"month":7,"lon":-95.470604,"lat":29.678741,"tags":"david55king,houston,texas,usa","S2CellId":"864e640000000000","result":7620,"accuracy":0.004405614,"title":"Braes+Bayou+20070406c"}
{"id":2819036599,"url":"http://farm4.staticflickr.com/3009/2819036599_685874a13e.jpg","path":"789/bca/789bcae10578f47900118d81f1c.jpg","date":"2008-09-01","year":2008,"month":9,"lon":-95.383064,"lat":29.71008,"tags":"backyard,closeup,moth","S2CellId":"80dd317000000000","result":7376,"accuracy":0.030329406,"title":"Moth+Monster"}
{"id":5525321220,"url":"http://farm6.staticflickr.com/5294/5525321220_d7219f0e29.jpg","path":"ecf/946/ecf94686afad27594541d2eb7b3da337.jpg","date":"2011-03-14","year":2011,"month":3,"lon":-95.37523,"lat":29.760223,"tags":"2011,aidswalk,hot+men","S2CellId":"7953d00000000000","result":6866,"accuracy":0.066305324,"title":"IMG_8368.jpg"}
{"id":5854626883,"url":"http://farm6.staticflickr.com/5269/5854626883_d188c5855e.jpg","path":"745/91c/74591c8b75e62aca237ad59f92cf9aa.jpg","date":"2011-06-17","year":2011,"month":6,"lon":-95.0192,"lat":29.54755,"tags":"audrey,cathy,granddaughter,kemah,kemahboardwalk,texas","S2CellId":"12b6ac0000000000","result":818,"accuracy":0.041819375,"title":"Cat+%26+Aud+2","description":"Cathy+and+Audrey+clowning+around+on+the+Kemah+Boardwalk"}
{"id":4820896268,"url":"http://farm5.staticflickr.com/4135/4820896268_7b2e636a03.jpg","path":"8e4/cf5/8e4cf53b6bb2e06fa33fdd1cb5997e.jpg","date":"2010-07-21","year":2010,"month":7,"lon":-95.391884,"lat":29.747948,"tags":"b%2Fw,bar,black,city,drainage,end,flag,gay,gayborhood,glass,houston,montrose,neighborhood,plants,pretty,tales,texas,thetalesend,tx,white","S2CellId":"8620a5c000000000","result":7508,"accuracy":0.15819421}
{"id":5288710116,"url":"http://farm6.staticflickr.com/5126/5288710116_3b9c0e8915.jpg","path":"636/e56/636e564f696be7a89d23eda134e3ff.jpg","date":"2010-12-24","year":2010,"month":12,"lon":-95.48961,"lat":29.737745,"tags":"1560,1560+the+game,houston","S2CellId":"8620a5c000000000","result":7508,"accuracy":0.10866632,"title":"DSCF4746"}
{"id":5704841341,"url":"http://farm3.staticflickr.com/2803/5704841341_e7c79d6399.jpg","path":"49b/c23/49bc23c9c1923f7a3b2bbf72d28be82.jpg","date":"2011-05-07","year":2011,"month":5,"lon":-95.61866,"lat":29.374105,"tags":"bird,black,brazos+bend+state+park,down,flying,heron,wings","S2CellId":"88d0a631cabb5071","result":8563,"accuracy":0.13023016,"title":"Flying+Black+Night+Heron","description":"That%27s+my+best+guess+as+to+the+type+of+bird+based+on+our+location+and+its+similarity+to+other+herons+we+saw.++Anyone+know+for+sure%3F"}
{"id":2969664504,"url":"http://farm4.staticflickr.com/3204/2969664504_34298f5ff4.jpg","path":"a71/b8b/a71b8b9bcd3120285a164fdcf5d1c433.jpg","date":"2008-10-22","year":2008,"month":10,"lon":-95.36695,"lat":29.76203,"tags":"conference,hima,interactive,social+media","S2CellId":"86cc000000000000","result":7689,"accuracy":0.1519867,"title":"Session+Attendee"}
{"id":6401904501,"url":"http://farm7.staticflickr.com/6213/6401904501_b4985afdc8.jpg","path":"788/476/788476cb533043f8aae982254d98ae98.jpg","date":"2011-11-16","year":2011,"month":11,"lon":-95.15705,"lat":29.556137,"tags":"nasa,texas,usa","S2CellId":"89b6440000000000","result":8829,"accuracy":0.014638851,"title":"NASA+-+Johnson+Space+Centre"}
{"id":1280789153,"url":"http://farm2.staticflickr.com/1391/1280789153_bd47d6c9bd.jpg","path":"361/d37/361d37c824aeed919c1f78ed75ce7389.jpg","date":"2007-08-08","year":2007,"month":8,"lon":-95.35552,"lat":29.756311,"tags":"astros,baseball,chicago+cubs,cubs,houston,houston+astros,minute+maid+park","S2CellId":"89e3709400000000","result":9317,"accuracy":0.075301826,"title":"where+did+everyone+else+go%3F"}
{"id":1683932806,"url":"http://farm3.staticflickr.com/2343/1683932806_d52439d7ee.jpg","path":"bc2/bd2/bc2bd291b16bbdb41ab59aa85209a7a.jpg","date":"2007-10-20","year":2007,"month":10,"lon":-95.35914,"lat":29.750797,"tags":"3d,cosplay,crosseye,houston,oni-con,texas","S2CellId":"31da0c0000000000","result":1835,"accuracy":0.032136444,"title":"Oni-Con%2C+Houston%2C+Texas+2007.10.20","description":"364"}
{"id":4628090967,"url":"http://farm4.staticflickr.com/3334/4628090967_37973a16a3.jpg","path":"adf/895/adf8957e4dc7f0bc5d36b3a3a520a18.jpg","date":"2010-05-21","year":2010,"month":5,"lon":-95.26797,"lat":29.540064,"tags":"3d,crosseye,katy+high+school,pearland,pearland+high+school,softball,texas","S2CellId":"8753400000000000","result":7846,"accuracy":0.088060506,"title":"Katy+Tigers+at+Pearland+Oilers%2C+5A+Region+3+Semifinals%2C+Pearland%2C+Texas+2010.05.21","description":"011"}
{"id":6081555478,"url":"http://farm7.staticflickr.com/6191/6081555478_7c5215cfd2.jpg","path":"a9a/bc5/a9abc5b1a4f74a280ca1923df6aa1ea.jpg","date":"2011-08-25","year":2011,"month":8,"lon":-95.14332,"lat":29.552479,"tags":"clear+lake+city,houston,piper%27s+meadow,texas","S2CellId":"87c0ef0000000000","result":7973,"accuracy":0.006810961,"title":"Broken+Water+Main","description":"This+summer+has+been+so+hot+and+dry+in+Houston+that+the+ground+has+been+shifting%2C+such+that+water+pipes+are+breaking+everywhere.+As+of+today+%28Aug.+25th%29%2C+the+city+says+it+has+over+700+that+it+knows+it+has+to+fix.+That%27s+down+from+over+1000+sometime+last+week.+This+is+one+in+our+neighborhood.+I%27ve+seen+others%2C+which+have+been+repaired."}
{"id":6949335636,"url":"http://farm6.staticflickr.com/5034/6949335636_86e5a18b43.jpg","path":"3a4/a97/3a4a97ded125157c844ea9eb352f7e43.jpg","date":"2012-04-17","year":2012,"month":4,"lon":-95.12721,"lat":29.68714,"tags":"3d,alief+elsik+high+school,crosseye,deer+park,tennis,texas","S2CellId":"4cc9194000000000","result":5884,"accuracy":0.111757964,"title":"5A+Region+3+Tournament%2C+Deer+Park%2C+Texas+2012.04.17","description":"158.+Court+9%3A+Boys+Singles%2C+Alief+Elsik"}
{"id":8110881566,"url":"http://farm9.staticflickr.com/8190/8110881566_a80b237106.jpg","path":"eba/3c0/eba3c01de915926889d3ea321bee4f8.jpg","date":"2012-10-20","year":2012,"month":10,"lon":-95.34038,"lat":29.744947,"tags":"texas+hb%26t+houston+houston+belt+%26+terminal.+railroad+union+pacific+milby+street+railway+roundhouse+turnatble+tx,tx","S2CellId":"4cc9140000000000","result":5881,"accuracy":0.021200169,"title":"Houston+Belt+%26+Terminal+%28HB%26T%29+on+Milby+Street+Roundhouse+Turntable","description":"The+old+Houston+Belt+%26+Terminal+%28HB%26T%29+on+Milby+Street+Roundhouse+Turntable+which+is+still+in+use.%0A%0AThanks+in+advance+for+your+Comments+and+Favs.++Norm+Lanier"}
{"id":8916164861,"url":"http://farm6.staticflickr.com/5452/8916164861_6477bbccda.jpg","path":"7ea/db2/7eadb2a0975d4b5d27ae9ab25c3d9af.jpg","date":"2013-06-01","year":2013,"month":6,"lon":-95.08955,"lat":29.756033,"tags":"panda+filter,uss+texas+%28bb-35%29","S2CellId":"8640a40000000000","result":7543,"accuracy":0.20232183,"title":"A+grand+old+lady."}
{"id":316201170,"url":"http://farm1.staticflickr.com/110/316201170_c6e2358657.jpg","path":"1b8/151/1b815194d4a1918826a87bf522e4d87.jpg","date":"2006-11-30","year":2006,"month":11,"lon":-95.38742,"lat":29.764378,"tags":"houston,santiago","S2CellId":"808f770000000000","result":7015,"accuracy":0.034299977}
{"id":2266937475,"url":"http://farm3.staticflickr.com/2369/2266937475_deb0b4d7ec.jpg","path":"ec9/899/ec9899153a424cc9824fc982e45f66.jpg","date":"2008-02-15","year":2008,"month":2,"lon":-95.481705,"lat":29.760986,"tags":"18-200os,canon,sigma","S2CellId":"48761ca510000000","result":5337,"accuracy":0.008014594,"title":"Francis","description":"Frank+plays+tennis%2C+so+we+gave+him+tiny+short-shorts+with+his+name+embroidered."}
{"id":4428065470,"url":"http://farm3.staticflickr.com/2794/4428065470_84fd9aa5fc.jpg","path":"c9b/b38/c9bb38cd8c275aacbbbe5d96f0a335.jpg","date":"2010-03-12","year":2010,"month":3,"lon":-95.372665,"lat":29.746916,"tags":"eye-fi,houston,texas,united+states","S2CellId":"880519c000000000","result":8080,"accuracy":0.019692948,"title":"IMG_9588.JPG","description":"Effortlessly+uploaded+by+%3Ca+href%3D%22http%3A%2F%2Fwww.eye.fi%22+rel%3D%22nofollow%22%3EEye-Fi%3C%2Fa%3E%0A%0AStraight+out+of+camera"}
{"id":6239128584,"url":"http://farm7.staticflickr.com/6155/6239128584_e8874cdf65.jpg","path":"d35/bc3/d35bc334def2f5debcdceaeafdeceb1.jpg","date":"2011-10-08","year":2011,"month":10,"lon":-95.405045,"lat":29.714611,"tags":"3d,crosseye,houston,tennis,texas,university+of+texas,women%27s","S2CellId":"88d9b5c000000000","result":8598,"accuracy":0.16607799,"title":"Rice+University+Invitational%2C+Houston%2C+Texas+2011.10.08","description":"289"}
{"id":6888138954,"url":"http://farm8.staticflickr.com/7132/6888138954_5c6ca1f5dc.jpg","path":"d4a/d86/d4ad86ff12272259139be8e31c6fa687.jpg","date":"2012-03-24","year":2012,"month":3,"lon":-95.35924,"lat":29.753695,"tags":"3d,crosseye,discovery+green,fashion,festival,houston,texas,vietnamese","S2CellId":"8640bf3000000000","result":7552,"accuracy":0.35426793,"title":"Vietnamese+Festival%2C+Discovery+Green%2C+Houston%2C+Texas+2012.03.24","description":"618"}
{"id":9541502370,"url":"http://farm6.staticflickr.com/5537/9541502370_727dcdea4e.jpg","path":"593/acd/593acd862ab2f79dfaee42cb86c759.jpg","date":"2013-03-29","year":2013,"month":3,"lon":-95.36566,"lat":29.763353,"tags":"houston,theater,wortham","S2CellId":"4786c6d000000000","result":3605,"accuracy":0.025109623}
{"id":21026511,"url":"http://farm1.staticflickr.com/15/21026511_8cfab9d360.jpg","path":"19b/1be/19b1be523ace0b0952c1ccecf8b8f.jpg","date":"2005-06-22","year":2005,"month":6,"lon":-95.53619,"lat":29.731487,"tags":"laptop,naturetech,notebook,opensolaris,portable,solaris,sparc,sunhelp,ultrasparc,unix,workstation","S2CellId":"54906d0000000000","result":6220,"accuracy":0.0065873796,"title":"meso999-08"}
{"id":3692173937,"url":"http://farm3.staticflickr.com/2443/3692173937_2b73d6ca6f.jpg","path":"c34/3c5/c343c565959f5f7d594716cf6b23ee.jpg","date":"2009-06-30","year":2009,"month":6,"lon":-95.423676,"lat":29.0354,"tags":"cat,siamese+cat","S2CellId":"8814b00000000000","result":8185,"accuracy":0.009636804,"title":"DSC03731"}
{"id":4475773612,"url":"http://farm5.staticflickr.com/4003/4475773612_3c16b3c967.jpg","path":"bf7/be4/bf7be47aa60bbf3aa4b8833f47622a.jpg","date":"2010-03-27","year":2010,"month":3,"lon":-95.405045,"lat":29.714611,"tags":"3d,crosseye,houston,rice+university,tennis,texas,women%27s","S2CellId":"87b6f00000000000","result":7946,"accuracy":0.06260958,"title":"Ohio+State+University+at+Rice+University%2C+Houston%2C+Texas+2010.03.27","description":"174.+Jessica+Jackson+%28Rice%29"}
{"id":5469298759,"url":"http://farm6.staticflickr.com/5056/5469298759_9d16852cf9.jpg","path":"b34/a7b/b34a7b24dfa67987b37e84d1188c4e78.jpg","date":"2011-02-22","year":2011,"month":2,"lon":-95.75697,"lat":29.722885,"tags":"learning+film+photography,nikon+fm2","S2CellId":"487602b000000000","result":5187,"accuracy":0.008189618,"title":"Free+Guitar","description":"The+first+one+where+I+felt+comfortable+adjusting+shutter+speed+and+aperture.+Look%2C+I+even+kind+of+showed+a+slight+understanding+of+depth+of+field%21%0A%0AAnd+this+guitar%3F+Found+it+on+someone%27s+curb%2C+next+to+the+trash.+Someone+was+throwing+it+out%21+So+I+took+it%2C+had+a+few+small+repairs+done%2C+and+it+plays...+decently."}
{"id":8488043200,"url":"http://farm9.staticflickr.com/8390/8488043200_85100ecfdd.jpg","path":"f96/fbd/f96fbd3cfb5ed7f59b9db3b1e30dd7d.jpg","date":"2013-02-10","year":2013,"month":2,"lon":-95.389694,"lat":29.72175,"tags":"%23pixelparty,egg,faberge%CC%81,hmns,houston,houston+museum+of+natural+science,jeweled+egg,tx,usa","S2CellId":"48761b3240000000","result":5320,"accuracy":0.046005495,"title":"EM5_P2102315"}
{"id":389634967,"url":"http://farm1.staticflickr.com/175/389634967_088ed10de0.jpg","path":"bcc/73b/bcc73baa7c6a4ffca38c1110f3e27c7.jpg","date":"2007-02-11","year":2007,"month":2,"lon":-95.405045,"lat":29.714611,"tags":"3d,auburn+university,crosseye,houston,rice+university,tennis,texas","S2CellId":"47c3c24000000000","result":4197,"accuracy":0.0156197045,"title":"Women%27s+Tennis%2C+Auburn+%28%2375%29+at+Rice+%28%2362%29%2C+Houston%2C+Texas+2007.02.11","description":"172.+%2384+Fani+Chifchieva+%28AU%29"}
{"id":1178768912,"url":"http://farm2.staticflickr.com/1140/1178768912_b0c8abd9a3.jpg","path":"bd0/b97/bd0b9762e669aa155ec543e4fc5f0.jpg","date":"2007-08-19","year":2007,"month":8,"lon":-95.36345,"lat":29.764023,"tags":"beverly+kills,comcast,david+beebe,dementia+13,foundation,hooston+roller+derby,hrd,mistilla+the+killa,neurofibromatosis,neurofibromatosis+cafe,nf,psycho+ward+sirens,reggie+bibbs,reggiebibbs.com,texas,wordpress","S2CellId":"89c259b400000000","result":9036,"accuracy":0.031101689,"title":"Carmen+Geddit+and+Reggie"}
{"id":1427584053,"url":"http://farm2.staticflickr.com/1248/1427584053_e8299e2c31.jpg","path":"9a2/d31/9a2d3157cf194df7b13f6077eca65.jpg","date":"2007-09-22","year":2007,"month":9,"lon":-95.331116,"lat":29.776215,"tags":"houston","S2CellId":"8627000000000000","result":7532,"accuracy":0.037973065,"title":"Field+of+Vision+2"}
{"id":3849241802,"url":"http://farm3.staticflickr.com/2662/3849241802_b808d93324.jpg","path":"67f/c2d/67fc2ddcdf013f103bbf4d8ca99af.jpg","date":"2009-08-16","year":2009,"month":8,"lon":-95.08892,"lat":29.75193,"tags":"battleship+texas,evan","S2CellId":"80deaa4000000000","result":7386,"accuracy":0.014251528,"title":"DSC03861.JPG"}
{"id":4560964423,"url":"http://farm4.staticflickr.com/3219/4560964423_8d5458d083.jpg","path":"669/3db/6693db08facdd225d446db3e373e980.jpg","date":"2010-04-21","year":2010,"month":4,"lon":-95.38987,"lat":29.721954,"tags":"amazing,arthropods,atlas+beetle,bugs,butterfly+center,cockrell+butterfly+center,colorful,exoskeleton,exotic+insects,giant+atlas+beetle,houston,houston+museum+of+natural+science,insects,live+insects,one+of+the+largest+beetles+in+the+world","S2CellId":"0d4228d000000000","result":378,"accuracy":0.005066813,"title":"Giant+Atlas+Beetle","description":"Atlas+Beetles+take+3+years+to+reach+adulthood.+They+are+a+really+big+grub+for+a+really+long+time.+%0A%0AMost+people+are+familiar+with+%3Ca+href%3D%22http%3A%2F%2Fwww.hmns.org%2Fsee_do%2Fbutterfly_center.asp%22+rel%3D%22nofollow%22%3Eour+butterflies%3C%2Fa%3E%2C+but+we+also+have+some+*amazing*+live+insects+in+our+collection.+Some+are+on+display+in+the+%3Ca+href%3D%22http%3A%2F%2Fwww.hmns.org%2Fsee_do%2Fbutterfly_center%2Fhall_of_entomology.asp%22+rel%3D%22nofollow%22%3EHall+of+Entomology%3C%2Fa%3E%2C+and+some+go+out+to+schools+through+our+%3Ca+href%3D%22http%3A%2F%2Fwww.hmns.org%2Feducation%2Fteachers%2Foutreach_programs.asp%23Bugs%22+rel%3D%22nofollow%22%3EBugs+on+Wheels%3C%2Fa%3E+program.+Our+entomologist%2C+Erin+M%2C+raises+these+amazing+arthropods%2C+and+she+let+us+invade+their+abode+with+a+couple+of+cameras+recently.+We+came+away+with+these+photos%2C+and+hopefully+a+pretty+cool+video+series+%28coming+soon%21%29"}
{"id":7239282984,"url":"http://farm9.staticflickr.com/8009/7239282984_0fa99a79bd.jpg","path":"f1d/c3e/f1dc3e698d40cb894b639513d533af99.jpg","date":"2012-05-12","year":2012,"month":5,"lon":-95.3766,"lat":29.760223,"tags":"3d,art+car,crosseye,houston,parade,texas","S2CellId":"88e7809900000000","result":8681,"accuracy":0.005929841,"title":"Art+Car+Parade%2C+Houston%2C+Texas+2012.05.12","description":"354"}
{"id":198542045,"url":"http://farm1.staticflickr.com/47/198542045_3b668cd97f.jpg","path":"17a/e5e/17ae5eb53e40ea3657bacc015d9975a.jpg","date":"2004-07-09","year":2004,"month":7,"lon":-95.38742,"lat":29.764378,"tags":"gloria,houston","S2CellId":"808dfc0000000000","result":6999,"accuracy":0.019085178}
{"id":2776553029,"url":"http://farm3.staticflickr.com/2062/2776553029_947a0603ce.jpg","path":"c6c/ee2/c6cee224f7881fad5945ed48ef12aa7.jpg","date":"2005-05-29","year":2005,"month":5,"lon":-95.77643,"lat":29.806818,"tags":"houston","S2CellId":"3663000000000000","result":2397,"accuracy":0.3163751,"title":"DSC_2294"}
{"id":7207864234,"url":"http://farm9.staticflickr.com/8142/7207864234_66ce1ec6c6.jpg","path":"80e/c6e/80ec6e2f2a82dab4b78a87ce5325125.jpg","date":"2012-05-12","year":2012,"month":5,"lon":-95.38642,"lat":29.744402,"tags":"3d,avant+garden,belly+dance,crosseye,houston,texas,viva+las+senoritas","S2CellId":"8752f53000000000","result":7840,"accuracy":0.2108449,"title":"Viva+Las+Senoritas%2C+Avant+Garden%2C+Houston%2C+Texas+2012.05.11","description":"090.+Kat+Denson"}
{"id":35161916,"url":"http://farm1.staticflickr.com/23/35161916_866d1e7e82.jpg","path":"65d/3b0/65d3b061a6c396d30e24bc8ca7ad487.jpg","date":"2005-08-17","year":2005,"month":8,"lon":-95.35552,"lat":29.756311,"tags":"astros,baseball,chicago+cubs,cubs,houston,houston+astros,minute+maid+park","S2CellId":"89e379f000000000","result":9339,"accuracy":0.13961306,"title":"Chicago+Cubs+vs.+Houston+Astros+%40+Minute+Maid+Park","description":"First+Cubs+game+I%27ve+seen+in+person+at+Minute+Maid+where+they+actually+won."}
{"id":1573728312,"url":"http://farm3.staticflickr.com/2218/1573728312_f640206d9b.jpg","path":"161/efa/161efabc67d4932e869972735efa335e.jpg","date":"2007-08-27","year":2007,"month":8,"lon":-95.38714,"lat":29.721237,"tags":"breast+cancer+awareness+month,pink,rose","S2CellId":"6d318a3000000000","result":6816,"accuracy":0.013655527,"title":"Pink+for+a+day","description":"In+honor+of++%3Ca+href%3D%22http%3A%2F%2Fwww.nbcam.com%2F%22%3E+National+Breast+Cancer+Awareness+Month%3C%2Fa%3E."}
{"id":2505576941,"url":"http://farm4.staticflickr.com/3256/2505576941_e325018b36.jpg","path":"b0d/916/b0d916e4463ced1a413dcca3e2e47c8f.jpg","date":"2005-01-07","year":2005,"month":1,"lon":-95.45947,"lat":29.705898,"tags":"all+natural,backyard,barefoot,barfu%C3%9F,barfuss,bellaire,blond,blue+shirt,blur,building,dog+house,hoodie,in+the+backyard,no+makeup,pliers,sarah,texas,three+dog+houses,tool,tools,without+makeup","S2CellId":"548ff00000000000","result":6177,"accuracy":0.07045483,"title":"This+is+a+game%21","description":"To+play+along%2C+try+to+figure+out+what+i+was+trying+to+focus+on+in+this+picture.++I%27d+love+to+say+my+skills+have+improved...++Anyway%2C+this+is+an+old+picture+of+Sarah+working+on+one+of+the+dog+houses+that+have+been+ignored+for+three+or+four+years+now."}
{"id":4224001712,"url":"http://farm3.staticflickr.com/2526/4224001712_8266d7fd67.jpg","path":"262/946/262946a6e680103812212d3eda1fce6.jpg","date":"2009-12-26","year":2009,"month":12,"lon":-95.39101,"lat":29.713774,"tags":"naturalgeometry","S2CellId":"8814d00000000000","result":8186,"accuracy":0.015109854,"title":"Texas+-+Dec+09"}
{"id":4468782766,"url":"http://farm5.staticflickr.com/4059/4468782766_d0a4d02a55.jpg","path":"61b/af3/61baf384c37c4627f7f1707667d9dc1.jpg","date":"2010-03-27","year":2010,"month":3,"lon":-95.39108,"lat":29.714714,"tags":"hermann+park,houston,houston+camera+club,houston+zoo,plants,trees,tx,usa","S2CellId":"8620af4000000000","result":7522,"accuracy":0.20471497,"title":"20100327_P3270755"}
