{"id":2303092957,"url":"http://farm3.staticflickr.com/2229/2303092957_9245d65b8c.jpg","path":"5bf/b71/5bfb71df74a4a755a54a3cb32b5d25.jpg","date":"2008-02-23","year":2008,"month":2,"lon":-56.996212,"lat":-37.266743,"tags":"amanecer,beach,ciudad+costera,costa,febrero,gesell,sunrise,vacaciones,vacations,verano","S2CellId":"6b91040000000000","result":6747,"accuracy":0.033577956,"title":"Amanecer+7%3A31+am"}
{"id":5759371800,"url":"http://farm4.staticflickr.com/3253/5759371800_a175b44bf3.jpg","path":"b2b/bec/b2bbec38a8f1fe2c742f6fcccc96aab.jpg","date":"2011-05-10","year":2011,"month":5,"lon":-56.9033,"lat":-37.16506,"tags":"argentina,buenos+aires,carilo","S2CellId":"0d56c00000000000","result":472,"accuracy":0.009385621,"title":"Texturas","description":"Pared+del+centro+comercial+de+Caril%C3%B3%2C+provincia+de+Buenos+Aires%2C+Argentina."}
{"id":109637359,"url":"http://farm1.staticflickr.com/39/109637359_429122c290.jpg","path":"ab1/9cb/ab19cb7792b11b4b13e82fb677383c.jpg","date":"2006-02-18","year":2006,"month":2,"lon":-56.725845,"lat":-36.353706,"tags":"ant,blue,bug,canon,canona520,chapulin,flor,flower,garden,grillo,hormiga,i+love+nature,img_2214,insecto,jard%C3%ADn,langosta,macro,morning+glory,naturaleza,nature,seryo","S2CellId":"89c6fc0000000000","result":9178,"accuracy":0.009162527,"title":"Comiendo+Azul+-+Eating+Blue","description":"Si+sabe+tan+bien+como+lindo+es+el+el+color%2C+debe+valer+la+pena...+aunque+la+flor+no+debe+pensar+lo+mismo%21%0A---%0A25%2F03%2F2006%0ASegu%C3%AD+las+sugerencias+de+Guisa+y+reemplace+la+foto.+Le+desenfoqu%C3%A9+un+poco+el+fondo+y+la+recorte+un+poco.+A+mi+me+gusta+mucho+mas+as%C3%AD.+Gracias+de+nuevo+Guisa."}
{"id":6734274663,"url":"http://farm8.staticflickr.com/7147/6734274663_d410dd315c.jpg","path":"1b5/03a/1b503af68e79c8dcd2caf3b22c4f0b1.jpg","date":"2011-10-01","year":2011,"month":10,"lon":-56.685505,"lat":-36.648586,"tags":"v700+scan+6x7+slide","S2CellId":"47edc00000000000","result":4703,"accuracy":0.047670778,"title":"Ajo007"}
{"id":6243247493,"url":"http://farm7.staticflickr.com/6112/6243247493_ca7a562c35.jpg","path":"eb8/af7/eb8af724c4dc6349e53695a29b6bde32.jpg","date":"2011-10-13","year":2011,"month":10,"lon":-56.67881,"lat":-36.660984,"tags":"argentina,callejero,dog,la+lucila,peroo,stray+dog","S2CellId":"34681b0000000000","result":2135,"accuracy":0.009102538,"title":"callejero"}
{"id":6755514243,"url":"http://farm8.staticflickr.com/7143/6755514243_5f694a0fbf.jpg","path":"d83/854/d83854763f495fd61c5a7a8c4111f48.jpg","date":"2012-01-22","year":2012,"month":1,"lon":-56.97973,"lat":-37.25688,"tags":"atardecer,beach,playa,sol,sun,sunset,villa+gesell","S2CellId":"935f000000000000","result":9663,"accuracy":0.0070593166,"title":"ocasa"}
{"id":5368372402,"url":"http://farm6.staticflickr.com/5287/5368372402_64044a7cd0.jpg","path":"ffe/fb6/ffefb659f14d1597459b55d281a33c.jpg","date":"2011-01-01","year":2011,"month":1,"lon":-56.696835,"lat":-36.681774,"tags":"argentina,beach,cat,dylan+the+cat,exotic+shorthair,film,k1000,light+leaks,orange,pentax,persian+cat,san+bernardo,summer,vintage","S2CellId":"876bec4000000000","result":7871,"accuracy":0.0044195177,"title":"zimmerman"}
{"id":5701787222,"url":"http://farm3.staticflickr.com/2276/5701787222_0290f198ba.jpg","path":"427/6a7/4276a7fc9661685825a62ce37df63853.jpg","date":"2011-05-08","year":2011,"month":5,"lon":-56.89335,"lat":-37.164845,"tags":"carilo","S2CellId":"8900400000000000","result":8768,"accuracy":0.019889109,"title":"Hotel+Marc%C3%ADn","description":"Caril%C3%B3%2C+Buenos+Aires%2C+Argentina.%0APhoto+is+attached+to+GPSed+track+%3Ca+href%3D%22http%3A%2F%2Fgpsed.com%2Ftrack%2F203287449998638098%22+rel%3D%22nofollow%22%3ECarilo%3C%2Fa%3E"}
{"id":5599331588,"url":"http://farm6.staticflickr.com/5309/5599331588_d9e29be675.jpg","path":"74b/3e8/74b3e8152b566893d76162b9db62d8f.jpg","date":"2008-02-23","year":2008,"month":2,"lon":-56.98677,"lat":-37.237026,"tags":"blackandwhite,vg","S2CellId":"80dd210000000000","result":7366,"accuracy":0.24167684,"title":"Muelle","description":"She%27s+waiting+like+an+iceberg.+Waiting+to+change.+But+she%27s+cold+inside.+She+wants+to+be+like+the+water.%28KT+Tunstall+-+Other+side+of+the+world%29"}
{"id":3426755365,"url":"http://farm4.staticflickr.com/3561/3426755365_04554994d1.jpg","path":"ada/e29/adae299f1a83cbc4eaf618ca449f8dcf.jpg","date":"2009-01-27","year":2009,"month":1,"lon":-56.67537,"lat":-36.70316,"tags":"costa,mar,olas,playa","S2CellId":"47dcb00000000000","result":4496,"accuracy":0.017818324,"title":"constancia","description":"en+la+inmensidad+de+la+basta+orilla%2C%0Alas+personas+creemos+ocupar+un+lugar.%0A%0Aclaramente+una+cuesti%C3%B3n+de+perspectivas."}
