{"id":9479424353,"url":"http://farm3.staticflickr.com/2867/9479424353_8fdd4e3688.jpg","path":"f40/c06/f40c0682c2d30579547d29dd6ba9df.jpg","date":"2013-08-09","year":2013,"month":8,"lon":10.199636,"lat":56.153915,"tags":"%23dk,danmark","S2CellId":"882b354000000000","result":8257,"accuracy":0.005214622}
{"id":5357788703,"url":"http://farm6.staticflickr.com/5162/5357788703_391b19f973.jpg","path":"f4f/bf5/f4fbf58ffab27a15b3490a6d1b08250.jpg","date":"2011-01-15","year":2011,"month":1,"lon":10.158233,"lat":56.18684,"tags":"%C3%A5rhus,denmark,rhus","S2CellId":"47b18f1c00000000","result":3996,"accuracy":0.057992965,"title":"Night+streets+of+%C3%85rhus"}
{"id":2492421045,"url":"http://farm3.staticflickr.com/2324/2492421045_9dbb515d60.jpg","path":"24d/b7d/24db7d31be0e8be474f68a1d2356d.jpg","date":"2007-08-20","year":2007,"month":8,"lon":10.188639,"lat":56.17265,"tags":"aarhus+universitet,computer+science,datalogisk+institut,it-byen,it-parken,katrinebjerg,university+of+aarhus","S2CellId":"0d19331000000000","result":217,"accuracy":0.5647594,"title":"Madalgo+inaguration"}
{"id":5007489243,"url":"http://farm5.staticflickr.com/4111/5007489243_52750971e4.jpg","path":"b2f/3a9/b2f3a9424d6dc7b4d2d69a8ea1a.jpg","date":"2010-09-13","year":2010,"month":9,"lon":10.198574,"lat":56.15264,"tags":"%C3%A5rhus,aarhus,city,denmark,denmark-stockholm+sept+2010,essence,europe,f.u.n.,rooftop,rooftops,soul,soul+of+stockholm,spirit,spirit+of+stockholm,top","S2CellId":"4652533000000000","result":2860,"accuracy":0.13939035,"title":"Danish+Rooftops","description":"As+seen+from+my+roon+in+the+Radisson+Blu+hotel+in+Aarhus%2C+Denmark."}
{"id":211280309,"url":"http://farm1.staticflickr.com/67/211280309_cdf4e9e9aa.jpg","path":"48e/cec/48ecece32bea12297853cdf8f6e8f8ee.jpg","date":"2006-08-01","year":2006,"month":8,"lon":10.201663,"lat":56.127422,"tags":"2006,final,orienteering,sprint,worldorienteeringchampionships","S2CellId":"132f100000000000","result":1072,"accuracy":0.12655178,"title":"woc2006-1+066"}
{"id":5380572538,"url":"http://farm6.staticflickr.com/5085/5380572538_3a15158cc8.jpg","path":"05e/94f/05e94f050854ecaa9b1a4d8b060a2e9.jpg","date":"2011-01-23","year":2011,"month":1,"lon":10.213908,"lat":56.188595,"tags":"instagram+app,iphoneography,square,square+format","S2CellId":"35b27b0000000000","result":2350,"accuracy":0.0028596108,"title":"Crossword+puzzle+in+Danish.+Oh+god."}
{"id":4849134876,"url":"http://farm5.staticflickr.com/4080/4849134876_145c2f6d86.jpg","path":"c3a/0b3/c3a0b3caf1a2c959cf5618ab178a4d6.jpg","date":"2010-07-31","year":2010,"month":7,"lon":10.190162,"lat":56.16228,"tags":"action,close+focus,dj,live,low+f%2Fx,music,yoav","S2CellId":"47c3d1d000000000","result":4229,"accuracy":0.056306753,"title":"Yoav+1"}
{"id":5168836999,"url":"http://farm5.staticflickr.com/4005/5168836999_9f521ce936.jpg","path":"87b/4b3/87b4b39a58d2afeb24519c3d6fef2aa.jpg","date":"2010-11-10","year":2010,"month":11,"lon":10.189666,"lat":56.155334,"tags":"kinect,xbox+360,xbox+kinect","S2CellId":"54906d0000000000","result":6220,"accuracy":0.004666598,"title":"Xbox+Kinect+bundle+box"}
{"id":3457512188,"url":"http://farm4.staticflickr.com/3664/3457512188_dd6a92ccb2.jpg","path":"8d3/43a/8d343a75ea8d5e8626c3939ab7d8c194.jpg","date":"2009-04-17","year":2009,"month":4,"lon":10.032234,"lat":56.457096,"tags":"350d,animals,b%C3%B8rsting,canon,denmark,dyr,eos,garden,have,kriff,kristoffer,plants,rainforrest,randers,randersregnskov,regnskov,trope,tropic,tropical,zoo,zoologisk","S2CellId":"31da130000000000","result":1837,"accuracy":0.029451642,"title":"overview"}
{"id":3706850698,"url":"http://farm3.staticflickr.com/2469/3706850698_f04321f11a.jpg","path":"e0d/3cb/e0d3cb219e231b64805a88b5d39fd35.jpg","date":"2009-07-09","year":2009,"month":7,"lon":10.03579,"lat":56.45937,"tags":"bench,denmark,randers","S2CellId":"479e7c0000000000","result":3861,"accuracy":0.008288758,"title":"One+Big+Bench","description":"Outside+Randers+Center+shopping+mall%2C+Denmark"}
{"id":4711743053,"url":"http://farm2.staticflickr.com/1296/4711743053_f642deff71.jpg","path":"99e/be0/99ebe08ee54cf28f3f723e5198e3bd.jpg","date":"2010-04-09","year":2010,"month":4,"lon":10.206856,"lat":56.15467,"tags":"%C3%A5rhus,aarhus,b%26w,candid,danmark,denmark,double-blind,downtown,pedestrians,str%C3%B8get,street+photography","S2CellId":"4888469000000000","result":5738,"accuracy":0.03633019,"title":"17+double-blind+street+shots+%285%29","description":"I+took+this+picture+in+downtown+Aarhus%2C+walking+and+holding+the+camera+in+my+hand+between+my+hip+and+knee."}
{"id":8186880729,"url":"http://farm9.staticflickr.com/8481/8186880729_cd7ca4e3a2.jpg","path":"474/ac6/474ac6aa5e31ff8142c29d251557dc1.jpg","date":"2010-06-15","year":2010,"month":6,"lon":10.152622,"lat":56.1838,"tags":"solsort","S2CellId":"8620af4000000000","result":7522,"accuracy":0.0169566,"title":"Solsort+%28han%29+med+3+unger","description":"Minolta+DSC"}
{"id":4759376355,"url":"http://farm5.staticflickr.com/4119/4759376355_a2445b672a.jpg","path":"918/f34/918f347859fbb77dcdb6aa961cb9bfa4.jpg","date":"2010-07-03","year":2010,"month":7,"lon":10.284233,"lat":56.204124,"tags":"%C3%A5krogen,%C3%A5rhus,aarhus,annika,beach,child,danmark,denmark,handstand,hat,mother,sand,sea,summer,toys","S2CellId":"40bc000000000000","result":2689,"accuracy":0.021361468,"title":"Beach+life","description":"Aarhus%2C+%C3%85krogen"}
{"id":5919244708,"url":"http://farm7.staticflickr.com/6149/5919244708_e71dd7b4fd.jpg","path":"d1e/c16/d1ec16b3c7201958fce246813116f2f9.jpg","date":"2011-07-09","year":2011,"month":7,"lon":10.2019,"lat":56.153496,"tags":"%C3%A5rhus,30mmf14exdchsm,40d,aarhus,aros,canon,sigma,tiltshift","S2CellId":"47a851df00000000","result":3938,"accuracy":0.12430955,"title":"IMG_1621-tiltshift"}
{"id":5460633581,"url":"http://farm6.staticflickr.com/5291/5460633581_693382b6f0.jpg","path":"551/4bd/5514bddf6bdc6ed44e3ae49c36f73a5.jpg","date":"2011-02-19","year":2011,"month":2,"lon":10.204625,"lat":56.154537,"tags":"q2ctf","S2CellId":"48718ec000000000","result":5061,"accuracy":0.012194698,"title":"IMG_1100"}
{"id":7919616570,"url":"http://farm9.staticflickr.com/8460/7919616570_b4ca6c4e97.jpg","path":"ebb/9f5/ebb9f5423213027c04943db2935d74.jpg","date":"2012-07-19","year":2012,"month":7,"lon":10.199775,"lat":56.153778,"tags":"1950%27erne,erhvervsarkivet,golden+days,statens+arkiver","S2CellId":"882e400000000000","result":8277,"accuracy":0.06366247,"title":"Grevinge+Brugsforening%2C+1957","description":"Kilde%3A+FDB%2C+Erhvervsarkivet.%0A%0AFotograf%3A+ukendt.%0ABem%C3%A6rk%3A+Fotoet+indg%C3%A5r+i+et+frit+tilg%C3%A6ngeligt+arkiv%2C+men+kan+v%C3%A6re+omfattet+af+ophavsret."}
{"id":6770499337,"url":"http://farm8.staticflickr.com/7154/6770499337_7a1a165454.jpg","path":"6f4/e73/6f4e73db8ebdc1fe90e2eb575b9b77e0.jpg","date":"2012-01-27","year":2012,"month":1,"lon":10.11095,"lat":56.18003,"tags":"instagram+app,iphoneography,normal,square,square+format","S2CellId":"80dcd7d700000000","result":7352,"accuracy":0.46059483,"title":"Prote%C3%A7%C3%A3o+UV+para+minha+fam%C3%ADlia+p%C3%A1lida.+%E2%98%80"}
{"id":8633477967,"url":"http://farm9.staticflickr.com/8115/8633477967_79cfbab8be.jpg","path":"43e/325/43e32533b49ca6da67217376c43fea.jpg","date":"2013-04-08","year":2013,"month":4,"lon":10.193113,"lat":56.159985,"tags":"botanicalgarden,flowers,macro,raynox-dcr-250","S2CellId":"1367000000000000","result":1190,"accuracy":0.0032640754,"title":"Scilla+siberica","description":"From+the+Aarhus+University+botanical+gaden"}
{"id":4736191856,"url":"http://farm5.staticflickr.com/4095/4736191856_8b67c7fd73.jpg","path":"60c/e42/60ce42f8262897c5ff169daa5fb58329.jpg","date":"2010-06-26","year":2010,"month":6,"lon":10.010862,"lat":56.464836,"tags":"alice+cooper,concert,kristian+nordestgaard,live,music,randers,rock","S2CellId":"864e993000000000","result":7633,"accuracy":0.014586705,"title":"Guillotine%21","description":"Alice+is+not+in+the+shot%2C+but+I+think+it+is+one+of+the+better+ones+none+the+less..."}
{"id":4958958038,"url":"http://farm5.staticflickr.com/4109/4958958038_4e5cde991d.jpg","path":"a48/013/a480137cb46a37cd9acfbf9f809a37a4.jpg","date":"2010-09-03","year":2010,"month":9,"lon":10.192823,"lat":56.15872,"tags":"%C3%A5rhus,aarhus,denmark,roachbot","S2CellId":"470ec00000000000","result":3187,"accuracy":0.01586328,"title":"09032010297+-+Den+gamle+By+-+Amelia+in+wagon","description":"%C3%85rhus%2C+Denmark.+Cockroach+Controlled+Mobile+Robot+exhibited+at+NEXT+2010."}
{"id":4815655513,"url":"http://farm5.staticflickr.com/4102/4815655513_df46aedc48.jpg","path":"aac/58c/aac58c8a5ec21932dbddc28128137ce8.jpg","date":"2010-07-21","year":2010,"month":7,"lon":10.73493,"lat":56.26123,"tags":"african+giraffe,danmark,denmark,ebeltoft,ebeltoft+danmark,ebeltoft+safari,giraffe,giraffe+head,giraffe+safari,ree+park,ree+park+ebeltoft,safari,zoo","S2CellId":"88d0a631cabb5071","result":8563,"accuracy":0.02206412,"title":"giraffe+seen+on+a+safari+tour+in+ree+park%2C+ebeltoft","description":"giraffe+seen+on+a+safari+tour+in+ree+park%2C+ebeltoft%0A%0Aree+park+have+7+giraffes+in+the+african+%27continent%27+living+with+a+bunch+of+other+animals%0A%0A%3Ca+href%3D%22http%3A%2F%2Ftwitter.com%2Fmatiassingers%22+rel%3D%22nofollow%22%3E%40matiassingers%3C%2Fa%3E"}
{"id":3005873848,"url":"http://farm4.staticflickr.com/3278/3005873848_0f89b10914.jpg","path":"48a/528/48a528c98fcff0bb1b5305768addc5f.jpg","date":"2008-11-02","year":2008,"month":11,"lon":10.12934,"lat":56.15637,"tags":"%C3%A5rhus,100+views,25+views,40000,50+views,aarhus,black,close+up,color,colors,colour,danmark,denmark,details,detaljer,farve,farver,gr%C3%B8n,green,h%C3%A5ndmalet,handmade,kranie,maling,n%C3%A6rbilled,necron+warrior,paint,paintet+by+hand,sand,skull,sort,warhammer,warhammer+40000","S2CellId":"47b8b40000000000","result":4048,"accuracy":0.41529316,"title":"Necron+Warrior"}
{"id":5205528930,"url":"http://farm6.staticflickr.com/5288/5205528930_68165e4d3f.jpg","path":"6df/318/6df318ab9ee7965bf080759dd12269.jpg","date":"2010-11-05","year":2010,"month":11,"lon":10.210794,"lat":56.156914,"tags":"%C3%A5rhus,%C3%A5rhusleg2010,denmark,denmark2010,rhus","S2CellId":"479c400000000000","result":3812,"accuracy":0.11233139,"title":"sword+and+anchor+on+the+church+walls"}
{"id":5792509297,"url":"http://farm4.staticflickr.com/3575/5792509297_054358d076.jpg","path":"33a/f13/33af13c6262c4a9b2161d26299b8f2e.jpg","date":"2011-06-03","year":2011,"month":6,"lon":10.190424,"lat":56.158653,"tags":"instagram+app,iphoneography,square,square+format,x-pro+ii","S2CellId":"3143000000000000","result":1758,"accuracy":0.030956645}
{"id":3285898844,"url":"http://farm4.staticflickr.com/3489/3285898844_2d3f44bc8c.jpg","path":"5d3/983/5d3983a45a0511afc7a2ef52821a5df.jpg","date":"2009-02-16","year":2009,"month":2,"lon":10.198209,"lat":56.155994,"tags":"%C3%A5rhus,%C3%A6nder,2009,aarhus,animal,bird,danmark,denmark,duck,ducks,dyr,febuar,fugl,gr%C3%A5,gr%C3%B8n,gray,green,jylland,m%C3%B8lleparken,natur,nature,vall%C3%B8","S2CellId":"88d0a631cabb5071","result":8563,"accuracy":0.027825221}
{"id":7342786220,"url":"http://farm8.staticflickr.com/7213/7342786220_b1f70338e5.jpg","path":"fff/8c8/fff8c84669976f985dc2ba674fed9dd.jpg","date":"2012-05-18","year":2012,"month":5,"lon":10.196685,"lat":56.150715,"tags":"aarhus,danmark,denmark,festival,melodica,outdoors,preparty","S2CellId":"464c300000000000","result":2818,"accuracy":0.013089291,"title":"Melodica+Festival+Aarhus+2012+-+Preparty+%2829%29","description":"Luisa%0A%0A%3Ca+href%3D%22https%3A%2F%2Fwww.facebook.com%2Fmelodicaaarhus%22+rel%3D%22nofollow%22%3Ewww.facebook.com%2Fmelodicaaarhus%3C%2Fa%3E"}
{"id":12767339485,"url":"http://farm4.staticflickr.com/3756/12767339485_cbeb5253ee.jpg","path":"af2/b63/af2b634df6eb40ddcc47a2ec2d34ebde.jpg","date":"2014-02-25","year":2014,"month":2,"lon":10.198832,"lat":56.158173,"tags":"aarhus","S2CellId":"4652533000000000","result":2860,"accuracy":0.10384107,"title":"A%26R","description":"A%26R"}
{"id":4173578773,"url":"http://farm3.staticflickr.com/2492/4173578773_71d3e08a07.jpg","path":"911/42f/91142ff5a879bbc8b8de4cf514cf91.jpg","date":"2009-12-10","year":2009,"month":12,"lon":10.20014,"lat":56.157352,"tags":"aarhus,ifloor","S2CellId":"808f770000000000","result":7015,"accuracy":0.022809481,"title":"10122009872","description":"iFloor%27s+home%2C+Aarhus+city+library."}
{"id":6091104538,"url":"http://farm7.staticflickr.com/6209/6091104538_6bd0b6ea73.jpg","path":"466/3ee/4663ee528e03c521d4d2589c4eae84.jpg","date":"2011-08-28","year":2011,"month":8,"lon":10.202012,"lat":56.15321,"tags":"%C3%A5rhus,aarhus,denmark,next2011","S2CellId":"47f4d00000000000","result":4716,"accuracy":0.024705594,"title":"082820113003"}
{"id":3570560141,"url":"http://farm3.staticflickr.com/2458/3570560141_f41e69211e.jpg","path":"c1d/88c/c1d88c381fa7f0a583d5854c42dbd23c.jpg","date":"2009-04-19","year":2009,"month":4,"lon":10.131991,"lat":56.15612,"tags":"%C3%A5rhus,2009,aarhus,april,danmark,denmark,gellerup,gellerupparken,vall%C3%B8","S2CellId":"47a6700000000000","result":3889,"accuracy":0.015037829,"title":"IMG_6276"}
{"id":4267496930,"url":"http://farm3.staticflickr.com/2709/4267496930_33440a38d6.jpg","path":"dbc/a4a/dbca4a947661419188d1f6227d144d.jpg","date":"2010-01-11","year":2010,"month":1,"lon":10.281314,"lat":56.20126,"tags":"%C3%A5rhus,aarhus,baltic,boat,danmark,denmark,ice,pier,risskov,rocks,sea,snow,waves,winter","S2CellId":"1330c00000000000","result":1120,"accuracy":0.059487775,"title":"Camouflage","description":"Aarhus%2C+Risskov"}
{"id":8953418884,"url":"http://farm4.staticflickr.com/3753/8953418884_4284ab569b.jpg","path":"afe/9cb/afe9cb63e08cb7e17d0b82d6f04bb3.jpg","date":"2013-05-19","year":2013,"month":5,"lon":10.207071,"lat":56.15707,"tags":"%C3%A5rhus,aarhus,bicycle,bicycles,sykler","S2CellId":"47c1640000000000","result":4149,"accuracy":0.07990571,"title":"IMG_2939"}
{"id":2834567240,"url":"http://farm4.staticflickr.com/3277/2834567240_07b36ffbf0.jpg","path":"b04/97b/b0497b45d678b2e6d813e36b7aabaac8.jpg","date":"2008-09-07","year":2008,"month":9,"lon":10.203874,"lat":56.169952,"tags":"%C3%A5rhus,aarhus,architecture,brick,building,c.f.,c.th.,cc,commons,creative,fisker,kay,m%C3%B8ller,modern,modernism,modernist,oak,park,povl,s%C3%B8rensen,seier%2Bseier,stegmann,universitet,university","S2CellId":"47b6400000000000","result":4028,"accuracy":0.018855575,"title":"fisker%2C+m%C3%B8ller%2C+stegman%2C+s%C3%B8rensen%3A+aarhus+university%2C+1931-","description":"aarhus+university%2C+1931-%0Aarchitects%3A+kay+fisker%2C+c.f.m%C3%B8ller%2C+povl+stegmann%0Alandscape+planning%3A+c.th.s%C3%B8rensen"}
{"id":61254825,"url":"http://farm1.staticflickr.com/29/61254825_4a1d64ea13.jpg","path":"a29/832/a29832c969263b84655c4d54bd4edf6f.jpg","date":"2005-11-08","year":2005,"month":11,"lon":10.1941,"lat":56.152,"tags":"%C3%A5rhus,cmf2005,denmark,eyetrack,heatmaps,plazeb3ec8352186b36d591346474eb8f4ce2,plazes,sas+radisson","S2CellId":"89e370b000000000","result":9319,"accuracy":0.023002952,"title":"Nils+on+heatmaps+from+Eyetrack"}
{"id":113790869,"url":"http://farm1.staticflickr.com/35/113790869_30572d96ff.jpg","path":"336/751/336751af1c4a5774a9592ead288a4f.jpg","date":"2004-07-08","year":2004,"month":7,"lon":10.912256,"lat":56.422543,"tags":"cameraphone,clownfish,denmark,kattegatcentret,vacation,vga","S2CellId":"89c8037000000000","result":9187,"accuracy":0.03204926,"title":"p20040708_105105","description":"Vacation+in+Denmark+two+years+ago.%0D%0A%0D%0ANemo+again."}
{"id":8389481864,"url":"http://farm9.staticflickr.com/8232/8389481864_44a5287599.jpg","path":"93b/6b3/93b6b3b29c8610f3b9f83df8269ff49.jpg","date":"2007-04-07","year":2007,"month":4,"lon":10.202382,"lat":56.163612,"tags":"gr%C3%A5m%C3%A5ke,gr%C3%A5trut,herring-gull,larus+argentatus,s%C3%B8lvm%C3%A5ge,silberm%C3%B6se","S2CellId":"478c654000000000","result":3663,"accuracy":0.016881319,"title":"7%2F4+2007","description":"Minolta+DSC"}
{"id":8537877666,"url":"http://farm9.staticflickr.com/8381/8537877666_c17a7568a6.jpg","path":"483/71b/48371be04a43402c8ef224cc1ee1a964.jpg","date":"2013-01-17","year":2013,"month":1,"lon":10.152622,"lat":56.1838,"tags":"amsel,blackbird,koltrast,solsort,svarttrost,turdus+merula","S2CellId":"9aab000000000000","result":9926,"accuracy":0.02029766,"title":"Solsort"}
{"id":8577716646,"url":"http://farm9.staticflickr.com/8525/8577716646_ba551f5e17.jpg","path":"d88/c93/d88c93696725eba8401d725fffd16219.jpg","date":"2013-03-20","year":2013,"month":3,"lon":10.203,"lat":56.165165,"tags":"%C3%A5rhus,%C3%A5rhus+universitet,historie,naturfag,science,steno,stenomuseet,teknik,videnskab","S2CellId":"4873b40000000000","result":5093,"accuracy":0.014255286,"title":"Steno+Museet","description":"Billeder+fra+udstillingen+p%C3%A5+Steno+Museet"}
{"id":9789208575,"url":"http://farm8.staticflickr.com/7285/9789208575_02f4132f8a.jpg","path":"7ab/414/7ab4143cf1e73a553164702fd246e6.jpg","date":"2013-09-06","year":2013,"month":9,"lon":10.211319,"lat":56.15438,"tags":"aarhus,denmark,deutschland,f%C3%A4r%C3%B6er,f%C3%A4r%C3%B6er+inseln,faroe,faroe+island,l%C3%A4nderspiel,norr%C3%B6na,schland,smyril,torshavn","S2CellId":"465f9d7000000000","result":2928,"accuracy":0.07104434,"title":"Aarhus%2C+Denmark"}
{"id":4075590014,"url":"http://farm4.staticflickr.com/3532/4075590014_feed31fac3.jpg","path":"981/29f/98129f20833f8bad3c3ed08c45cd89d3.jpg","date":"2009-11-02","year":2009,"month":11,"lon":10.187458,"lat":56.1607,"tags":"%C3%A5rhus,denmark,jutland","S2CellId":"464c300000000000","result":2818,"accuracy":0.10346148,"title":"Old+Town%2C+%C3%85rhus%2C+Denmark"}
{"id":7822454674,"url":"http://farm9.staticflickr.com/8284/7822454674_0bb4893feb.jpg","path":"64e/5c1/64e5c17f913cfd84b0df25e0641d7268.jpg","date":"2012-08-06","year":2012,"month":8,"lon":10.094112,"lat":56.229836,"tags":"danmark,denmark,jutland,jylland,vacation","S2CellId":"487bf40000000000","result":5607,"accuracy":0.036970302,"title":"DSC_7868"}
{"id":6135631648,"url":"http://farm7.staticflickr.com/6207/6135631648_96b0aa4723.jpg","path":"373/5b2/3735b201ffbec9155db16a4ed61e73c.jpg","date":"2011-07-15","year":2011,"month":7,"lon":10.19175,"lat":56.158787,"tags":"%C3%A5rhus,aarhus,arhus,d%C3%A4nemark,danemark,danmark,den+gamle+by,denmark,friluftsmuseum,gamle+by,j%C3%BCtland,jutland,jylland,mus%C3%A9e+en+plein+air,old+town,open+air+museum","S2CellId":"464c300000000000","result":2818,"accuracy":0.26125097,"title":"2011-07-15","description":"Aarhus.+Dans+Gamle+By."}
{"id":5542872970,"url":"http://farm6.staticflickr.com/5137/5542872970_9b915f3219.jpg","path":"775/bfb/775bfb1ab54dd8c41d9e7e28f49dbe6d.jpg","date":"2011-03-20","year":2011,"month":3,"lon":10.212543,"lat":56.18796,"tags":"instagram+app,iphoneography,square,square+format","S2CellId":"47b6400000000000","result":4028,"accuracy":0.014997074,"title":"It%27s+spring%21+Almost."}
{"id":2174484456,"url":"http://farm3.staticflickr.com/2231/2174484456_a80d4d861e.jpg","path":"386/dd4/386dd4f1f88784271390124d6d8e7ec0.jpg","date":"2007-06-23","year":2007,"month":6,"lon":10.189347,"lat":56.158607,"tags":"aarhus,bricks,lego","S2CellId":"4652510000000000","result":2850,"accuracy":0.20961232,"title":"Bricky","description":"My+son%27s+comment+about+%C3%85rhus+was+that+it+felt+like+a+large+Lego+set.+I+don%27t+know+if+he+is+aware+that+Lego+is+a+Danish+product.+Upon+a+brief+reflection%2C+it+seems+to+be+a+natural+thing+to+emerge+in+a+place+where+everything+is+built+of+bricks+and+mortar."}
{"id":1409078428,"url":"http://farm2.staticflickr.com/1111/1409078428_00564f9084.jpg","path":"533/e50/533e50537482e1381647e779ed081cb.jpg","date":"2007-09-19","year":2007,"month":9,"lon":10.199968,"lat":56.158375,"tags":"30mm,alberte,cat","S2CellId":"46b5370000000000","result":3055,"accuracy":0.16011207,"title":"Alberte"}
{"id":4713367519,"url":"http://farm5.staticflickr.com/4066/4713367519_1b12497e30.jpg","path":"853/d4d/853d4d236414dab71ba9c72191d4b517.jpg","date":"2010-06-18","year":2010,"month":6,"lon":10.199333,"lat":56.155834,"tags":"%C3%A5rhus,flogging+molly,voxhall","S2CellId":"48670e9d00000000","result":4894,"accuracy":0.008261559,"title":"IMG_0603"}
{"id":7355483434,"url":"http://farm8.staticflickr.com/7071/7355483434_75aa30d1b5.jpg","path":"735/725/735725f1204578742f8025c2db4156fe.jpg","date":"2012-05-27","year":2012,"month":5,"lon":10.151646,"lat":56.124516,"tags":"aarhus+tigers,american+football,copenhagen+towers,football,photo,sport,tigers,towers","S2CellId":"464c700000000000","result":2820,"accuracy":0.24022344}
{"id":5502495677,"url":"http://farm6.staticflickr.com/5017/5502495677_bb95921acf.jpg","path":"2a2/adc/2a2adc88d9331997eef6fa86be348d1c.jpg","date":"2011-03-06","year":2011,"month":3,"lon":10.281143,"lat":56.20384,"tags":"an+island,b%26w,efterklang,film,living+room,private-public+screening,vincent+moon","S2CellId":"465f9d4400000000","result":2921,"accuracy":0.011203558,"title":"Private-Public+Screening+of+%22An+Island%22","description":"Today+we+watched+the+new+film+by+french+director+Vincent+Moon+about+the+danish+band+Efterklang++in+our+living+room%2C+together+with+friends+and+strangers.%0AHow+did+that+happen%3F+-+We+responded+to+this+great+initiative+%28more+on+%3Ca+href%3D%22http%3A%2F%2Fwww.anisland.cc%29%22+rel%3D%22nofollow%22%3Ewww.anisland.cc%29%3C%2Fa%3E%3A%0A%0A%22Efterklang+and+Vincent+Moon+welcome+all+our+listeners+and+followers+to+host+their+own+screenings+of+An+Island.%0A%0AWe+call+these+screenings+Private-Public+Screenings+and+the+rules+are+very+simple.%0A%0AThe+screenings+need+to+have+free+entrance%0A+%0AThe+screenings+need+to+be+public.%0A+%0AThe+screenings+need+to+have+a+minimum+capacity+of+5+people%0A+%0AThe+screenings+need+to+be+verified+by+Efterklang+%26+Vincent+Moon+and+only+screenings+that+are+featured+on+%3Ca+href%3D%22http%3A%2F%2Fwww.anisland.cc%22+rel%3D%22nofollow%22%3Ewww.anisland.cc%3C%2Fa%3E+are+official+Private-Public+Screenings%0AIn+other+words+as+long+as+entrance+is+free+and+it+is+an+open+event+%28as+capacity+permits%29+the+Private-Public+Screenings+can+take+place+in+your+home%2C+at+a+caf%C3%A9%2C+in+a+school+auditorium+or+any+place+you+can+think+of.%0A%0AThe+Private-Public+Screenings+will+run+for+two+months+%E2%80%93+February+and+March+2011.+The+screenings+are+private+because+they+are+hosted+by+private+people+and+public+because+the+screenings+are+official+and+open+to+anyone+%E2%80%93+hence+the+name+Private-Public+Screenings.%0A%0A%27We+hope+that+a+lot+of+people+will+host+and+attend+screenings+of+An+Island.+The+Private-Public+Screenings+are+our+attempt+at+creating+a+free+and+inspiring+distribution+method+for+our+film.+It+is+also+our+attempt+to+give+something+back+to+our+many+supporters+around+the+world.+We+have+financed+this+film+ourselves+and+we+hope+that+we+can+recoup+some+of+that+money+through+donations.+However%2C+the+memory+of+the+4+days+we+spent+on+the+island+of+Als+in+August+2010+and+our+joy+and+pride+of+the+finished+film+is+a+huge+reward+in+itself.%27+%E2%80%93+Vincent+Moon+%26+Efterklang%22%0A%0AMore+pictures+from+private-public+screenings+of+the+film+can+be+found+here+on+flickr%3A%0A%3Ca+href%3D%22http%3A%2F%2Fwww.flickr.com%2Fphotos%2Fanisland%2F%22%3Ewww.flickr.com%2Fphotos%2Fanisland%2F%3C%2Fa%3E"}
{"id":153763302,"url":"http://farm1.staticflickr.com/67/153763302_d0a21ebbbf.jpg","path":"264/15b/26415bd2d110bb6155fe15b8c01652f.jpg","date":"2006-05-25","year":2006,"month":5,"lon":10.141582,"lat":56.14689,"tags":"%C3%A5rhus,aarhus,cloud,denmark,dinamarca,eu,europa,europe,nube,skjoldh%C3%B8j,sol,sun,uni%C3%B3n+europea","S2CellId":"88d0a631cabb5071","result":8563,"accuracy":0.0101314075,"title":"Nubes+y+sol+-+Clouds+and+sun"}
{"id":7912685478,"url":"http://farm9.staticflickr.com/8319/7912685478_558cbf2627.jpg","path":"9f2/12d/9f212dccda4fe315ed4411316e46f46.jpg","date":"2012-08-05","year":2012,"month":8,"lon":10.434737,"lat":56.191734,"tags":"danmark,denmark,djursland,field,mols,sea,summer,tree","S2CellId":"4871500000000000","result":5036,"accuracy":0.004606654,"title":"Once+upon+a+summertime","description":"Mols%2C+Denmark"}
{"id":4120238876,"url":"http://farm3.staticflickr.com/2735/4120238876_20f6593da0.jpg","path":"dce/bef/dcebef0b59a6483f4f4af27fd8115e0.jpg","date":"2009-11-20","year":2009,"month":11,"lon":10.196514,"lat":56.132744,"tags":"%C3%A5rhus,aarhus,danmark,denmark,fake+tilt-shift,field,football,friendly,international,match,nrgi,park,shift,soccer,stadium,team,test,tilt,us,usa","S2CellId":"48761b7000000000","result":5331,"accuracy":0.20498432,"title":"Before+kick-off","description":"Denmark+-+USA%0ANRGi+Park%2C+Aarhus%0AInternational+friendly+match%0A%3Ca+href%3D%22http%3A%2F%2Fwww.ussoccer.com%2FNews%2FMens-National-Team%2F2009%2F11%2FDenmark-Defeats-US-in-Aarhus.aspx%22+rel%3D%22nofollow%22%3Ewww.ussoccer.com%2FNews%2FMens-National-Team%2F2009%2F11%2FDenmark-...%3C%2Fa%3E"}
{"id":4401571239,"url":"http://farm5.staticflickr.com/4019/4401571239_aa776aec94.jpg","path":"3e2/190/3e2190505210e69f91c22ef17a654db.jpg","date":"2010-02-09","year":2010,"month":2,"lon":10.227069,"lat":56.17461,"tags":"%C3%A5rhus,aarhus,cranes,danmark,denmark,forest,harbor,park,port,reflection,risskov,sea,snow,trees,winter","S2CellId":"5485dc0000000000","result":6108,"accuracy":0.061534338,"title":"Trees+%26+cranes","description":"Aarhus"}
{"id":8122006634,"url":"http://farm9.staticflickr.com/8466/8122006634_b26b7c4db6.jpg","path":"af2/4da/af24dafd6358fb1229bdf21aa836c6.jpg","date":"2011-05-21","year":2011,"month":5,"lon":10.191136,"lat":56.15938,"tags":"aarhus,central+denmark+region,den+gamle+by+%28aarhus%29,denmark,ferietur,sk%C3%A6ring+strand","S2CellId":"464c300000000000","result":2818,"accuracy":0.70059526,"title":"110521_0350","description":"Den+Gamle+By+-+Aarhus"}
{"id":3636539939,"url":"http://farm3.staticflickr.com/2460/3636539939_d81c3b4443.jpg","path":"a1c/04f/a1c04f6d6a7df96d030c9b0f776d1.jpg","date":"2009-06-14","year":2009,"month":6,"lon":10.191149,"lat":56.162113,"tags":"aarhus,nextlibrary09,unconf09","S2CellId":"6018894000000000","result":6464,"accuracy":0.009613219,"title":"A+sink"}
{"id":7936710002,"url":"http://farm9.staticflickr.com/8454/7936710002_2d17922c94.jpg","path":"e5c/9c5/e5c9c5c644f59a266c112aba447e4a.jpg","date":"2012-08-08","year":2012,"month":8,"lon":10.199775,"lat":56.153778,"tags":"1950,1950%27erne,denmark,erhvervsarkivet,forbrug,golden+days,katalog,katalogsamling,statens+arkiver,vare","S2CellId":"6ab0c40000000000","result":6592,"accuracy":0.04491405,"title":"SAS+-+sommerprogrammet+1957+-1","description":"Reklamen+stammer+fra+Erhvervsarkivets+katalogsamling%2C+som+best%C3%A5r+af+trykt+materiale+%28reklamer%2C+kataloger+mv.%29%2C+der+er+udtaget+af+forskellige+virksomheders+arkiver.+Materialet+er+frit+tilg%C3%A6ngeligt%2C+men+kan+v%C3%A6re+omfattet+af+ophavsret.%0AKilde%3A+Erhvervsarkivets+katalogsamling."}
{"id":7841096500,"url":"http://farm9.staticflickr.com/8435/7841096500_652b33d2b3.jpg","path":"742/be0/742be056c3c6b4bb8f0362d1595f3dc.jpg","date":"2012-08-22","year":2012,"month":8,"lon":10.037705,"lat":56.462128,"tags":"2012+post+danmark+rundt,cycling,geraint+thomas,jaroslaw+marycz,tom+boonen","S2CellId":"4842c00000000000","result":4807,"accuracy":0.06392256,"title":"2012+Post+Danmark+Rundt+Stage+1"}
{"id":5579268910,"url":"http://farm6.staticflickr.com/5174/5579268910_c4e8e94657.jpg","path":"fe2/ce2/fe2ce237f89bf7d6ed9a45ba4cfd.jpg","date":"2011-03-26","year":2011,"month":3,"lon":10.127313,"lat":56.172318,"tags":"40d,70200mmf28,canon,linus,sigma","S2CellId":"47d8a30000000000","result":4439,"accuracy":0.020817166,"title":"IMG_0277.jpg"}
{"id":6291910598,"url":"http://farm7.staticflickr.com/6237/6291910598_f26d2fe08f.jpg","path":"c4f/6e6/c4f6e6613f6b44c38a2c04353db08.jpg","date":"2011-09-24","year":2011,"month":9,"lon":10.30687,"lat":56.990215,"tags":"bench,danmark,denmark,hals,harbour,jylland,light,nordjylland,port,port+entrance","S2CellId":"47df0c0000000000","result":4512,"accuracy":0.025638536,"title":"Fisherman%27s+bench","description":"Port+entrance+in+Hals%2C+Northern+Jutland+with+the+classical+%22look+over+the+sea%22+bench."}
{"id":203353217,"url":"http://farm1.staticflickr.com/77/203353217_2925717d18.jpg","path":"fa5/e21/fa5e213e426881ff8b612baa18a1407.jpg","date":"2006-07-24","year":2006,"month":7,"lon":10.208787,"lat":56.157024,"tags":"aarhus,europe+2006","S2CellId":"47b2100000000000","result":4009,"accuracy":0.09090854,"title":"The+church+in+the+town+square+-+inside+view."}
{"id":6823479081,"url":"http://farm8.staticflickr.com/7035/6823479081_187145fb85.jpg","path":"e05/b59/e05b59c2929a8c1ab6b998c6e14ed3c5.jpg","date":"2012-02-05","year":2012,"month":2,"lon":10.119062,"lat":56.17581,"tags":"%C3%A5rhus,40d,70200mmf28,canon,k%C3%A6lk,molly,sigma,sne,snow,vinter,winter","S2CellId":"5371c00000000000","result":6055,"accuracy":0.11277997,"title":"IMG_5648"}
{"id":5994547924,"url":"http://farm7.staticflickr.com/6002/5994547924_c83ab19ebf.jpg","path":"1a2/f61/1a2f6187b474cddf4672308fe1f180f4.jpg","date":"2011-07-30","year":2011,"month":7,"lon":10.24622,"lat":56.08432,"tags":"%C3%A5rhus,40d,70200mmf28,aarhus,canon,moesg%C3%A5rd,moesgaard,moot,sigma,viking,vikingedage,vikingetr%C3%A6f","S2CellId":"47b3100000000000","result":4017,"accuracy":0.1342316,"title":"IMG_1811.jpg"}
{"id":4074825747,"url":"http://farm3.staticflickr.com/2699/4074825747_99235f813e.jpg","path":"b9c/e8c/b9ce8c1fea754b30a9afd6f7ae473.jpg","date":"2009-10-31","year":2009,"month":10,"lon":10.187458,"lat":56.1607,"tags":"%C3%A5rhus,denmark,jutland","S2CellId":"4796c85000000000","result":3753,"accuracy":0.37056178,"title":"Old+Town%2C+%C3%85rhus%2C+Denmark"}
{"id":4444471741,"url":"http://farm3.staticflickr.com/2772/4444471741_e762b7c736.jpg","path":"cf5/c23/cf5c23285bc12be9c71d32afbd3d458.jpg","date":"2010-03-04","year":2010,"month":3,"lon":10.21501,"lat":56.1637,"tags":"%C3%A5rhus,%C3%B8stbanetorvet,aarhus,blue,danmark,denmark,laundrette,laundromat,m%C3%B8ntvask,pink,poladroid,window","S2CellId":"47c5b10000000000","result":4272,"accuracy":0.0033925856,"title":"The+flickr+laundromat","description":"White%2C+black+or+colored%3F%0A%0AAarhus"}
{"id":6294394726,"url":"http://farm7.staticflickr.com/6057/6294394726_7266891297.jpg","path":"4e7/77d/4e777d24c42e6cba3ad7b895a9f395.jpg","date":"2010-09-22","year":2010,"month":9,"lon":10.185549,"lat":56.14771,"tags":"%C3%A5rhus,tog","S2CellId":"4cc9140000000000","result":5881,"accuracy":0.18229942,"title":"Skinner+ved+%C3%85rhus+H"}
{"id":9170377000,"url":"http://farm4.staticflickr.com/3831/9170377000_8dd9eb8eae.jpg","path":"4a8/882/4a8882e1f3535436bd1e3391c3897f15.jpg","date":"2013-06-15","year":2013,"month":6,"lon":10.213883,"lat":56.128704,"tags":"%C3%A5rhus,art,denmark,sculpture","S2CellId":"6ad6690000000000","result":6649,"accuracy":0.09322404,"title":"Patched+grass"}
{"id":6945118479,"url":"http://farm8.staticflickr.com/7047/6945118479_8baf51ef2a.jpg","path":"268/e3f/268e3f1db6c53b309d31b5565d56315c.jpg","date":"2012-03-02","year":2012,"month":3,"lon":10.711755,"lat":56.53095,"tags":"35mm,danemark,k100d,pentax,pentax+k100d,smc+p-fa+35mm+f2.0+al","S2CellId":"4c90000000000000","result":5830,"accuracy":0.10636548,"title":"Bonnerup+Havn","description":"Danemark+2011"}
{"id":2468614481,"url":"http://farm4.staticflickr.com/3142/2468614481_903feca6ce.jpg","path":"28a/68e/28a68ea9bb817f9fb1b1ee481567c1.jpg","date":"2005-03-07","year":2005,"month":3,"lon":10.190098,"lat":56.173164,"tags":"%C3%A5rhus,aarhus,byggeplads,construction,danmark,denmark,fence,sand,tiles,urban","S2CellId":"0d39000000000000","result":327,"accuracy":0.0076827384,"title":"bygge+fliser"}
{"id":3614225372,"url":"http://farm3.staticflickr.com/2482/3614225372_97e0a5711d.jpg","path":"183/aa1/183aa19afa8d6318147acf9f279b76.jpg","date":"2009-05-22","year":2009,"month":5,"lon":10.287248,"lat":56.2104,"tags":"%C3%A5rhus,2009,aarhus,bl%C3%A5,blue,corrosion,danmark,decay,denmark,detail,details,detalje,detaljer,erosion,jylland,line,lines,linje,linjer,natur,nature,vall%C3%B8,vand,water","S2CellId":"4cb29d0000000000","result":5845,"accuracy":0.05439504,"title":"IMG_6431"}
{"id":5624635012,"url":"http://farm6.staticflickr.com/5106/5624635012_f3d73faebd.jpg","path":"712/3b8/7123b8a0f849eea5b79e512b6824b57d.jpg","date":"2011-04-16","year":2011,"month":4,"lon":10.244321,"lat":56.085304,"tags":"40d,canon,ef50mmf18ii,linus,moesgaard","S2CellId":"4652340000000000","result":2846,"accuracy":0.14302859,"title":"IMG_0776.jpg"}
{"id":2893406658,"url":"http://farm4.staticflickr.com/3258/2893406658_bed2aa9602.jpg","path":"5e1/85b/5e185b53172d7f448bb8e1af15137376.jpg","date":"2008-09-27","year":2008,"month":9,"lon":10.135542,"lat":56.15603,"tags":"%C3%A5rhus,aarhus,b%C3%B8rnekunst,brabrand,childrens+art,colors,danmark,dekoration,denmark,farver,gellerup,gellerup+parken,nordgaard+hallen,urban","S2CellId":"487604b700000000","result":5214,"accuracy":0.06656323,"title":"Nordgaard+hallen","description":"Paintings+made+by+kids+to+brighten+up+the+building"}
{"id":4866442747,"url":"http://farm5.staticflickr.com/4138/4866442747_2ab259d30d.jpg","path":"de7/2fa/de72faff51fe7cfcfaa1e775a99849.jpg","date":"2010-08-06","year":2010,"month":8,"lon":10.251445,"lat":56.08132,"tags":"%C3%A5rhus,40d,canon,ef50mm+f%2F1.8+ii,moesgaard+strand,polarizer,rhus","S2CellId":"6f00000000000000","result":6856,"accuracy":0.036769368,"title":"IMG_5374.jpg","description":"Moesgaard+Strand%2C+%C3%85rhus"}
{"id":4585825859,"url":"http://farm4.staticflickr.com/3316/4585825859_b08e4e56e9.jpg","path":"1df/b5e/1dfb5e9689c5fe8e1d31628c93c2ec1.jpg","date":"2010-05-05","year":2010,"month":5,"lon":10.201555,"lat":56.15755,"tags":"70-300mm,closeup,d60,digikam,flowers,macro,nikon,tamron","S2CellId":"47bd0eb400000000","result":4089,"accuracy":0.0072468743,"title":"One+of+Three","description":"Tamron+AF+70-300mm+F%2F4-5.6+Di+LD+Macro+lens%0A%0A%3Ca+href%3D%22http%3A%2F%2Fbighugelabs.com%2Fonblack.php%3Fid%3D4585825859%22+rel%3D%22nofollow%22%3EView+On+Black%3C%2Fa%3E%0A%0A%3Cb%3EDo+you+use+digiKam%3F+Join+the+%3Ca+href%3D%22http%3A%2F%2Fwww.flickr.com%2Fgroups%2Fdigikam-users%2F%22%3EdigiKam+Users%3C%2Fa%3E+group%21%3C%2Fb%3E"}
{"id":3624298619,"url":"http://farm4.staticflickr.com/3368/3624298619_dddaee27bd.jpg","path":"be6/379/be6379298c592574f8d9cb3c0c35e.jpg","date":"2009-06-10","year":2009,"month":6,"lon":10.213766,"lat":56.15676,"tags":"%C3%A5rhus,aarhus,danmark,denmark,haven,port","S2CellId":"47e0400000000000","result":4527,"accuracy":0.05274573,"title":"DSC07502"}
