{"id":4646205937,"url":"http://farm5.staticflickr.com/4070/4646205937_e7420c9054.jpg","path":"d10/c82/d10c82d8082ba819bb0634eecb4b91a.jpg","date":"2010-05-23","year":2010,"month":5,"lon":-78.64578,"lat":26.500456,"tags":"deadman%27s+reef,freeport+bahamas,paradise+cove,snorkeling","S2CellId":"2bfc000000000000","result":1527,"accuracy":0.31727976,"title":"100_0338","description":"Dcim%5C100sport"}
{"id":2145010167,"url":"http://farm3.staticflickr.com/2257/2145010167_9ecd020d64.jpg","path":"805/16e/80516eadeb996d7eab2401c1f36a949.jpg","date":"2007-12-28","year":2007,"month":12,"lon":-78.62778,"lat":26.51528,"tags":"bahamas,freeport","S2CellId":"1495400000000000","result":1225,"accuracy":0.024734307,"title":"Bahamas+waves7"}
{"id":6905333427,"url":"http://farm8.staticflickr.com/7039/6905333427_aa643bf548.jpg","path":"14e/a8f/14ea8f833e3da7f7674d997425f6579e.jpg","date":"2012-02-14","year":2012,"month":2,"lon":-78.64014,"lat":26.541851,"tags":"family+life,love+like+you+mean+it+marriage+cruise,nikon+d7000,norwegian+cruise+lines,sky","S2CellId":"48760dd000000000","result":5282,"accuracy":0.033112694,"title":"Garden+of+the+Groves","description":"Love+Like+You+Mean+It+Marriage+Cruise%2C+Feb.+13-17%2C+2012%0A%5BD7K_3034%5D"}
{"id":4489852912,"url":"http://farm5.staticflickr.com/4015/4489852912_b4275b444e.jpg","path":"5e9/aa5/5e9aa5d055d5eab4956bcf8154bacc.jpg","date":"2009-12-20","year":2009,"month":12,"lon":-78.622925,"lat":26.51839,"tags":"450d,50mm,bahama,beach,break,canon,evening,f%2F1.4,freeport,grand,island,lucaya,matt+p.+becker,mpbecker,rebel,silver,sunset,tide,vanagram,xsi","S2CellId":"4c90000000000000","result":5830,"accuracy":0.024249896,"title":"life%27s+a+beach","description":"freeport%0Agrand+bahama+island%0A%0ACanon+Rebel+XSi+%2B+Canon+EF+50mm+f%2F1.4+USM%0A%0A%3Ca+href%3D%22http%3A%2F%2Fbighugelabs.com%2Fonblack.php%3Fid%3D4489852912%22+rel%3D%22nofollow%22%3EView+On+Black%3C%2Fa%3E"}
{"id":4646853578,"url":"http://farm5.staticflickr.com/4004/4646853578_fe2bc43b13.jpg","path":"d02/4d0/d024d01bbaffbed770c115ce674ed71b.jpg","date":"2010-05-23","year":2010,"month":5,"lon":-78.64578,"lat":26.500456,"tags":"deadman%27s+reef,freeport+bahamas,paradise+cove,snorkeling","S2CellId":"6c40000000000000","result":6780,"accuracy":0.17948991,"title":"100_0144","description":"Dcim%5C100sport"}
{"id":6302373973,"url":"http://farm7.staticflickr.com/6213/6302373973_bf9b37a0d7.jpg","path":"da6/bdd/da6bddc2fed119916bcb88d5938a94.jpg","date":"2011-10-29","year":2011,"month":10,"lon":-78.76339,"lat":26.525034,"tags":"carnival,cruise,inspiration,malt,shop","S2CellId":"880e2b5000000000","result":8111,"accuracy":0.010117208,"title":"Carnival+Inspiration+in+Freeport"}
{"id":4646273985,"url":"http://farm4.staticflickr.com/3365/4646273985_a681e973fa.jpg","path":"e67/291/e6729188b126548bb5657c7d32b9eb35.jpg","date":"2010-05-23","year":2010,"month":5,"lon":-78.64578,"lat":26.500456,"tags":"deadman%27s+reef,freeport+bahamas,paradise+cove,snorkeling","S2CellId":"8f5d000000000000","result":9533,"accuracy":0.116375245,"title":"100_0008","description":"Dcim%5C100sport"}
{"id":5484552226,"url":"http://farm6.staticflickr.com/5132/5484552226_a7748234d4.jpg","path":"742/3bf/7423bf83478f163030d295fb8a75ab19.jpg","date":"2011-02-21","year":2011,"month":2,"lon":-78.69694,"lat":26.53563,"tags":"bahamas,blurred,freeport,grand+bahama,high+quality","S2CellId":"346ecc0000000000","result":2226,"accuracy":0.0047595934,"title":"2011-02-21+10.45.45.jpg"}
{"id":3497104968,"url":"http://farm4.staticflickr.com/3654/3497104968_c3ccafbfb7.jpg","path":"f7d/a21/f7da2164917cc8e4c0f8dbcd77276f8.jpg","date":"2009-04-27","year":2009,"month":4,"lon":-78.64185,"lat":26.50161,"tags":"4.6-17.3+mm,bahamas,carnival,cruise,freeport,vacation","S2CellId":"88e0a40000000000","result":8645,"accuracy":0.06326614,"title":"IMG_5761"}
{"id":103600045,"url":"http://farm1.staticflickr.com/31/103600045_493d49b5a5.jpg","path":"c24/93e/c2493e378c7130a7fa39e450b599526.jpg","date":"2005-08-08","year":2005,"month":8,"lon":-78.642136,"lat":26.513378,"tags":"bahamas,blackbeards,chris+heid,mds,midwest+diving+specialist,morning+star,scuba","S2CellId":"8edc000000000000","result":9506,"accuracy":0.28763825,"title":"BlackBeards_Bahamas_0815"}
{"id":4646820680,"url":"http://farm5.staticflickr.com/4034/4646820680_055854bce8.jpg","path":"edd/2ec/edd2ec31235a657dbae7ecc834c192f.jpg","date":"2010-05-23","year":2010,"month":5,"lon":-78.64578,"lat":26.500456,"tags":"deadman%27s+reef,freeport+bahamas,paradise+cove,snorkeling","S2CellId":"8c13000000000000","result":9418,"accuracy":0.19726287,"title":"100_0339","description":"Dcim%5C100sport"}
{"id":4646774478,"url":"http://farm5.staticflickr.com/4065/4646774478_8f6fcc416f.jpg","path":"4df/f5b/4dff5b7257e8f133fb2475ccbbf16ee5.jpg","date":"2010-05-24","year":2010,"month":5,"lon":-78.64578,"lat":26.500456,"tags":"bahamas,freeport,freeport%2C+bahamas,pat+and+diane,rainbow+reef,snorkeling","S2CellId":"8f5d000000000000","result":9533,"accuracy":0.120306864,"title":"100_0159","description":"Dcim%5C100sport"}
{"id":5483958611,"url":"http://farm6.staticflickr.com/5217/5483958611_f0cb338f00.jpg","path":"b1d/bf0/b1dbf09f2afc70bdfe615f1df85e4321.jpg","date":"2011-02-21","year":2011,"month":2,"lon":-78.69694,"lat":26.53563,"tags":"bahamas,blurred,freeport,grand+bahama,high+quality,long+shot,one+face","S2CellId":"1844000000000000","result":1428,"accuracy":0.15586062,"title":"2011-02-21+14.43.55.jpg"}
{"id":4646128485,"url":"http://farm4.staticflickr.com/3399/4646128485_82f6f031de.jpg","path":"6af/718/6af71854f9d2fcc638295c697b92490.jpg","date":"2010-05-24","year":2010,"month":5,"lon":-78.64578,"lat":26.500456,"tags":"bahamas,freeport,freeport%2C+bahamas,pat+and+diane,rainbow+reef,snorkeling","S2CellId":"8f5d000000000000","result":9533,"accuracy":0.06459709,"title":"100_0076","description":"Dcim%5C100sport"}
{"id":6267553474,"url":"http://farm7.staticflickr.com/6159/6267553474_42cecf836c.jpg","path":"b2b/5f6/b2b5f61f726df8b7c2e261741632710.jpg","date":"2011-10-02","year":2011,"month":10,"lon":-78.589294,"lat":26.538908,"tags":"bahamas,beautiful,beauty,blue,bright,bushes,ocean,palm,palm+tree,ray,rays,sand,sky,sun,sunset,water,wet","S2CellId":"4d2d000000000000","result":5942,"accuracy":0.08543463,"title":"Sunset+In+The+Bahamas","description":"I+hope+you+enjoy+today%27s+post.+If+you+like+what+you+see+the+greatest+compliment+you+could+give+me+is+to+share+this+with+others.+I+appreciate+all+the+feedback%2C+comments+and+%27likes%27+I+get+and+read+and+respond+to+every+one+of+them.%0A%0A-+Noah+Katz%0A%0AHit+%3Cb%3E%27L%27%3C%2Fb%3E+and+check+this+out+on+black.+It+really+stands+out+great.%0A%0AIf+your+interested+in+purchasing+anything+you+like+or+would+like+to+check+out+my+full+portfolio%2C+please+stop+by+%3Cb%3E%3Ca+href%3D%22http%3A%2F%2Fwww.maugiart.com%2F%22+rel%3D%22nofollow%22%3Ewww.maugiart.com%3C%2Fa%3E%3C%2Fb%3E%0A%0ARead+more+%3Ca+href%3D%22http%3A%2F%2Fmaugiart.wordpress.com%2F%22+rel%3D%22nofollow%22%3Ehere%3C%2Fa%3E+at+the+Maugiart+blog.+If+you+like+my+photos+please+make+them+your+favorites.+Thanks%21%0A%0APlease+follow+me+on+%3Ca+href%3D%22http%3A%2F%2Ftwitter.com%2F%23%21%2FNoahJasonKatz%22+rel%3D%22nofollow%22%3ETwitter+%40noahjasonkatz%3C%2Fa%3E+as+well+or++%3Cb%3E%3Ca+href%3D%22https%3A%2F%2Fplus.google.com%2F110949655967512985542%22+rel%3D%22nofollow%22%3EGoogle+Plus%3C%2Fa%3E%3C%2Fb%3E%0A%0AIf+your+on+Facebook+please+%27Like%27+my+%3Cb%3E%3Ca+href%3D%22http%3A%2F%2Fwww.facebook.com%2Fmaugiart%22+rel%3D%22nofollow%22%3EMaugiArt+Photography%3C%2Fa%3E%3C%2Fb%3E+page.%0A%0AThank+you+for+taking+the+time+to+check+out+my+photos.%0A%0AComments+are+greatly+appreciated."}
{"id":2696086906,"url":"http://farm4.staticflickr.com/3002/2696086906_c0d4cbe9fe.jpg","path":"647/e75/647e75ad25320f65a54b8f05085282d.jpg","date":"2008-07-18","year":2008,"month":7,"lon":-78.583145,"lat":26.542646,"tags":"bahamas,cruise,travel","S2CellId":"8b00000000000000","result":9401,"accuracy":0.15095273,"title":"DSC00393"}
{"id":2078604030,"url":"http://farm3.staticflickr.com/2387/2078604030_4f6398ee00.jpg","path":"c79/1d3/c791d3aebf41a63d48eeb75d286bfa2.jpg","date":"2006-09-23","year":2006,"month":9,"lon":-78.62707,"lat":26.514378,"tags":"bahamas,beach,clouds,sunrise","S2CellId":"88d0a631cabb5071","result":8563,"accuracy":0.01679049,"title":"Bahamian+Sunrise+3","description":"Cloud+shots+from+the+Bahamas."}
{"id":231172810,"url":"http://farm1.staticflickr.com/82/231172810_76eb9ab27f.jpg","path":"8af/673/8af673dd87194d1b5752c34c35869.jpg","date":"2006-08-10","year":2006,"month":8,"lon":-78.55565,"lat":26.547812,"tags":"bahamas,beach,blackbeards,grand+bahama,mds,midwest+diving+specialist","S2CellId":"892c000000000000","result":8771,"accuracy":0.3275202,"title":"20060810_Grand_Bahama_Beach_168"}
{"id":4422318495,"url":"http://farm5.staticflickr.com/4048/4422318495_1372b9ef50.jpg","path":"219/152/21915278979b13ec7045e941202faac5.jpg","date":"2010-03-10","year":2010,"month":3,"lon":-78.60443,"lat":26.443523,"tags":"abudefduf+saxatilis,sergeant+major","S2CellId":"7700000000000000","result":6860,"accuracy":0.055992875,"title":"IMG_1304"}
{"id":2695367478,"url":"http://farm4.staticflickr.com/3140/2695367478_cca4fba67c.jpg","path":"65b/0e7/65b0e742b1aaceda6ec4d49285bcbfb.jpg","date":"2008-07-17","year":2008,"month":7,"lon":-78.583145,"lat":26.542646,"tags":"bahamas,diving,travel","S2CellId":"6500000000000000","result":6575,"accuracy":0.08907366,"title":"DSC00209"}
{"id":8322860711,"url":"http://farm9.staticflickr.com/8502/8322860711_c37522c906.jpg","path":"e97/b2f/e97b2fa5a26459f124da1df2cd30b1af.jpg","date":"2012-12-29","year":2012,"month":12,"lon":-78.99082,"lat":26.700813,"tags":"bahamas,beaches,old+bahama+bay,vacations","S2CellId":"8f5d000000000000","result":9533,"accuracy":0.038158853,"title":"DSC_0003_01"}
{"id":231164272,"url":"http://farm1.staticflickr.com/98/231164272_bdd2d93afc.jpg","path":"28c/4e8/28c4e826cb261a732ade4d3b2e47ce99.jpg","date":"2006-08-10","year":2006,"month":8,"lon":-78.55565,"lat":26.547812,"tags":"bahamas,beach,blackbeards,grand+bahama,kersten+wilson,matt+wilson,mds,midwest+diving+specialist","S2CellId":"8f4fc00000000000","result":9526,"accuracy":0.030218186,"title":"20060810_Grand_Bahama_Beach_158"}
{"id":6905329305,"url":"http://farm8.staticflickr.com/7208/6905329305_3038e1f29a.jpg","path":"4e9/a51/4e9a5166cfb53e7cf0e4ce50ca9975.jpg","date":"2012-02-14","year":2012,"month":2,"lon":-78.64014,"lat":26.541851,"tags":"family+life,love+like+you+mean+it+marriage+cruise,nikon+d7000,norwegian+cruise+lines,sky","S2CellId":"8f4fc00000000000","result":9526,"accuracy":0.26627663,"title":"Oceanside+Portrait","description":"Love+Like+You+Mean+It+Marriage+Cruise%2C+Feb.+13-17%2C+2012%0A%5BD7K_3007%5D"}
{"id":2694712363,"url":"http://farm4.staticflickr.com/3042/2694712363_46b308060c.jpg","path":"f1e/bff/f1ebff8db9f3ab07cd1e7391290d9a7.jpg","date":"2008-07-19","year":2008,"month":7,"lon":-78.583145,"lat":26.542646,"tags":"bahamas,snorkeling,travel,underwater","S2CellId":"2bfc000000000000","result":1527,"accuracy":0.17152597,"title":"DSC00429"}
{"id":4646816494,"url":"http://farm5.staticflickr.com/4046/4646816494_a761cefd16.jpg","path":"c64/0bc/c640bcfa80177b46fb422716fc0d556.jpg","date":"2010-05-23","year":2010,"month":5,"lon":-78.64578,"lat":26.500456,"tags":"deadman%27s+reef,freeport+bahamas,paradise+cove,snorkeling","S2CellId":"6f00000000000000","result":6856,"accuracy":0.038572602,"title":"100_0329","description":"Dcim%5C100sport"}
{"id":4646881516,"url":"http://farm5.staticflickr.com/4019/4646881516_bcbd8d7420.jpg","path":"65d/53a/65d53ada5bae9a5039eafa7135c56c4c.jpg","date":"2010-05-23","year":2010,"month":5,"lon":-78.64578,"lat":26.500456,"tags":"deadman%27s+reef,freeport+bahamas,paradise+cove,snorkeling","S2CellId":"8c13000000000000","result":9418,"accuracy":0.12067872,"title":"100_0220","description":"Dcim%5C100sport"}
{"id":5643277176,"url":"http://farm6.staticflickr.com/5107/5643277176_62550e473b.jpg","path":"80c/462/80c462e1a44284c3e6995ecaa761869b.jpg","date":"2011-04-16","year":2011,"month":4,"lon":-78.342415,"lat":26.610506,"tags":"bahamas,ben%27s+cave,caribean,cave,collapsed,commonwealth,fresh+water,grand+bahamas,island,lucayan,lucayan+national+park,salt+water,tropics,vacation","S2CellId":"88da400000000000","result":8606,"accuracy":0.010599131,"title":"Stairs"}
{"id":4646873614,"url":"http://farm5.staticflickr.com/4027/4646873614_259c20771b.jpg","path":"e25/afa/e25afaeb17ee5896c3c11a716f6269d.jpg","date":"2010-05-23","year":2010,"month":5,"lon":-78.64578,"lat":26.500456,"tags":"deadman%27s+reef,freeport+bahamas,paradise+cove,snorkeling","S2CellId":"2bfc000000000000","result":1527,"accuracy":0.2400061,"title":"100_0200","description":"Dcim%5C100sport"}
{"id":214028431,"url":"http://farm1.staticflickr.com/57/214028431_b5091f7042.jpg","path":"aba/55b/aba55b30c68fb5f54595821c1c8386c4.jpg","date":"2006-08-04","year":2006,"month":8,"lon":-78.64149,"lat":26.509377,"tags":"2006,blackbeards,grand+bahama,kersten+wilson,mds,midwest+diving+specialist,port+lucaya,steve+smith","S2CellId":"8f5d000000000000","result":9533,"accuracy":0.032457255,"title":"20060804_Port_Lucaya_040","description":"DIGITAL+IMAGE"}
{"id":8323596534,"url":"http://farm9.staticflickr.com/8352/8323596534_6db417edff.jpg","path":"205/f76/205f767f4986a416a381c0a074c1e86.jpg","date":"2012-12-29","year":2012,"month":12,"lon":-78.99082,"lat":26.700813,"tags":"bahamas,beaches,old+bahama+bay,vacations","S2CellId":"88d0a631cabb5071","result":8563,"accuracy":0.023582608,"title":"DSC_0074_01"}
{"id":106754625,"url":"http://farm1.staticflickr.com/38/106754625_7f25e5dae8.jpg","path":"b7d/3fa/b7d3fa1be0dcd1587a6ad2177c7e927f.jpg","date":"2005-09-01","year":2005,"month":9,"lon":-78.642136,"lat":26.513378,"tags":"bahamas,blackbeards,chris+heid,mds,midwest+diving+specialist,morning+star,port+lucaya,ruth+maeker,scuba","S2CellId":"8752d00000000000","result":7833,"accuracy":0.34403366,"title":"BlackBeards_Bahamas_0854"}
