{"id":2701303227,"url":"http://farm4.staticflickr.com/3131/2701303227_cc0d0a9f4e.jpg","path":"41a/897/41a897d98443547231fca5c72c12632.jpg","date":"2008-07-24","year":2008,"month":7,"lon":-16.984863,"lat":32.748436,"tags":"madeira,resa,semester","S2CellId":"12c9100000000000","result":838,"accuracy":0.063753925,"title":"Madeira+2008"}
{"id":3920753023,"url":"http://farm4.staticflickr.com/3647/3920753023_b2c814f263.jpg","path":"d83/7ff/d837ffa1d5525ac2508a93f39cfffec.jpg","date":"2006-08-14","year":2006,"month":8,"lon":-17.134037,"lat":32.828537,"tags":"barrancos,barranquismo,ca%C3%B1ones,canyoning,katiuskas,katiuskas.es,madeira","S2CellId":"54bfc00000000000","result":6300,"accuracy":0.039156184,"title":"Funda+2006-08-14+15-09-41.jpg","description":"Ribeira+Funda"}
{"id":4839519030,"url":"http://farm5.staticflickr.com/4104/4839519030_a1839e672f.jpg","path":"e88/aae/e88aaeed992899f449a12067757a508f.jpg","date":"2010-04-12","year":2010,"month":4,"lon":-16.90278,"lat":32.675564,"tags":"funchal,ilha+da+madeira,nossa+senhora+do+monte,portugal,prt","S2CellId":"0c60700000000000","result":149,"accuracy":0.055928532,"title":"aida_1004_049","description":"Blick+auf+Funchal+vom+Monte"}
{"id":5665523640,"url":"http://farm6.staticflickr.com/5181/5665523640_5faf29686c.jpg","path":"6d6/1e5/6d61e5468a97af9abed79033ce1ad6.jpg","date":"2011-04-25","year":2011,"month":4,"lon":-16.941776,"lat":32.66127,"tags":"madeira","S2CellId":"0c60500000000000","result":148,"accuracy":0.13897781,"title":"IMG_2408"}
{"id":6801651238,"url":"http://farm8.staticflickr.com/7206/6801651238_54c7e2dd5b.jpg","path":"a39/bc2/a39bc2efa5a3aee12281f81e2790b89a.jpg","date":"2012-02-15","year":2012,"month":2,"lon":-17.201328,"lat":32.754726,"tags":"ferien,holidays,island%3B,madeira,urlaub,vacation","S2CellId":"88d0a631cabb5071","result":8563,"accuracy":0.0066094007,"title":"It+shouldn%27t+be","description":"A+rainy+day+in+february+2012.+%0A%0AMy+first+attempt+to+reach+the+Paul+de+Serra+plateau+%281.100m%29+on+foot+ended+at+1.000m+.+It+didn%27t+stop+raining%2C+all+my+cloth+were+wet.+Strong%2C+cold+wind+set+in+and+would+have+either+blow+me+back+down+or+deep+freeze+me..."}
{"id":4893464075,"url":"http://farm5.staticflickr.com/4095/4893464075_3122566b19.jpg","path":"afe/81a/afe81a3036c0944d21f8de1344a4d8c5.jpg","date":"2009-11-05","year":2009,"month":11,"lon":-17.212679,"lat":32.740307,"tags":"madeira,portugal","S2CellId":"1317000000000000","result":977,"accuracy":0.012113202,"title":"Nossa+Senhora+do+Ros%C3%A1rio"}
{"id":2250462952,"url":"http://farm3.staticflickr.com/2346/2250462952_73bf5d628b.jpg","path":"80f/5a2/80f5a2b1f8eb8284da8b70463aaae016.jpg","date":"2008-01-29","year":2008,"month":1,"lon":-17.263985,"lat":32.81541,"tags":"madeira","S2CellId":"48b0000000000000","result":5782,"accuracy":0.44009304,"title":"Ponto+do+Pargo+1"}
{"id":4150524744,"url":"http://farm3.staticflickr.com/2545/4150524744_5b939620bf.jpg","path":"88a/c6d/88ac6da81e7acd154caae7464ad64bd.jpg","date":"2009-11-14","year":2009,"month":11,"lon":-16.948029,"lat":32.63533,"tags":"doca+do+cavacas,lido,madeira,pool,swimming,zjlb","S2CellId":"0640000000000000","result":73,"accuracy":0.03306488,"title":"DSC06102"}
{"id":200216335,"url":"http://farm1.staticflickr.com/61/200216335_fd1db24848.jpg","path":"58d/f99/58df99dbd44750e94b2c228291c0ee21.jpg","date":"2005-09-13","year":2005,"month":9,"lon":-16.9,"lat":32.65,"tags":"2005,200509,funchal,holiday,madeira,portugal,santa+clara+convent","S2CellId":"0d6f000000000000","result":568,"accuracy":0.12948789,"title":"Santa+Clara+Convent+%282%29"}
{"id":3329657596,"url":"http://farm4.staticflickr.com/3657/3329657596_192d1b827a.jpg","path":"114/92a/11492a181fc97071c1d4b172c01eba7d.jpg","date":"2009-02-19","year":2009,"month":2,"lon":-17.173931,"lat":32.718987,"tags":"calheta,madeira,marina,palm+trees","S2CellId":"0c40840000000000","result":129,"accuracy":0.10809186,"title":"Calheta+Marina+from+the+Calheta+Beach+Hotel%2C+Madeira","description":"The+first+couple+of+days+were+a+bit+cloudy%2C+but+the+weather+soon+improved.+Better+than+England+in+February%2C+any+day%21"}
{"id":2605942352,"url":"http://farm4.staticflickr.com/3275/2605942352_cf1bf34806.jpg","path":"84d/823/84d82381cc9f43894134e78f32cffa.jpg","date":"2008-06-08","year":2008,"month":6,"lon":-17.029152,"lat":32.73682,"tags":"macaronesia,madeira,portugal","S2CellId":"0c60500000000000","result":148,"accuracy":0.59327894,"title":"View+from+the+Pousada+dos+Vinhaticos","description":"Madeira%2C+8-15+June+2008"}
{"id":2701307703,"url":"http://farm4.staticflickr.com/3130/2701307703_6e535b5c74.jpg","path":"2a2/dc9/2a2dc96f2544a19b6366f2ac7b3f8c7b.jpg","date":"2008-07-25","year":2008,"month":7,"lon":-16.984863,"lat":32.748436,"tags":"madeira,resa,semester","S2CellId":"7954cc0000000000","result":6872,"accuracy":0.19886874,"title":"Madeira+2008"}
{"id":6816267278,"url":"http://farm8.staticflickr.com/7049/6816267278_d44d3e66f9.jpg","path":"a5c/cc1/a5ccc1b4e1654a4af237eee0ad4faa.jpg","date":"2011-05-28","year":2011,"month":5,"lon":-16.895878,"lat":32.661438,"tags":"2011,arbre,botanical+garden,funchal,garden,ilha+da+madeira,jardim,jardim+bot%C3%A2nico,jardin,jardin+botanique,mad%C3%A8re,madeira,madere,palm+tree,palmeira,palmier,portugal,tree,zamito,zamito44","S2CellId":"7c06c00000000000","result":6897,"accuracy":0.24994345,"title":"Funchal+-+Jardin+botanique"}
{"id":4643100184,"url":"http://farm5.staticflickr.com/4058/4643100184_8eb11151f8.jpg","path":"de5/931/de59317ac13f2e348e7bfb533687c.jpg","date":"2006-05-09","year":2006,"month":5,"lon":-16.902466,"lat":32.67507,"tags":"jardin+tropico,madeira,monte","S2CellId":"0c60700000000000","result":149,"accuracy":0.096536376,"title":"DSCF0134"}
{"id":222278866,"url":"http://farm1.staticflickr.com/75/222278866_43ec3b68c6.jpg","path":"261/7d1/2617d1e0629fdaff28b8ad0ba47fed7.jpg","date":"2005-04-01","year":2005,"month":4,"lon":-16.908646,"lat":32.65101,"tags":"bird+of+paradise+flower,flower,hisgett,madeira","S2CellId":"89c6fc0000000000","result":9178,"accuracy":0.027058875,"title":"Bird+of+Paradise+Flower"}
{"id":9092726379,"url":"http://farm8.staticflickr.com/7410/9092726379_4f80079548.jpg","path":"eac/e81/eace81bbc7d4383ea9a4e54b33bd94a.jpg","date":"2013-05-31","year":2013,"month":5,"lon":-17.104124,"lat":32.68009,"tags":"church,do,eglise,ilha,insel,isla,island,k%C3%BCste,kirche,madeira,ponta,portugal,portugues,sol","S2CellId":"0b00000000000000","result":126,"accuracy":0.22676179,"title":"Glocke"}
{"id":11427155324,"url":"http://farm6.staticflickr.com/5499/11427155324_3dd5dcd52b.jpg","path":"3a2/72c/3a272c8663d81aa1059688c4148326b.jpg","date":"2013-12-10","year":2013,"month":12,"lon":-16.957268,"lat":32.671055,"tags":"levada,madeira,portugal,trees,water","S2CellId":"0c60500000000000","result":148,"accuracy":0.15323,"title":"Levada+do+Curral","description":"%28Levada+do+Curral%29"}
{"id":8627701228,"url":"http://farm9.staticflickr.com/8105/8627701228_21968c0a70.jpg","path":"b47/d3e/b47d3ee5a32e2451eaec0a42159f2dd.jpg","date":"2011-06-06","year":2011,"month":6,"lon":-17.064537,"lat":32.671116,"tags":"%C3%A9glise,2011,church,igreja,ilha+da+madeira,mad%C3%A8re,madeira,madere,portugal,pt,ribeira+brava,s%C3%A3o+bento","S2CellId":"93f0000000000000","result":9668,"accuracy":0.106877424,"title":"Mad%C3%A8re+-+Ribeira+Brava%2C+Int%C3%A9rieur+de+l%27%C3%A9glise+S%C3%A3o+Bento"}
{"id":3070723304,"url":"http://farm4.staticflickr.com/3216/3070723304_7b1b67eeb6.jpg","path":"1c9/2df/1c92df5ae241423ceaae78ee4a37ecd4.jpg","date":"2008-10-26","year":2008,"month":10,"lon":-16.909847,"lat":32.66792,"tags":"madeira,portugal","S2CellId":"4cc91d0000000000","result":5899,"accuracy":0.09600361,"title":"0810+Kreuzfahrt_1810"}
{"id":2223246737,"url":"http://farm3.staticflickr.com/2146/2223246737_876ea5d05b.jpg","path":"60c/ce4/60cce4f92b924d9ec47b2339def69c8.jpg","date":"2008-01-02","year":2008,"month":1,"lon":-16.909332,"lat":32.65325,"tags":"funchal,madeira","S2CellId":"0c60700000000000","result":149,"accuracy":0.112984724,"title":"Botanical+Garden+1"}
{"id":4055207418,"url":"http://farm3.staticflickr.com/2789/4055207418_3ff050b3e2.jpg","path":"643/666/643666a6e9e8f16c1ff91e1bcfe656fe.jpg","date":"2009-08-19","year":2009,"month":8,"lon":-16.897831,"lat":32.640244,"tags":"bird,cagarra,madeira,ocean,portugal","S2CellId":"88d0a631cabb5071","result":8563,"accuracy":0.091849856,"title":"Cagarra","description":"These+majestic+birds+produce+a+very+strange+sound%2C+resembling+someone+speaking+randomly"}
{"id":5662025664,"url":"http://farm6.staticflickr.com/5027/5662025664_758fe1097c.jpg","path":"417/992/417992dee0d2df38831cfa20b9981ee6.jpg","date":"2011-04-21","year":2011,"month":4,"lon":-16.907957,"lat":32.654697,"tags":"madeira","S2CellId":"0c60700000000000","result":149,"accuracy":0.3837908,"title":"IMG_1641"}
{"id":3922675126,"url":"http://farm4.staticflickr.com/3439/3922675126_6e0109efc7.jpg","path":"8a7/987/8a79876b80f57ee56e8dd447301278.jpg","date":"2006-08-15","year":2006,"month":8,"lon":-17.07181,"lat":32.787346,"tags":"barrancos,barranquismo,ca%C3%B1ones,canyoning,katiuskas,katiuskas.es,madeira","S2CellId":"3467d00000000000","result":2117,"accuracy":0.60588,"title":"Passo+superior+2006-08-15+17-32-10.jpg","description":"Ribeira+do+Passo+superior"}
{"id":3982406873,"url":"http://farm3.staticflickr.com/2613/3982406873_d946130dd4.jpg","path":"dba/734/dba7348d9c6686e4e70b1c15cd2df29.jpg","date":"2009-08-19","year":2009,"month":8,"lon":-16.90351,"lat":32.64877,"tags":"atum,fish,funchal,madeira,mercado,peixaria,peixe,portugal","S2CellId":"883a400000000000","result":8336,"accuracy":0.015884452,"title":"Atum","description":"Not+a+dog.+It%27s+tuna%21+Same+guy+that+i+captured+%3Ca+href%3D%22http%3A%2F%2Fwww.flickr.com%2Fphotos%2Fbartb_pt%2F3699750351%2F%22%3Ehere%3C%2Fa%3E%2C+but+a+couple+of+months+later."}
{"id":2954532393,"url":"http://farm4.staticflickr.com/3197/2954532393_027def8bfb.jpg","path":"6c9/db9/6c9db91aaefd6aae2e97484be8556b54.jpg","date":"2008-10-10","year":2008,"month":10,"lon":-16.910877,"lat":32.648216,"tags":"funchal,madeira","S2CellId":"0d1ac00000000000","result":238,"accuracy":0.08462412,"title":"Rua+de+Merces"}
{"id":10366084366,"url":"http://farm6.staticflickr.com/5502/10366084366_ea1b1812d4.jpg","path":"713/282/713282641ca518ed7cd88864990516f.jpg","date":"2013-08-30","year":2013,"month":8,"lon":-16.902,"lat":32.67433,"tags":"funchal,madeira","S2CellId":"0c60700000000000","result":149,"accuracy":0.41714773,"title":"Funchal"}
{"id":2459608296,"url":"http://farm4.staticflickr.com/3029/2459608296_c7fcbe84d7.jpg","path":"ca8/184/ca81846da81bcbcdeb0aeae5929f346.jpg","date":"2008-01-29","year":2008,"month":1,"lon":-16.90281,"lat":32.66409,"tags":"2008,bloom,flower,funchal,january,jardim+botanical,jardim+tropical,madeira,pet_r","S2CellId":"312f000000000000","result":1733,"accuracy":0.024038035,"title":"January+Madeira+in+Bloom","description":"This+shot+was+taken+in+the+tropical+garden+%28Jardim+Tropical%29+in+Monte+%28Funchal%29.+Comments+on+what+plant+this+is+are+welcome..+A+little+blurred%2C+but+I+am+happy+with+the+composition."}
{"id":7144516401,"url":"http://farm8.staticflickr.com/7049/7144516401_3068197de9.jpg","path":"f84/5c6/f845c639f6e78dba128369b272397a0.jpg","date":"2012-01-03","year":2012,"month":1,"lon":-17.104254,"lat":32.73877,"tags":"madeira","S2CellId":"8740300000000000","result":7807,"accuracy":0.24906154,"title":"Madeira","description":"Steep+hills"}
{"id":4624163153,"url":"http://farm5.staticflickr.com/4021/4624163153_009ae8123a.jpg","path":"2ad/a35/2ada35a77ceb41e63f4294e752766111.jpg","date":"2008-10-16","year":2008,"month":10,"lon":-16.860048,"lat":32.790493,"tags":"bl%C3%BCte,blossom,blume,catchy+colors,closeup,flower,ilha+da+madeira,ilustrar+portugal,madeira,nahaufnahme,natur,nature,portugal,red,rot","S2CellId":"47edc00000000000","result":4703,"accuracy":0.2987401,"title":"In+shape","description":"You+can+find+the+awesome+looking+flowers+all+over+the+island.%0A%0A%3Ca+href%3D%22http%3A%2F%2Floc.alize.us%2F%23%2Fflickr%3A4624163153%22+rel%3D%22nofollow%22%3ESee+where+this+picture+was+taken.%3C%2Fa%3E+%3Ca+href%3D%22http%3A%2F%2Fwww.flickr.com%2Fgroups%2Fgeotagging%2Fdiscuss%2F72157594165549916%2F%22%3E%5B%3F%5D%3C%2Fa%3E"}
{"id":4517616772,"url":"http://farm3.staticflickr.com/2752/4517616772_24dc952d5c.jpg","path":"793/f62/793f6211b1818d49ec498ca849a8e54d.jpg","date":"2010-04-02","year":2010,"month":4,"lon":-17.107689,"lat":32.68999,"tags":"coast,madeira,ruins,tiles","S2CellId":"0b00000000000000","result":126,"accuracy":0.16151062,"title":"in+Jardim+do+Mar%2C+sugar+mill+ruins"}
{"id":420356342,"url":"http://farm1.staticflickr.com/177/420356342_619a17acc9.jpg","path":"44e/f8f/44ef8f6fc26d3d14dc3f97a8f9525d3.jpg","date":"2005-07-31","year":2005,"month":7,"lon":-16.908646,"lat":32.652023,"tags":"funchal,madeira,portugal","S2CellId":"88d0a631cabb5071","result":8563,"accuracy":0.010561798,"title":"Flores+5"}
{"id":5664297884,"url":"http://farm6.staticflickr.com/5228/5664297884_89d868587c.jpg","path":"96b/631/96b6315b18e39dde24bbd68490c442.jpg","date":"2011-04-21","year":2011,"month":4,"lon":-16.911736,"lat":32.65079,"tags":"madeira","S2CellId":"12ce900000000000","result":891,"accuracy":0.120303966,"title":"IMG_1858"}
{"id":6086144579,"url":"http://farm7.staticflickr.com/6190/6086144579_78cde78272.jpg","path":"bfe/9ea/bfe9ea93e814bc4aeb1caf244932ef7.jpg","date":"2010-07-08","year":2010,"month":7,"lon":-16.823502,"lat":32.73942,"tags":"2010,madeira","S2CellId":"80d9549000000000","result":7295,"accuracy":0.02425206,"title":"DSCF8170"}
{"id":8627593504,"url":"http://farm9.staticflickr.com/8522/8627593504_9bc120286a.jpg","path":"e0b/462/e0b4625c8ff2b37ad781ef9421d19378.jpg","date":"2011-06-06","year":2011,"month":6,"lon":-17.004417,"lat":32.656586,"tags":"2011,cabo+gir%C3%A3o,cabo+girao,ilha+da+madeira,mad%C3%A8re,madeira,madere,portugal,pt,touriste","S2CellId":"0c60700000000000","result":149,"accuracy":0.03341063,"title":"Mad%C3%A8re+-+Touristes+au+belv%C3%A9d%C3%A8re+de+Cabo+Gir%C3%A3o"}
{"id":6181464611,"url":"http://farm7.staticflickr.com/6161/6181464611_18339034ce.jpg","path":"943/52e/94352ea7318b33186febfafcbf112c8.jpg","date":"2011-08-31","year":2011,"month":8,"lon":-16.764557,"lat":32.714928,"tags":"baie,machico","S2CellId":"0c6a8c0000000000","result":153,"accuracy":0.18174246,"title":"Machico+en+soire%CC%81e","description":"Panorama+depuis+la+promenade.%0A%0APlease+don%27t+use+this+images+on+websites%2C+blogs+or+other+media+without+my+explicit+permission.+%C2%A9+2011+%22BigAl+81%22+.+All+rights+reserved.%0ACes+photos+sont+mises+%C3%A0+disposition+sous+un+%3Ca+href%3D%22http%3A%2F%2Fcreativecommons.org%2Flicenses%2Fby-nc-sa%2F2.0%2Fdeed.fr%22+rel%3D%22nofollow%22%3E+un+contrat+Creative+Commons+%3C%2Fa%3E"}
{"id":8247058033,"url":"http://farm9.staticflickr.com/8205/8247058033_84b83499c4.jpg","path":"2e6/47d/2e647dce60a37bfad912bf65a9728a54.jpg","date":"2012-12-05","year":2012,"month":12,"lon":-16.906586,"lat":32.648624,"tags":"narrativestrategies,parn,symposium","S2CellId":"89c258fb00000000","result":8987,"accuracy":0.030540146,"title":"Narrative+Strategies+-+1st+Day"}
{"id":248451950,"url":"http://farm1.staticflickr.com/87/248451950_6904e79978.jpg","path":"fb5/8ec/fb58ec611833f20316bd48e7b75da29.jpg","date":"2006-07-21","year":2006,"month":7,"lon":-16.9146,"lat":32.6517,"tags":"funchal,madeira,street","S2CellId":"12d2c00000000000","result":896,"accuracy":0.100603916,"title":"Cal%C3%A7ada+do+Pico","description":"On+our+way+to+the+Fortaleza+do+Pico"}
{"id":2581054831,"url":"http://farm4.staticflickr.com/3009/2581054831_004dfae133.jpg","path":"4b4/934/4b49345a19953e41e81443a5937711.jpg","date":"2008-06-02","year":2008,"month":6,"lon":-17.113953,"lat":32.707577,"tags":"fauna,madeira,madeiraisland,parque+ecologico+do+funchal","S2CellId":"0d56c00000000000","result":472,"accuracy":0.014700761,"title":"Bloem"}
{"id":5978994299,"url":"http://farm7.staticflickr.com/6145/5978994299_f1050473bc.jpg","path":"553/b96/553b96d79f8aaed3d86858a84d5d4c1.jpg","date":"2011-07-20","year":2011,"month":7,"lon":-16.914997,"lat":32.644794,"tags":"1080,hd,kevin+millican,madeira,sx20is,wallpaper,water","S2CellId":"537dc00000000000","result":6064,"accuracy":0.2977257,"title":"Madeira+-+Park+in+Funchal"}
{"id":5545755353,"url":"http://farm6.staticflickr.com/5096/5545755353_864175d480.jpg","path":"479/5e9/4795e9f48a94eb78cce553b1c8fdd24a.jpg","date":"2011-03-11","year":2011,"month":3,"lon":-17.05061,"lat":32.797737,"tags":"2011,55,a55,alpha,atlantic,atlantik,atlantische,bild,blumeninsel,cc,commons,creative,flickr,foto,fr%C3%BChling,geo,hi-res,high+resolution,image,insel,island,jpeg,jpg,leisure,m%C3%A4rz,madeira,photo,picture,portugal,portuguesa,rep%C3%BAblica,slt,slt-a55v,sony,spring,stockphoto,tourism,tourismus,urlaub,volcano,vulkaninsel","S2CellId":"7953d00000000000","result":6866,"accuracy":0.009710426,"title":"2011-03-05+03-13+Madeira+618+Sao+Vicente%2C+Grutas+e+Centro+do+Vulcanismo"}
{"id":420355727,"url":"http://farm1.staticflickr.com/132/420355727_0fb59cd849.jpg","path":"879/dda/879dda333f4426c640c74f46c43e6.jpg","date":"2005-07-30","year":2005,"month":7,"lon":-16.908646,"lat":32.652023,"tags":"funchal,madeira,portugal","S2CellId":"8085874500000000","result":6974,"accuracy":0.019519387,"title":"Flores+4"}
{"id":6181097445,"url":"http://farm7.staticflickr.com/6178/6181097445_7374462fd8.jpg","path":"9a5/09e/9a509e288368b9833637a1bf4422652.jpg","date":"2011-08-31","year":2011,"month":8,"lon":-16.764868,"lat":32.715115,"tags":"machico,nocturne","S2CellId":"1314140000000000","result":970,"accuracy":0.17511632,"title":"Baie+de+Machico+un+soir","description":"Baie+de+Machico.%0A%0APlease+don%27t+use+this+images+on+websites%2C+blogs+or+other+media+without+my+explicit+permission.+%C2%A9+2011+%22BigAl+81%22+.+All+rights+reserved.%0ACes+photos+sont+mises+%C3%A0+disposition+sous+un+%3Ca+href%3D%22http%3A%2F%2Fcreativecommons.org%2Flicenses%2Fby-nc-sa%2F2.0%2Fdeed.fr%22+rel%3D%22nofollow%22%3E+un+contrat+Creative+Commons+%3C%2Fa%3E"}
{"id":2431853243,"url":"http://farm3.staticflickr.com/2023/2431853243_7b714f8c86.jpg","path":"e5c/91a/e5c91a9069103799fd315f49bfb2e24.jpg","date":"2006-08-23","year":2006,"month":8,"lon":-17.0967,"lat":32.679985,"tags":"madeira,portugal,seasunclouds,sunset+madalena","S2CellId":"1317000000000000","result":977,"accuracy":0.12556697,"title":"Almost+dark","description":"Sunset+at+Madalena+do+Mar%2C+Madeira%2C+Portugal."}
{"id":3600759267,"url":"http://farm4.staticflickr.com/3311/3600759267_e123a1fa1e.jpg","path":"13e/d22/13ed22430adb0ad6f2592c56c316b9.jpg","date":"2009-05-29","year":2009,"month":5,"lon":-17.1082,"lat":32.82825,"tags":"beach,black,eiland,island,madeira,portugal,sand,seixal,strand,zand,zwart","S2CellId":"5494c00000000000","result":6235,"accuracy":0.013287183,"title":"Black+sand+beach+Seixal"}
{"id":5664673273,"url":"http://farm6.staticflickr.com/5102/5664673273_cfbdf9b15b.jpg","path":"b31/e81/b31e81d4d31ff5471cf83d3946d207c.jpg","date":"2011-04-24","year":2011,"month":4,"lon":-16.768913,"lat":32.720722,"tags":"madeira","S2CellId":"7c00100000000000","result":6878,"accuracy":0.14064959,"title":"IMG_2286"}
{"id":3924354084,"url":"http://farm3.staticflickr.com/2487/3924354084_6806b25c67.jpg","path":"b56/64f/b5664f13a8866f1f0f2b0d6635b714c.jpg","date":"2006-08-18","year":2006,"month":8,"lon":-16.929758,"lat":32.7509,"tags":"barrancos,barranquismo,ca%C3%B1ones,canyoning,katiuskas,katiuskas.es,madeira","S2CellId":"3468700000000000","result":2158,"accuracy":0.06415952,"title":"Bonita+2006-08-18+18-18-30.jpg","description":"Ribeira+Bonita"}
{"id":7700851844,"url":"http://farm9.staticflickr.com/8149/7700851844_078af4a5fe.jpg","path":"f2a/4b1/f2a4b1a2c21b4fa7d9f7eff8bd74037.jpg","date":"2011-11-04","year":2011,"month":11,"lon":-17.177382,"lat":32.778885,"tags":"estrada,macaronesia,madeira,road","S2CellId":"6d2f000000000000","result":6810,"accuracy":0.3889984,"title":"Melhor+Estrada+do+Mundo+II","description":"R110%2C+Madeira"}
{"id":7804864886,"url":"http://farm9.staticflickr.com/8281/7804864886_331f94eb97.jpg","path":"b4e/81c/b4e81c92a16738f6127b7f9455bbfde.jpg","date":"2012-08-03","year":2012,"month":8,"lon":-16.702833,"lat":32.7415,"tags":"funchal,levadas,lomo,lomography,madeira,santa+cruz","S2CellId":"0c46340000000000","result":141,"accuracy":0.010032811,"title":"Palmeras"}
{"id":3402388766,"url":"http://farm4.staticflickr.com/3145/3402388766_4120513640.jpg","path":"7dc/b93/7dcb93fa4ee5a437658ce8217da19b7.jpg","date":"2009-03-16","year":2009,"month":3,"lon":-17.111721,"lat":32.68627,"tags":"bananen,calheta,enbodenumer,hiking,hotel,ilha+da+madeira,levada,levada+nova,madeira,madeira+island,maloeira,pa%C3%B9l+do+mar,plantage,ponta+do+sol,portugal,prazeres,quinta+alegre,wandern","S2CellId":"3e8c000000000000","result":2626,"accuracy":0.02145333,"title":"Urspr%C3%BCngliches+Madeira+5.Tag"}
{"id":2954617733,"url":"http://farm4.staticflickr.com/3009/2954617733_53f006190f.jpg","path":"37f/07b/37f07bf732daa4942fdea9f4022709a.jpg","date":"2008-10-10","year":2008,"month":10,"lon":-16.910877,"lat":32.648216,"tags":"funchal,madeira","S2CellId":"12c9100000000000","result":838,"accuracy":0.13985921,"title":"IMG_6001"}
{"id":7290604380,"url":"http://farm8.staticflickr.com/7236/7290604380_73a7f24396.jpg","path":"103/25e/10325eaf1f45be99c8eb5f0b9d2495b.jpg","date":"2010-09-29","year":2010,"month":9,"lon":-16.893368,"lat":32.61838,"tags":"atlantic+ocean,boats,canon+450d+xsi,canon+xsi,clouds,europe,island,landscape,madeira,ocean,portugal,rep%C3%BAblica+portuguesa,runintherain,sailboats,sailing,sky,view,water","S2CellId":"133b140000000000","result":1144,"accuracy":0.061050482,"title":"Rocky+Ocean+Landscape+%28MS+Ventura%2C+at+sea+off+Madeira%2C+Portugal%29"}
{"id":9117226232,"url":"http://farm3.staticflickr.com/2830/9117226232_3c984ac367.jpg","path":"4af/f48/4aff4805a5514f9104bce063fd92.jpg","date":"2011-06-01","year":2011,"month":6,"lon":-16.866076,"lat":32.657906,"tags":"2011,dahlia,ferreiro,fleur,flora,flower,funchal,garden,ilha+da+madeira,jardin,mad%C3%A8re,madeira,madere,palheiro+ferreiro,palheiro+gardens,parc,park,portugal,pt,quinta,quinta+do+palheiro+ferreiro","S2CellId":"89c2f34000000000","result":9103,"accuracy":0.019311259,"title":"Dahlia","description":"Dans+les+jardins+de+la+Quinta+do+Palheiro+Ferreiro+%C3%A0+Funchal"}
{"id":229898283,"url":"http://farm1.staticflickr.com/85/229898283_ef2be63c83.jpg","path":"fce/211/fce211fbf582ac53129c8f1e1bd73fc7.jpg","date":"2006-07-26","year":2006,"month":7,"lon":-16.965895,"lat":32.722885,"tags":"eira+do+serrado,madeira","S2CellId":"0c60500000000000","result":148,"accuracy":0.5524619,"title":"Curral+das+Freiras","description":"From+the+viewpoint+at+Eira+do+Serrado+%281094m%29%2C+a+village+perched+on+the+mountain+edge."}
{"id":393003173,"url":"http://farm1.staticflickr.com/180/393003173_f6281a4ae3.jpg","path":"8ec/c5f/8ecc5f6499b498a327b3c51034b8957.jpg","date":"2007-02-16","year":2007,"month":2,"lon":-17.0113,"lat":32.694,"tags":"ca%CC%82mara+dos+lobos,landscape,madeira,portugal","S2CellId":"3ae3c00000000000","result":2525,"accuracy":0.11123683,"title":"Small+pieces+of+land","description":"Ca%CC%82mara+dos+Lobos%2C+Madeira%2C+Portugal"}
{"id":2701307917,"url":"http://farm4.staticflickr.com/3107/2701307917_53a837eba3.jpg","path":"51e/e91/51ee919b22df2937fedf12fd58b12ea0.jpg","date":"2008-07-25","year":2008,"month":7,"lon":-16.984863,"lat":32.748436,"tags":"madeira,resa,semester","S2CellId":"0c60500000000000","result":148,"accuracy":0.19727843,"title":"Madeira+2008"}
{"id":3319634685,"url":"http://farm4.staticflickr.com/3582/3319634685_6c98d514d5.jpg","path":"9de/fa1/9defa194b23c4fad29381742eaaf6c5.jpg","date":"2009-01-07","year":2009,"month":1,"lon":-16.922167,"lat":32.65333,"tags":"acantilado,barco,boat,cliff,clouds,mar,nubes,sal-100m28,sea,sony+a700","S2CellId":"0c60700000000000","result":149,"accuracy":0.08486758,"title":"Costa+de+Madeira+%2F+Madeira+Coast"}
{"id":5043908101,"url":"http://farm5.staticflickr.com/4090/5043908101_08f2c71746.jpg","path":"484/f75/484f75b181ae8629c02fdea47cd57c.jpg","date":"2010-09-25","year":2010,"month":9,"lon":-16.911392,"lat":32.648266,"tags":"2010,holiday,madeira,madeiraholiday","S2CellId":"487585b000000000","result":5153,"accuracy":0.115017205,"title":"IMG_2559"}
{"id":10073286466,"url":"http://farm4.staticflickr.com/3826/10073286466_68832b933e.jpg","path":"5ea/d6e/5ead6e555d2674466a654989c1f8471.jpg","date":"2013-09-12","year":2013,"month":9,"lon":-16.900167,"lat":32.647835,"tags":"funchal,madeira","S2CellId":"0d2464e400000000","result":260,"accuracy":0.04547247,"title":"Funchal+details"}
{"id":5537223638,"url":"http://farm6.staticflickr.com/5091/5537223638_d1623a39af.jpg","path":"59d/1ef/59d1efe272fc667988daf6c314dccf5.jpg","date":"2011-03-09","year":2011,"month":3,"lon":-16.89649,"lat":32.671257,"tags":"airport,boats,cloud,dolphins,funchal,hotel,island,levada,madeira,mountains,portugal,rain,sea,sun,trees,walk,weather","S2CellId":"2190000000000000","result":1487,"accuracy":0.06395292,"title":"Levada+walk"}
{"id":233138112,"url":"http://farm1.staticflickr.com/50/233138112_c17cda0a41.jpg","path":"46e/96b/46e96b1aa5d47a0a45253844ace3e36.jpg","date":"2006-07-24","year":2006,"month":7,"lon":-16.791155,"lat":32.687675,"tags":"church,madeira,parking,tower","S2CellId":"009d000000000000","result":45,"accuracy":0.1545599,"title":"Santa+Cruz","description":"A+very+pleasant+sea-side+town.+This+is+the+church+of+Sao+Salvador%0A%0A%3Ca+href%3D%22http%3A%2F%2Floc.alize.us%2F%23%2Fflickr%3A233138112%22+rel%3D%22nofollow%22%3ESee+where+this+picture+was+taken.%3C%2Fa%3E+%3Ca+href%3D%22http%3A%2F%2Fwww.flickr.com%2Fgroups%2Fgeotagging%2Fdiscuss%2F72157594165549916%2F%22%3E%5B%3F%5D%3C%2Fa%3E"}
{"id":6086664676,"url":"http://farm7.staticflickr.com/6086/6086664676_8440ca4207.jpg","path":"3b9/698/3b969845c511bf69658f61945eb9680.jpg","date":"2010-07-07","year":2010,"month":7,"lon":-17.225533,"lat":32.7802,"tags":"2010,madeira","S2CellId":"89d3431000000000","result":9235,"accuracy":0.072334245,"title":"DSCF8051"}
{"id":427276012,"url":"http://farm1.staticflickr.com/150/427276012_f1a4f27949.jpg","path":"c59/512/c59512729de884a1953c3994ec67f.jpg","date":"2007-03-19","year":2007,"month":3,"lon":-17.170773,"lat":32.866035,"tags":"madeira,porto+moniz,portugal","S2CellId":"0c60500000000000","result":148,"accuracy":0.52144945,"title":"Vista+desde+el+pueblo"}
{"id":6482891527,"url":"http://farm8.staticflickr.com/7154/6482891527_178d5379db.jpg","path":"c38/bfc/c38bfc9a2cee82ad513f90abd99f5de2.jpg","date":"2011-10-26","year":2011,"month":10,"lon":-17.023006,"lat":32.733543,"tags":"island,madeira,madera,portugal,portugalia,wyspa","S2CellId":"3994000000000000","result":2483,"accuracy":0.13972719,"title":"Madeira"}
{"id":9008594368,"url":"http://farm3.staticflickr.com/2880/9008594368_1cc216293c.jpg","path":"fd5/6a5/fd56a5ac399c252d4ffc1d709ea3bf6d.jpg","date":"2013-05-31","year":2013,"month":5,"lon":-17.103846,"lat":32.67872,"tags":"blick,durch,fenster,holiday,ile,ilha,insel,insula,island,madeira,mauer,mur,ponta,ponta+do+sol,portugal,portugues,sol,sommer,summer,through,urlaub,view,wall,window","S2CellId":"12ba700000000000","result":822,"accuracy":0.12486407,"title":"Ponta+do+Sol+durchs+Fenster"}
{"id":5543173567,"url":"http://farm6.staticflickr.com/5060/5543173567_f132326362.jpg","path":"109/470/10947054b6e43cbbe867a7172c88e8a.jpg","date":"2011-03-06","year":2011,"month":3,"lon":-16.909353,"lat":32.646427,"tags":"2011,55,a55,alpha,atlantic,atlantik,atlantische,bild,blumeninsel,cc,commons,creative,flickr,foto,fr%C3%BChling,geo,hi-res,high+resolution,image,insel,island,jpeg,jpg,leisure,m%C3%A4rz,madeira,photo,picture,portugal,portuguesa,rep%C3%BAblica,slt,slt-a55v,sony,spring,stockphoto,tourism,tourismus,urlaub,volcano,vulkaninsel","S2CellId":"12a4a31000000000","result":742,"accuracy":0.20913504,"title":"2011-03-05+03-13+Madeira+080+Funchal%2C+Hafen"}
{"id":11499718274,"url":"http://farm8.staticflickr.com/7320/11499718274_3a4abd8793.jpg","path":"abf/77b/abf77b195453eecd3abef5d77fb41a.jpg","date":"2013-12-15","year":2013,"month":12,"lon":-16.965614,"lat":32.710556,"tags":"cliff,madeira,portugal,road","S2CellId":"2190000000000000","result":1487,"accuracy":0.5929664,"title":"Looking+straight+down+from+Eira+do+Serrado+%231"}
{"id":409205699,"url":"http://farm1.staticflickr.com/129/409205699_ce025a030d.jpg","path":"421/a8e/421a8e139c1fc970d5566c6f2bf97910.jpg","date":"2007-02-10","year":2007,"month":2,"lon":-16.909504,"lat":32.659393,"tags":"cactos,contraste,f%C3%A9rias,funchal,inverno,jardim+bot%C3%A2nico,madeira,nature","S2CellId":"80c2dc0000000000","result":7212,"accuracy":0.032520153,"title":"picos","description":"%28ph+by+%3Ca+href%3D%22http%3A%2F%2Fwww.flickr.com%2Fphotos%2Fpurplebottle22%22%3E+artur%3C%2Fa%3E%29"}
{"id":5537240380,"url":"http://farm6.staticflickr.com/5137/5537240380_c75e563e3a.jpg","path":"53e/c5b/53ec5b5c5a703f4fada4a13e49df9c18.jpg","date":"2011-03-13","year":2011,"month":3,"lon":-16.912285,"lat":32.648857,"tags":"airport,cloud,funchal,hotel,island,madeira,mountains,portugal,rain,sun,trees,weather","S2CellId":"8c036ec000000000","result":9411,"accuracy":0.12527867,"title":"Funchal+streets+at+dusk"}
{"id":366241193,"url":"http://farm1.staticflickr.com/120/366241193_4bc9ae107a.jpg","path":"ad4/879/ad48792181fc3a42c0711464e5e8fe3a.jpg","date":"2007-01-04","year":2007,"month":1,"lon":-17.058592,"lat":32.762302,"tags":"madeira,newyearseve","S2CellId":"3b07000000000000","result":2532,"accuracy":0.027869662,"title":"Rabacal+wandeling"}
{"id":6483102023,"url":"http://farm8.staticflickr.com/7029/6483102023_ecb4e98f79.jpg","path":"607/a37/607a37b89ad26dee94b1c94abead55.jpg","date":"2011-10-28","year":2011,"month":10,"lon":-17.125717,"lat":32.765453,"tags":"island,madeira,madera,portugal,portugalia,wyspa","S2CellId":"8f51000000000000","result":9527,"accuracy":0.067944385,"title":"Madeira"}
{"id":11482290816,"url":"http://farm4.staticflickr.com/3759/11482290816_0989754074.jpg","path":"575/5e8/5755e81866c6d165d0045dd579e1c44.jpg","date":"2013-12-13","year":2013,"month":12,"lon":-16.699024,"lat":32.746243,"tags":"cliff,madeira,portugal,sea,water","S2CellId":"0c60700000000000","result":149,"accuracy":0.8643883,"title":"Ponta+de+S%C3%A3o+Louren%C3%A7o"}
{"id":3923695561,"url":"http://farm3.staticflickr.com/2456/3923695561_33b7bb7bdb.jpg","path":"718/aa6/718aa692a7ef13e450b05b6d341aa48b.jpg","date":"2006-08-19","year":2006,"month":8,"lon":-17.090693,"lat":32.81642,"tags":"barrancos,barranquismo,ca%C3%B1ones,canyoning,katiuskas,katiuskas.es,madeira","S2CellId":"479c900000000000","result":3813,"accuracy":0.032954924,"title":"Joao+Delgado+2006-08-19+15-31-48.jpg","description":"Canyon+do+Joao+Delgado"}
{"id":6813554280,"url":"http://farm8.staticflickr.com/7045/6813554280_3aa284a2c2.jpg","path":"8a8/f77/8a8f7771be81730d99eddf7f07174d6.jpg","date":"2011-06-06","year":2011,"month":6,"lon":-16.907892,"lat":32.647587,"tags":"2011,art+moderne,cycad,cycas,fleur,flower,funchal,green+plant,ilha+da+madeira,mad%C3%A8re,madeira,madere,modern+art,place,plant,plante,portugal,pra%C3%A7a,sculpture,square,statue,zamito,zamito44","S2CellId":"0c60700000000000","result":149,"accuracy":0.09858175,"title":"Funchal+-+Place+de+l%27assembl%C3%A9e+l%C3%A9gislative+de+Mad%C3%A8re"}
{"id":6293014156,"url":"http://farm7.staticflickr.com/6226/6293014156_b26c67b13a.jpg","path":"7fb/1cf/7fb1cfe04fe322b5856ad87c100319b.jpg","date":"2011-10-29","year":2011,"month":10,"lon":-16.994476,"lat":32.74108,"tags":"4x4,expedition,expeditions,island,jeep,land+rover,madeira,madeiraexpedition,mountainexpedition,off-road,portugal,safari,tours","S2CellId":"0c6a840000000000","result":152,"accuracy":0.121467754,"title":"View+over+the+southwest+from+the+plateau","description":"Discover+the+hidden+beauties+of+Madeira+Island+%28Portugal%29%0A%0AMore+information+about+our+exciting+off-road+jeep+safari+tours%3A+%3Ca+href%3D%22http%3A%2F%2Fwww.mountainexpedition.pt%22+rel%3D%22nofollow%22%3Ewww.mountainexpedition.pt%3C%2Fa%3E"}
{"id":2610560508,"url":"http://farm3.staticflickr.com/2152/2610560508_9d21c3bcfd.jpg","path":"2d0/615/2d06155b92d2721f78151e2c9babada.jpg","date":"2008-06-20","year":2008,"month":6,"lon":-16.938686,"lat":32.646168,"tags":"madeira","S2CellId":"1458300000000000","result":1202,"accuracy":0.016086048,"title":"Hotel+cat"}
{"id":9335321407,"url":"http://farm8.staticflickr.com/7450/9335321407_f813c5314e.jpg","path":"372/cfd/372cfdc08af442eda82276c266eba2b.jpg","date":"2011-06-04","year":2011,"month":6,"lon":-16.692556,"lat":32.748886,"tags":"2011,arid,aride,hiking,ilha+da+madeira,mad%C3%A8re,madeira,madere,pointe,ponta,portugal,presqu%27%C3%AEle,pt,randonn%C3%A9e,randonnee,s%C3%A3o+louren%C3%A7o,sao+lourenco","S2CellId":"5496400000000000","result":6277,"accuracy":0.1171757,"title":"Mad%C3%A8re+-+V%C3%A9g%C3%A9tation+s%C3%A8che+parmis+les+pierres","description":"Le+long+du+chemin+de+la+Ponta+de+S%C3%A3o+Louren%C3%A7o"}
{"id":4959977324,"url":"http://farm5.staticflickr.com/4152/4959977324_4630cc41dc.jpg","path":"d86/bd1/d86bd182c8c26112eb8beacb7268332e.jpg","date":"2007-09-05","year":2007,"month":9,"lon":-16.908773,"lat":32.64662,"tags":"50,bahia,escala,escale,funchal,mad%C3%A9re,madeira,marina,mini+transat,minis,stop+over,transat+6%2C50","S2CellId":"0d63100000000000","result":535,"accuracy":0.094592735,"title":"20070905+Marginal+no+Funchal+Cais+da+Cidade"}
{"id":5661398899,"url":"http://farm6.staticflickr.com/5069/5661398899_43d505d9b1.jpg","path":"22b/989/22b98943c23752829c489eda1c44833b.jpg","date":"2011-04-20","year":2011,"month":4,"lon":-17.033443,"lat":32.78554,"tags":"madeira","S2CellId":"0c60500000000000","result":148,"accuracy":0.2937532,"title":"IMG_1594"}
{"id":3404544645,"url":"http://farm4.staticflickr.com/3602/3404544645_e1a421b6ff.jpg","path":"db1/522/db15226b8c33e19bb1cfc86a3db2ced.jpg","date":"2009-03-20","year":2009,"month":3,"lon":-17.181587,"lat":32.846497,"tags":"calheta,enbodenumer,felsen,hiking,hochebene,hotel,ilha+da+madeira,kneipe,lamaceiros,levada+ribeira+da+janela,madeira,madeira+island,meeresschwimmbad,paul+da+serra,poncha,porto+moniz,portugal,quinta+alegre,ribeira+da+janela,wandern,wasserfall","S2CellId":"5495f00000000000","result":6276,"accuracy":0.4958727,"title":"Urspr%C3%BCngliches+Madeira+9.Tag"}
{"id":6813588070,"url":"http://farm8.staticflickr.com/7177/6813588070_f939fd7bcc.jpg","path":"cfa/9fd/cfa9fd7c7b0366f772fa985a0ba8cd3.jpg","date":"2011-06-04","year":2011,"month":6,"lon":-16.908613,"lat":32.64796,"tags":"%C3%A9glise,2011,cath%C3%A9drale,cathedral,church,funchal,ilha+da+madeira,jean-paul,jean-paul+2,jean-paul+ii,karol+j%C3%B3zef+wojtyla,mad%C3%A8re,madeira,madere,manu%C3%A9lien,pape,pope,portugal,s%C3%A9,sculpture,statue,zamito,zamito44","S2CellId":"0b00000000000000","result":126,"accuracy":0.100530036,"title":"Funchal+-+Statue+de+Jean-Paul+II+devant+la+Cath%C3%A9drale+%28S%C3%A9%29"}
{"id":5266778547,"url":"http://farm6.staticflickr.com/5281/5266778547_1002c3116d.jpg","path":"b66/4f7/b664f7dbb1b04cc42b04747391819e.jpg","date":"2010-11-23","year":2010,"month":11,"lon":-16.701965,"lat":32.743824,"tags":"70.0-300.0+mm,black+and+white,cliffs,madeira,rocks,sea","S2CellId":"48d7400000000000","result":5814,"accuracy":0.04195934,"title":"Soft+Rocks"}
{"id":6998442706,"url":"http://farm8.staticflickr.com/7257/6998442706_3fdab44fbb.jpg","path":"c66/5c2/c665c2aac1719911d24bb99862ad369.jpg","date":"2012-01-03","year":2012,"month":1,"lon":-17.054129,"lat":32.73473,"tags":"encumeada,madeira","S2CellId":"2190000000000000","result":1487,"accuracy":0.2312132,"title":"Encumeada%2C+Madeira","description":"Stunning+mountain+road"}
{"id":4219549100,"url":"http://farm5.staticflickr.com/4048/4219549100_7f1849ed76.jpg","path":"392/a89/392a894cab489c0f4f7f4c0d325cdec.jpg","date":"2008-10-14","year":2008,"month":10,"lon":-16.872562,"lat":32.64661,"tags":"blau,blue,catchy+colors,chairs,funchal,hotel,hotel+ocean+gardens,ilha+da+madeira,ilustrar+portugal,liegen,madeira,ocean+gardens,pool,portugal,reflection,schirm,schwimmbecken,spiegelung,swimming+pool,umbrella,wasser,water","S2CellId":"94cc400000000000","result":9693,"accuracy":0.037163183,"title":"Pool+reflections","description":"The+swimming+pool+of+the+Ocean+Gardens+Hotel+in+Funchal+is+situated+on+top+of+the+hotel%2C+making+it+a+nice+and+quiet+place+to+relax.%0A%0A%0A%3Ca+href%3D%22http%3A%2F%2Floc.alize.us%2F%23%2Fflickr%3A4219549100%22+rel%3D%22nofollow%22%3ESee+where+this+picture+was+taken.%3C%2Fa%3E+%3Ca+href%3D%22http%3A%2F%2Fwww.flickr.com%2Fgroups%2Fgeotagging%2Fdiscuss%2F72157594165549916%2F%22%3E%5B%3F%5D%3C%2Fa%3E"}
{"id":9114886459,"url":"http://farm8.staticflickr.com/7299/9114886459_0f3d994d39.jpg","path":"54f/05b/54f05b851835e36fb15f22a29e4f405.jpg","date":"2011-06-01","year":2011,"month":6,"lon":-16.865988,"lat":32.658054,"tags":"2011,arbre,ferreiro,funchal,garden,ilha+da+madeira,jardin,mad%C3%A8re,madeira,madere,palheiro+ferreiro,palheiro+gardens,parc,park,portugal,pt,quinta,quinta+do+palheiro+ferreiro,tree","S2CellId":"4b5b000000000000","result":5824,"accuracy":0.025511626,"title":"Funchal+-+Arbre+dans+les+jardins+de+la+Quinta+do+Palheiro+Ferreiro"}
{"id":5665039135,"url":"http://farm6.staticflickr.com/5307/5665039135_b4b90c1c9d.jpg","path":"24b/f69/24bf69b8f1ece47f304b7ca32368abe1.jpg","date":"2011-04-25","year":2011,"month":4,"lon":-16.969414,"lat":32.718987,"tags":"madeira","S2CellId":"479e758b00000000","result":3846,"accuracy":0.02451798,"title":"IMG_2455"}
{"id":3598710120,"url":"http://farm4.staticflickr.com/3649/3598710120_ff8ca8397a.jpg","path":"c85/683/c85683ee23627cc77c65e824f626c32.jpg","date":"2009-05-28","year":2009,"month":5,"lon":-16.901865,"lat":32.65053,"tags":"eiland,funchal,island,madeira,portugal","S2CellId":"0c60500000000000","result":148,"accuracy":0.4036276,"title":"Funchal"}
{"id":6466859695,"url":"http://farm8.staticflickr.com/7002/6466859695_11aa2fbd3a.jpg","path":"454/0ea/4540ea59737264b63ce447e36560dc63.jpg","date":"2011-10-19","year":2011,"month":10,"lon":-16.903667,"lat":32.648834,"tags":"funchal,passion+fruit","S2CellId":"54950b4000000000","result":6249,"accuracy":0.062022634,"title":"Funchal+Public+Market+-+16","description":"Many+varieties+of+passion+fruit%21+I+bought+two+or+three+of+each."}
{"id":3921777073,"url":"http://farm3.staticflickr.com/2598/3921777073_b69c506c8d.jpg","path":"635/aef/635aef27b7e58537e7dbc6a1c9ebe3.jpg","date":"2006-08-15","year":2006,"month":8,"lon":-17.07181,"lat":32.787346,"tags":"barrancos,barranquismo,ca%C3%B1ones,canyoning,katiuskas,katiuskas.es,madeira","S2CellId":"0c60500000000000","result":148,"accuracy":0.05279609,"title":"Passo+superior+2006-08-15+13-24-31.jpg","description":"Ribeira+do+Passo+superior"}
{"id":2557460403,"url":"http://farm4.staticflickr.com/3179/2557460403_0dbac018c1.jpg","path":"a8e/ce0/a8ece0823b943a4526d922fae7465f.jpg","date":"2008-05-31","year":2008,"month":5,"lon":-16.696194,"lat":32.74847,"tags":"2008,animal,europe,madeira,nature,portugal,summer,travel,vacation","S2CellId":"9aab000000000000","result":9926,"accuracy":0.017404351,"title":"Madeira","description":"Ponta+de+S%C3%A3o+Louren%C3%A7o%2C+%3Ca+href%3D%22http%3A%2F%2Fen.wikipedia.org%2Fwiki%2FMadeira_Island%22%3EMadeira%3C%2Fa%3E+2008."}
{"id":1886096449,"url":"http://farm3.staticflickr.com/2279/1886096449_66a949fda1.jpg","path":"6c9/d5f/6c9d5fce6249bc3b4c88e10ca9b30b.jpg","date":"2007-07-05","year":2007,"month":7,"lon":-16.876717,"lat":32.648266,"tags":"blomster,flowers,funchal,madeira,plants","S2CellId":"80dd317000000000","result":7376,"accuracy":0.018135766,"title":"Growing+wild"}
{"id":93208260,"url":"http://farm1.staticflickr.com/31/93208260_248ec73daa.jpg","path":"18b/302/18b302b318fa882ba7eb47ed35d5b63.jpg","date":"2006-01-23","year":2006,"month":1,"lon":-16.89148,"lat":32.779194,"tags":"madere","S2CellId":"12d6400000000000","result":932,"accuracy":0.052752048,"title":"DSC03137"}
{"id":10387215856,"url":"http://farm8.staticflickr.com/7427/10387215856_3990be337a.jpg","path":"297/469/297469aed420691c231d736cb9c33ab8.jpg","date":"2013-08-28","year":2013,"month":8,"lon":-16.885668,"lat":32.825165,"tags":"madeira","S2CellId":"7c06c00000000000","result":6897,"accuracy":0.48324904,"title":"Walk+from+Santana+to+S%C3%A3o+Jorge"}
{"id":2393476369,"url":"http://farm3.staticflickr.com/2263/2393476369_ea18e31c20.jpg","path":"173/2b6/1732b6b07785aae7a9293f21f2666426.jpg","date":"2008-03-26","year":2008,"month":3,"lon":-16.97937,"lat":32.805744,"tags":"april08,beach,clouds,flowers,madeira,mountains,portugal,walks","S2CellId":"9689f00000000000","result":9911,"accuracy":0.035795625,"title":"2008_0330madeira03080032"}
{"id":3921902279,"url":"http://farm4.staticflickr.com/3509/3921902279_233132126f.jpg","path":"975/ec1/975ec1c0258fd6f53039a2dc8fec50.jpg","date":"2006-08-15","year":2006,"month":8,"lon":-17.07181,"lat":32.787346,"tags":"barrancos,barranquismo,ca%C3%B1ones,canyoning,katiuskas,katiuskas.es,madeira","S2CellId":"7954b00000000000","result":6870,"accuracy":0.050907653,"title":"Passo+superior+2006-08-15+17-40-38.jpg","description":"Ribeira+do+Passo+superior"}
{"id":3924235672,"url":"http://farm3.staticflickr.com/2435/3924235672_6ee50526d9.jpg","path":"652/aa9/652aa9cc944a22697aa2317d62a32d0.jpg","date":"2006-08-18","year":2006,"month":8,"lon":-16.929758,"lat":32.7509,"tags":"barrancos,barranquismo,ca%C3%B1ones,canyoning,katiuskas,katiuskas.es,madeira","S2CellId":"8c04c00000000000","result":9413,"accuracy":0.040173877,"title":"Bonita+2006-08-18+16-32-35.jpg","description":"Ribeira+Bonita"}
{"id":3399769294,"url":"http://farm4.staticflickr.com/3475/3399769294_171791948f.jpg","path":"e43/3c9/e433c91fd91c32227a7ff98c3d02ceb.jpg","date":"2009-03-15","year":2009,"month":3,"lon":-17.265356,"lat":32.727436,"tags":"calheta,delfine,enbodenumer,hiking,hotel,ilha+da+madeira,levada,levada+nova,lobosonda,madeira,madeira+island,portugal,quinta+alegre,walbeobachtung,walewatching,wandern","S2CellId":"0b00000000000000","result":126,"accuracy":0.26218897,"title":"Urspr%C3%BCngliches+Madeira+4.Tag","description":"die+Ortschaft+Jardim+do+Mar"}
{"id":5376084091,"url":"http://farm6.staticflickr.com/5007/5376084091_e1295300a5.jpg","path":"c61/750/c61750f99bb2c2e34421a916df4cb4ac.jpg","date":"2010-12-22","year":2010,"month":12,"lon":-16.929932,"lat":32.67406,"tags":"madeira+funchal,pestana+casino+park","S2CellId":"0c60500000000000","result":148,"accuracy":0.26717004,"title":"IMG_1730","description":"view+from+our+balcony+at+pestana+casino+park"}
{"id":6986860364,"url":"http://farm8.staticflickr.com/7240/6986860364_56af2e998c.jpg","path":"b2e/e7f/b2ee7f49fefb2f5432d6aa40e7ec923c.jpg","date":"2011-05-31","year":2011,"month":5,"lon":-17.125967,"lat":32.760796,"tags":"2011,fern,foug%C3%A8re,ilha+da+madeira,irrigation+canal,levada,levada+do+risco,levada+walk,mad%C3%A8re,madeira,madere,nature+meetings,portugal,pt,randonn%C3%A9e,risco,walk","S2CellId":"7953d00000000000","result":6866,"accuracy":0.15340245,"title":"Mad%C3%A8re+-+Foug%C3%A8re+dans+la+levada+do+Risco"}
{"id":6265499564,"url":"http://farm7.staticflickr.com/6091/6265499564_7599146823.jpg","path":"55d/540/55d5406133ac06e6e8bd2a8d4961325.jpg","date":"2011-10-18","year":2011,"month":10,"lon":-16.76342,"lat":32.717037,"tags":"2.0,35mm,canon,machico,madeira","S2CellId":"487e770000000000","result":5651,"accuracy":0.0077064475,"title":"Machico+vista+pela+35mm","description":"Canon+EF+35mm+f%2F2.0+test+drive+at+Machico+city%2C+Madeira%2C+Portugal%0A%0ACanon+450d+%2B+EF+35+f%2F2"}
{"id":400646409,"url":"http://farm1.staticflickr.com/156/400646409_c0978bde3f.jpg","path":"a69/b87/a69b877a36be7275197962f8052584e.jpg","date":"2007-02-14","year":2007,"month":2,"lon":-16.913452,"lat":32.638,"tags":"contraste,f%C3%A9rias,funchal,inverno,madeira","S2CellId":"12d4fc0000000000","result":918,"accuracy":0.08243066}
{"id":428275128,"url":"http://farm1.staticflickr.com/180/428275128_0936ffad93.jpg","path":"2a1/d63/2a1d635f4af4463378d898174b1d5c2.jpg","date":"2007-03-20","year":2007,"month":3,"lon":-17.11258,"lat":32.74007,"tags":"madeira,portugal,raba%C3%A7al","S2CellId":"2cb0000000000000","result":1530,"accuracy":0.085921675,"title":"Cascada+do+Risco+-+Vista+1"}
{"id":6998436502,"url":"http://farm9.staticflickr.com/8005/6998436502_c1974dd877.jpg","path":"4ec/bbf/4ecbbf555746ba42993ebdf0a21a9139.jpg","date":"2012-01-03","year":2012,"month":1,"lon":-17.13378,"lat":32.754944,"tags":"madeira,rabacal","S2CellId":"0c60500000000000","result":148,"accuracy":0.13611445,"title":"Rabacal%2C+Madeira","description":"Hamlet+of+Rabacal"}
{"id":2608257039,"url":"http://farm4.staticflickr.com/3277/2608257039_484092bb1e.jpg","path":"c07/e26/c07e2687cd429cfffeff5330ab0fc48.jpg","date":"2008-06-24","year":2008,"month":6,"lon":-16.917057,"lat":32.66026,"tags":"madeira,panorama","S2CellId":"8085873000000000","result":6971,"accuracy":0.03168301,"title":"360+degree+panorama%2C+Pico+dos+Barcelos%2C+Madeira"}
{"id":4603655726,"url":"http://farm4.staticflickr.com/3468/4603655726_78107b4964.jpg","path":"fe4/62d/fe462dca81b1c55bf9a78977ed013.jpg","date":"2008-09-26","year":2008,"month":9,"lon":-16.905727,"lat":32.648914,"tags":"accommodation,cable+car,forte+de+s%C3%A3o+tiago,funchal,funchal+city,harbour,historic+centre,hotel,madeira,mercado+dos+lavradores,monte,old+town,porto+bay,porto+bay+hotels+%26+resorts,porto+santa+maria,portugal,sea+front+promenade,urban","S2CellId":"144c000000000000","result":1197,"accuracy":0.16271716,"title":"hotel+PORTO+SANTA+MARIA+%7C+overview","description":"How+to+download+a+photo+from+FLICKR%3A%0A%0A1.+Click+on+the+photo+you+wish+to+download%3B%0A2.+On+the+end+right-side+of+the+page+you+will+see+3+dots%2C+this+is+an+%22Action%22+button.+Click+on+the+option+%22view+all+sizes%22%3B%0A3.+Select+which+size+you+wish+to+download.+If+you+intend+to+print+the+photo+to+paper%2C+then+%22Original%22+is+typically+the+best+option%3B%0A4.+Finally%2C+select+the+%22Download%22+button.%0A%0AMore+details+on+%3Ca+target%3D%22_blank%22+href%3D%22http%3A%2F%2Fwww.portobay.com%2Fhotel.aspx%3FareaId%3D231%22+rel%3D%22nofollow%22%3Ewww.portobay.com%2Fhotel.aspx%3FareaId%3D231%3C%2Fa%3E"}
{"id":4732580143,"url":"http://farm2.staticflickr.com/1250/4732580143_3e6717f68b.jpg","path":"7c2/35e/7c235efdf1589dc1393bf1df4862ded1.jpg","date":"2010-06-19","year":2010,"month":6,"lon":-16.910534,"lat":32.64747,"tags":"festival,fireworks,funchal,madeira,portugal","S2CellId":"12ce900000000000","result":891,"accuracy":0.5419339,"title":"Funchal"}
{"id":8399136216,"url":"http://farm9.staticflickr.com/8474/8399136216_87abcfac54.jpg","path":"ab6/21e/ab621e843fd77fd7a1ec2c1984aa2c9.jpg","date":"2011-06-02","year":2011,"month":6,"lon":-16.914438,"lat":32.782993,"tags":"caldeir%C3%A3o+verde,caldeirao+verde,canal,chemin,chemin+de+randonn%C3%A9e,footpath,hiker,ilha+da+madeira,irrigation,irrigation+canal,levada,levada+do+caldeir%C3%A3o+verde,levada+do+caldeirao+verde,levada+walk,mad%C3%A8re,madeira,madere,nature+meetings,portugal,pt,randonn%C3%A9e,randonneur,walk,walker","S2CellId":"5494c00000000000","result":6235,"accuracy":0.02901019,"title":"Mad%C3%A8re+-+Randonneurs+le+long+de+la+levada+do+Caldeir%C3%A3o+Verde","description":"Il+faut+parfois+faire+un+peu+de+gymnastique+pour+suivre+la+levada"}
{"id":6466900443,"url":"http://farm8.staticflickr.com/7026/6466900443_7d1850e2eb.jpg","path":"7f3/bfd/7f3bfd87e5242a5e5d2750d6ac74e9c4.jpg","date":"2011-10-19","year":2011,"month":10,"lon":-16.903667,"lat":32.648834,"tags":"funchal,passion+fruit","S2CellId":"54950b4000000000","result":6249,"accuracy":0.058105916,"title":"Funchal+Public+Market+-+24","description":"Passion+Fruit%21"}
{"id":5543193524,"url":"http://farm6.staticflickr.com/5171/5543193524_b8c3ae19e7.jpg","path":"d17/fc8/d17fc8ea136de89e36283d1454a99d0.jpg","date":"2011-03-06","year":2011,"month":3,"lon":-16.913174,"lat":32.64562,"tags":"2011,55,a55,alpha,atlantic,atlantik,atlantische,bild,blumeninsel,cc,commons,creative,flickr,foto,fr%C3%BChling,geo,hi-res,high+resolution,image,insel,island,jpeg,jpg,leisure,m%C3%A4rz,madeira,photo,picture,portugal,portuguesa,rep%C3%BAblica,slt,slt-a55v,sony,spring,stockphoto,tourism,tourismus,urlaub,volcano,vulkaninsel","S2CellId":"9105c8c000000000","result":9587,"accuracy":0.035852265,"title":"2011-03-05+03-13+Madeira+016+Funchal%2C+Rua+Fontes"}
{"id":6959741793,"url":"http://farm8.staticflickr.com/7204/6959741793_fb2eb1ce0a.jpg","path":"b68/b40/b68b40d555334faacc14376f58a855a6.jpg","date":"2011-06-09","year":2011,"month":6,"lon":-16.906656,"lat":32.64741,"tags":"2011,funchal,ilha+da+madeira,mad%C3%A8re,madeira,madere,portugal,rua,rua+da+praia,rue,street,zamito,zamito44","S2CellId":"0c60700000000000","result":149,"accuracy":0.20877494,"title":"Funchal+-+Rua+da+Praia"}
{"id":6959971789,"url":"http://farm8.staticflickr.com/7196/6959971789_bc30b4e938.jpg","path":"b5b/fad/b5bfadefc1a08bf70097c61fe38cba.jpg","date":"2011-06-01","year":2011,"month":6,"lon":-16.909845,"lat":32.648514,"tags":"2011,avenida,avenida+zarco,avenue,funchal,gouvernement+r%C3%A9gional,governo+regional,ilha+da+madeira,mad%C3%A8re,madeira,madere,portugal,regional+government,zamito,zamito44,zarco","S2CellId":"0d24c00000000000","result":270,"accuracy":0.17959067,"title":"Funchal+-+Si%C3%A8ge+du+gouvernement+r%C3%A9gional","description":"C%C3%B4t%C3%A9+Avenida+Zarco"}
{"id":5938574506,"url":"http://farm7.staticflickr.com/6134/5938574506_38e8b42c88.jpg","path":"842/8b2/8428b2edd1fd22f03b3055e121503cb8.jpg","date":"2011-07-14","year":2011,"month":7,"lon":-16.946411,"lat":32.700336,"tags":"island+of+madeira,madeira,mist,natural+pattern,plants,shadows,trees","S2CellId":"6b2c000000000000","result":6729,"accuracy":0.038760997,"title":"IMG_2369"}
{"id":6483012601,"url":"http://farm8.staticflickr.com/7164/6483012601_d82676bb3c.jpg","path":"559/161/559161babf6d3cabaac94034f5c4146b.jpg","date":"2011-10-27","year":2011,"month":10,"lon":-17.262691,"lat":32.814186,"tags":"island,madeira,madera,portugal,portugalia,wyspa","S2CellId":"0b00000000000000","result":126,"accuracy":0.08063656,"title":"Madeira"}
{"id":2557461881,"url":"http://farm4.staticflickr.com/3008/2557461881_3e8556dea4.jpg","path":"e1b/742/e1b7429cc2a2c3b4c526dc8f1148.jpg","date":"2008-06-01","year":2008,"month":6,"lon":-16.895638,"lat":32.661804,"tags":"2008,europe,flower,madeira,nature,portugal,summer,travel,vacation","S2CellId":"3404005400000000","result":1984,"accuracy":0.016192574,"title":"Madeira","description":"Madeira+botanical+garden%2C+%3Ca+href%3D%22http%3A%2F%2Fen.wikipedia.org%2Fwiki%2FFunchal%22%3EFunchal%3C%2Fa%3E%2C+%3Ca+href%3D%22http%3A%2F%2Fen.wikipedia.org%2Fwiki%2FMadeira_Island%22%3EMadeira%3C%2Fa%3E+2008."}
{"id":4149727145,"url":"http://farm3.staticflickr.com/2686/4149727145_338f48634f.jpg","path":"5c5/b74/5c5b74e8a3b4e3c4b299527c385e3cd.jpg","date":"2009-11-11","year":2009,"month":11,"lon":-16.91167,"lat":32.645626,"tags":"funchal,madeira","S2CellId":"0d4e300000000000","result":411,"accuracy":0.07196974,"title":"View+from+the+Beerhouse%2C+Funchal"}
{"id":200210152,"url":"http://farm1.staticflickr.com/59/200210152_35ba68a7c2.jpg","path":"60b/9dc/60b9dc5fd28768d6e8f973f5c55e545e.jpg","date":"2005-09-11","year":2005,"month":9,"lon":-16.9,"lat":32.65,"tags":"2005,200509,holiday,madeira,portugal","S2CellId":"0c6bc00000000000","result":159,"accuracy":0.26014894,"title":"Madeira+Mountains"}
{"id":8482516339,"url":"http://farm9.staticflickr.com/8229/8482516339_66d4ff2ddf.jpg","path":"509/673/509673b21833429b20422e6fd4945a1.jpg","date":"2013-02-11","year":2013,"month":2,"lon":-16.912766,"lat":32.65903,"tags":"mad%C3%A8re","S2CellId":"48d7400000000000","result":5814,"accuracy":0.05832448,"title":"SHM_5709"}
{"id":4733024352,"url":"http://farm2.staticflickr.com/1382/4733024352_521033ef7a.jpg","path":"af3/56b/af356b288fb64640c1b3ebce8a88.jpg","date":"2010-06-22","year":2010,"month":6,"lon":-17.212421,"lat":32.73693,"tags":"jardim+do+mar,madeira,portugal","S2CellId":"0c60500000000000","result":148,"accuracy":0.23332971,"title":"Madeira+-+Calheta+-+Jardim+Do+Mar"}
{"id":2253648228,"url":"http://farm3.staticflickr.com/2203/2253648228_84080180e9.jpg","path":"73c/16b/73c16be4f2971baf16948555c4626369.jpg","date":"2005-03-20","year":2005,"month":3,"lon":-16.82844,"lat":32.77181,"tags":"madeira","S2CellId":"54f0000000000000","result":6316,"accuracy":0.10061979,"title":"Porto+da+Cruz","description":"Porto+da+Cruz%2C+Madeira%2C+Portugal"}
{"id":7979302921,"url":"http://farm9.staticflickr.com/8317/7979302921_f849126201.jpg","path":"d8f/411/d8f41133debaccf357785626a8b12b58.jpg","date":"2012-07-17","year":2012,"month":7,"lon":-16.69172,"lat":32.748432,"tags":"madeira,s%C3%A3o+louren%C3%A7o,sao+lourenco","S2CellId":"0c6a8c0000000000","result":153,"accuracy":0.12790614,"title":"madeira_2012_375","description":"Die+Ostspitze+von+Madeira"}
{"id":2557459197,"url":"http://farm4.staticflickr.com/3282/2557459197_d4e68972e7.jpg","path":"cfc/0ea/cfc0eaf633b3ccf25e34e157690c4ca.jpg","date":"2008-05-30","year":2008,"month":5,"lon":-16.962526,"lat":32.71011,"tags":"2008,europe,madeira,nature,portugal,summer,travel,vacation","S2CellId":"0c6bc00000000000","result":159,"accuracy":0.8595044,"title":"Madeira","description":"Curral+das+Freiras%2C+%3Ca+href%3D%22http%3A%2F%2Fen.wikipedia.org%2Fwiki%2FMadeira_Island%22%3EMadeira%3C%2Fa%3E+2008."}
{"id":3022698438,"url":"http://farm4.staticflickr.com/3013/3022698438_8a50327780.jpg","path":"faf/9b9/faf9b9ff0eca9c6236c32a294c5838.jpg","date":"2008-11-09","year":2008,"month":11,"lon":-16.987267,"lat":32.826046,"tags":"cabanas,madeira","S2CellId":"0c60500000000000","result":148,"accuracy":0.58769745,"title":"Cabanas"}
{"id":5536651407,"url":"http://farm6.staticflickr.com/5059/5536651407_5ca4322468.jpg","path":"88b/d15/88bd154184ddd6dc11aefda753b13ec.jpg","date":"2011-03-10","year":2011,"month":3,"lon":-17.182308,"lat":32.72534,"tags":"airport,boats,cloud,dolphins,funchal,hotel,island,levada,madeira,mountains,portugal,rain,sea,sun,trees,walk,weather","S2CellId":"0c60500000000000","result":148,"accuracy":0.859512,"title":"Calheta"}
{"id":5293684243,"url":"http://farm6.staticflickr.com/5085/5293684243_87167ddeb7.jpg","path":"5f9/82b/5f982bb46ac0a4e32fe4d5317b3be1f.jpg","date":"2010-12-24","year":2010,"month":12,"lon":-16.90178,"lat":32.67276,"tags":"jardim+tropical+monte+palace,madeira,monte","S2CellId":"89c2f34000000000","result":9103,"accuracy":0.027614942,"title":"Jardim+Tropical+Monte+Palace","description":"Orchids+at+Jardim+Tropical+Monte+Palace"}
{"id":6178820,"url":"http://farm1.staticflickr.com/3/6178820_6530df7cf2.jpg","path":"afc/591/afc5914af49444d893fe8722cf6cc4d1.jpg","date":"2005-03-09","year":2005,"month":3,"lon":-17.049406,"lat":32.676373,"tags":"2005,camp,harjoitusleiri,l%C3%A4ger,leiri,madeira,orienteering,piffen,suunnistus,tr%C3%A4ningsl%C3%A4ger,training,waterfall","S2CellId":"7953b00000000000","result":6865,"accuracy":0.07885663,"title":"IMG_0812"}
{"id":3681759157,"url":"http://farm3.staticflickr.com/2503/3681759157_fc75f13832.jpg","path":"27b/dc7/27bdc718c2c25cacfbc921fc9a83e9c.jpg","date":"2009-05-18","year":2009,"month":5,"lon":-16.886501,"lat":32.720287,"tags":"de,feiteiras,madeira,miradouro","S2CellId":"7c06c00000000000","result":6897,"accuracy":0.027933113,"title":"Miradouro+de+Feiteiras"}
{"id":3922795650,"url":"http://farm3.staticflickr.com/2626/3922795650_ca3816768e.jpg","path":"324/16c/32416cfcb0ca5469ee53174c5f92189.jpg","date":"2006-08-16","year":2006,"month":8,"lon":-17.070608,"lat":32.805527,"tags":"barrancos,barranquismo,ca%C3%B1ones,canyoning,katiuskas,katiuskas.es,madeira","S2CellId":"48d6c00000000000","result":5813,"accuracy":0.21384369,"title":"Inferno+2006-08-16+21-45-47.jpg","description":"Ribeira+do+Inferno"}
{"id":4643109012,"url":"http://farm4.staticflickr.com/3385/4643109012_2f7ecbf816.jpg","path":"10b/b8e/10bb8e85ede4b1038882cb2ac468fab.jpg","date":"2006-05-09","year":2006,"month":5,"lon":-16.902466,"lat":32.67507,"tags":"jardin+tropico,madeira,monte","S2CellId":"865c590000000000","result":7661,"accuracy":0.045418985,"title":"DSCF0141"}
{"id":5387662837,"url":"http://farm6.staticflickr.com/5171/5387662837_3e4a829947.jpg","path":"f38/3e7/f383e70eeb180c72beb30bb14ae1b35.jpg","date":"2011-01-23","year":2011,"month":1,"lon":-16.910019,"lat":32.649635,"tags":"2011,botanic+garden,copyleft,europa,europe,funchal,ilha+da+madeira,jardim+bot%C3%A2nico,madeira+island,portugal","S2CellId":"47d8f40000000000","result":4466,"accuracy":0.014025679,"title":"Orqu%C3%ADdeas"}
{"id":6079980868,"url":"http://farm7.staticflickr.com/6075/6079980868_1bc5de2ca0.jpg","path":"afa/c52/afac52757e226949b32e166fc6763.jpg","date":"2011-08-14","year":2011,"month":8,"lon":-16.903496,"lat":32.672832,"tags":"madeira,monte","S2CellId":"47e61d1d00000000","result":4562,"accuracy":0.006642556,"title":"Espetada","description":"Festes+del+Monte"}
{"id":222272382,"url":"http://farm1.staticflickr.com/65/222272382_c92f5f8a66.jpg","path":"381/8af/3818af1272448a503f4a2b92c15ef6dc.jpg","date":"2005-03-31","year":2005,"month":3,"lon":-16.938,"lat":32.739494,"tags":"hisgett,madeira","S2CellId":"0c60500000000000","result":148,"accuracy":0.23709805,"title":"Madeira+24","description":"View+from+Pico+do+Areeiro"}
{"id":6813562908,"url":"http://farm8.staticflickr.com/7052/6813562908_5cfc47e17d.jpg","path":"f98/1d0/f981d06d62ccb9655315ce5f94b3ea5.jpg","date":"2011-06-03","year":2011,"month":6,"lon":-16.907852,"lat":32.64725,"tags":"2011,capela,chapel,chapelle,funchal,ilha+da+madeira,mad%C3%A8re,madeira,madere,night,nuit,place,portugal,pra%C3%A7a,saint-antoine+da+mouraria,santo+ant%C3%B3nio+da+mouraria,square,zamito,zamito44","S2CellId":"0d19c00000000000","result":232,"accuracy":0.14237294,"title":"Funchal+-+Place+de+l%27assembl%C3%A9e+l%C3%A9gislative+de+Mad%C3%A8re"}
{"id":9335737675,"url":"http://farm6.staticflickr.com/5535/9335737675_3dbb10b7c5.jpg","path":"cf9/9ad/cf99addeb7f812937a81341e7bbaf7c.jpg","date":"2011-06-04","year":2011,"month":6,"lon":-16.686113,"lat":32.744827,"tags":"2011,arid,aride,chemin,footpath,hiking,ilha+da+madeira,mad%C3%A8re,madeira,madere,mer,pointe,ponta,portugal,presqu%27%C3%AEle,pt,randonn%C3%A9e,randonnee,s%C3%A3o+louren%C3%A7o,sao+lourenco,sea,view,vue","S2CellId":"0c60700000000000","result":149,"accuracy":0.33845362,"title":"Mad%C3%A8re+-+Chemin+de+la+Ponta+de+S%C3%A3o+Louren%C3%A7o"}
{"id":4528331624,"url":"http://farm5.staticflickr.com/4020/4528331624_ae45d28a27.jpg","path":"eab/044/eab044778cadf52ba5ddb74fa211c3.jpg","date":"2008-10-16","year":2008,"month":10,"lon":-16.827642,"lat":32.772587,"tags":"abend,atlantic,atlantic+ocean,atlantik,atlantischer+ozean,clouds,coast,dorf,evening,felsen,fog,ilha+da+madeira,ilustrar+portugal,k%C3%BCste,madeira,meer,nebel,ocean,ozean,porto+da+cruz,rocks,sea,village,wasser,water,waves,wellen,wolken","S2CellId":"0c60700000000000","result":149,"accuracy":0.3613342,"title":"Cloudy","description":"North+coast+of+Madeira%2C+in+Porto+da+Cruz.%0A%0A%3Ca+href%3D%22http%3A%2F%2Floc.alize.us%2F%23%2Fflickr%3A4528331624%22+rel%3D%22nofollow%22%3ESee+where+this+picture+was+taken.%3C%2Fa%3E+%3Ca+href%3D%22http%3A%2F%2Fwww.flickr.com%2Fgroups%2Fgeotagging%2Fdiscuss%2F72157594165549916%2F%22%3E%5B%3F%5D%3C%2Fa%3E"}
{"id":5664793050,"url":"http://farm6.staticflickr.com/5106/5664793050_05698fc818.jpg","path":"136/1ee/1361ee5e205bcd819259114acad0205f.jpg","date":"2011-04-23","year":2011,"month":4,"lon":-16.888733,"lat":32.66156,"tags":"madeira","S2CellId":"88d0a631cabb5071","result":8563,"accuracy":0.08040862,"title":"IMG_2138"}
{"id":7144293955,"url":"http://farm6.staticflickr.com/5322/7144293955_fecba5d8e5.jpg","path":"7b5/212/7b521274dc4a2bdcf8b6f3382cc43de.jpg","date":"2012-01-01","year":2012,"month":1,"lon":-16.90959,"lat":32.648335,"tags":"funchal,harbour,madeira","S2CellId":"0c60700000000000","result":149,"accuracy":0.5033615,"title":"Funchal%2C+Madeira","description":"Funchal+over+the+harbour"}
{"id":5545123148,"url":"http://farm6.staticflickr.com/5297/5545123148_914356c281.jpg","path":"26d/bac/26dbac9057e5fe5e69aa28c39ea9dd.jpg","date":"2011-03-07","year":2011,"month":3,"lon":-16.90275,"lat":32.67351,"tags":"2011,55,a55,alpha,atlantic,atlantik,atlantische,bild,blumeninsel,cc,commons,creative,flickr,foto,fr%C3%BChling,geo,hi-res,high+resolution,image,insel,island,jpeg,jpg,leisure,m%C3%A4rz,madeira,photo,picture,portugal,portuguesa,rep%C3%BAblica,slt,slt-a55v,sony,spring,stockphoto,tourism,tourismus,urlaub,volcano,vulkaninsel","S2CellId":"1dcc67c000000000","result":1454,"accuracy":0.0706514,"title":"2011-03-05+03-13+Madeira+215+Monte%2C+Jardim+tropical+Monte+Palace"}
{"id":5662044564,"url":"http://farm6.staticflickr.com/5146/5662044564_59f847123a.jpg","path":"2cc/41e/2cc41e16198061291522409ef6a619e0.jpg","date":"2011-04-21","year":2011,"month":4,"lon":-16.907957,"lat":32.654697,"tags":"madeira","S2CellId":"548ff00000000000","result":6177,"accuracy":0.18110287,"title":"IMG_1662"}
{"id":8511705598,"url":"http://farm9.staticflickr.com/8241/8511705598_ce38131acf.jpg","path":"6ed/587/6ed5874ec3aba97706d6ebc50b33bd.jpg","date":"2010-01-29","year":2010,"month":1,"lon":-17.020288,"lat":32.754166,"tags":"encumeada,levada+do+rabacas","S2CellId":"2a32a50000000000","result":1500,"accuracy":0.029437331,"title":"madeira3+105"}
{"id":3408497317,"url":"http://farm4.staticflickr.com/3586/3408497317_4129a4e44c.jpg","path":"dc5/eb9/dc5eb9599ad8c4347fbb74b17aa24fe.jpg","date":"2009-03-24","year":2009,"month":3,"lon":-16.90092,"lat":32.674496,"tags":"botanischer+garten,calheta,capo+girao,enbodenumer,funchal,hiking,hotel,ilha+da+madeira,jardim+botanico,madeira,madeira+island,markthalle,monte,portugal,quinta+alegre,wandern,wein","S2CellId":"6b12ae6c00000000","result":6693,"accuracy":0.026124334,"title":"Urspr%C3%BCngliches+Madeira+13.Tag","description":"Fr%C3%BCher+f%C3%BChrte+eine+Zahnradbahn+von+Funchal+nach+Monte.+Reste+davon+sind+die+alte+Br%C3%BCcke+und+die+Bergstation"}
{"id":5501125512,"url":"http://farm6.staticflickr.com/5132/5501125512_551b47d4ef.jpg","path":"9f5/3d8/9f53d8b94695994487b81b38af0c16a.jpg","date":"2011-03-03","year":2011,"month":3,"lon":-16.858006,"lat":32.678177,"tags":"2011,camacha,da+serra+do+faial,levada,madeira,portugal,semester,spring,v%C3%A5r,vacation,vale+paraiso,vandring","S2CellId":"486dd00000000000","result":4951,"accuracy":0.14915144,"title":"Madeira%3A+Vale+Paraiso-Camacha","description":"F%C3%B6rsta+fotvandringen+p%C3%A5+Madeira%3A+Levada+da+Serra+do+Faial.+Str%C3%A4ckan+Vale+Paraiso-Camacha.++Huset+p%C3%A5+bilden+l%C3%A5g+vid+slutet+av+den+stig+vi+hamnade+p%C3%A5+n%C3%A4r+vi+tog+fel+v%C3%A4g+d%C3%A5+vandringsleden+grenade+sig.+En+%C3%A5terv%C3%A4ndsgr%C3%A4nd%2C+allts%C3%A5%2C+f%C3%B6r+v%C3%A5r+del%2C+men+det+var+det+mest+sp%C3%A4nnande+som+h%C3%A4nde+p%C3%A5+den+vandringen.+Vandringen+var+karakt%C3%A4riserad+som+%22enkel%22+i+v%C3%A5rt+informationsmaterial%2C+och+enkel+var+den%2C+alltf%C3%B6r+enkel+f%C3%B6r+att+vara+intressant."}
{"id":11133809636,"url":"http://farm6.staticflickr.com/5480/11133809636_51a2f4d46e.jpg","path":"50d/181/50d181a6c3b2f79d5d5c14198f7845.jpg","date":"2012-10-11","year":2012,"month":10,"lon":-16.895298,"lat":32.662827,"tags":"2012,autumn,cruise,october,tourism","S2CellId":"4867b00000000000","result":4910,"accuracy":0.014013369,"title":"2012-10-11-16h07m16"}
{"id":2394320216,"url":"http://farm4.staticflickr.com/3096/2394320216_647cbc379e.jpg","path":"f57/09b/f5709b8f8b7372752c18543f0781d4f.jpg","date":"2008-03-29","year":2008,"month":3,"lon":-16.97937,"lat":32.805744,"tags":"april08,beach,clouds,flowers,madeira,mountains,portugal,walks","S2CellId":"0c60500000000000","result":148,"accuracy":0.68523526,"title":"2008_0330madeira03080103"}
{"id":2559897517,"url":"http://farm4.staticflickr.com/3029/2559897517_8bd06c1287.jpg","path":"be6/a9a/be6a9a69b52bbac802078fe076c983.jpg","date":"2008-03-05","year":2008,"month":3,"lon":-16.957397,"lat":32.69949,"tags":"madeira,matkat,team+kipsi,travel","S2CellId":"12c9100000000000","result":838,"accuracy":0.012031931,"title":"The+Paasonlahti+Girls"}
{"id":2548662895,"url":"http://farm4.staticflickr.com/3037/2548662895_1bceeb2a2e.jpg","path":"934/034/9340346743ad3149886e76373f6aad7f.jpg","date":"2008-06-03","year":2008,"month":6,"lon":-17.039108,"lat":32.753353,"tags":"madeira,madeiraisland,parco+ecologico+do+funchal","S2CellId":"39e4000000000000","result":2487,"accuracy":0.06364069,"title":"IMG_4797"}
{"id":3922610782,"url":"http://farm4.staticflickr.com/3462/3922610782_edcbcd3766.jpg","path":"6f7/f7f/6f7f7f5c4d17939eb835853e9e135916.jpg","date":"2006-08-15","year":2006,"month":8,"lon":-17.07181,"lat":32.787346,"tags":"barrancos,barranquismo,ca%C3%B1ones,canyoning,katiuskas,katiuskas.es,madeira","S2CellId":"89b4400000000000","result":8820,"accuracy":0.2106275,"title":"Passo+superior+2006-08-15+15-14-42.jpg","description":"Ribeira+do+Passo+superior"}
{"id":6086654366,"url":"http://farm7.staticflickr.com/6190/6086654366_e5349ba0f8.jpg","path":"2a6/028/2a60284eccfc02dc2878462158942b.jpg","date":"2010-07-05","year":2010,"month":7,"lon":-17.013187,"lat":32.654552,"tags":"2010,madeira","S2CellId":"0c60500000000000","result":148,"accuracy":0.041743655,"title":"DSCF8005"}
{"id":6986894564,"url":"http://farm8.staticflickr.com/7229/6986894564_073edfc7c8.jpg","path":"25c/ed6/25ced6987a3bda987c44d478bc7989.jpg","date":"2011-05-31","year":2011,"month":5,"lon":-17.12462,"lat":32.760597,"tags":"2011,cascade,cascata,ilha+da+madeira,levada+do+risco,levada+walk,mad%C3%A8re,madeira,madere,nature+meetings,portugal,pt,randonn%C3%A9e,risco,walk,waterfall","S2CellId":"a9d5c00000000000","result":9945,"accuracy":0.089707814,"title":"Mad%C3%A8re+-+Cascata+do+Risco"}
{"id":5501138126,"url":"http://farm6.staticflickr.com/5300/5501138126_5386d60bfe.jpg","path":"d83/256/d832565de97079d174a9dea2363d859.jpg","date":"2011-03-03","year":2011,"month":3,"lon":-16.84805,"lat":32.68237,"tags":"2011-03+madeira","S2CellId":"0d24c00000000000","result":270,"accuracy":0.22837736,"title":"Camacha","description":"F%C3%B6rsta+fotvandringen+p%C3%A5+Madeira%3A+Levada+da+Serra+do+Faial.+Str%C3%A4ckan+Vale+Paraiso-Camacha.+Vi+n%C3%A4rmar+oss+slutet+av+vandringsleden."}
{"id":8399357654,"url":"http://farm9.staticflickr.com/8369/8399357654_9921213be7.jpg","path":"f4c/b33/f4cb3395e93d113ed4adc111bbb89f.jpg","date":"2011-06-02","year":2011,"month":6,"lon":-16.92737,"lat":32.782146,"tags":"caldeir%C3%A3o+verde,caldeirao+verde,flora,flore,ilha+da+madeira,levada+do+caldeir%C3%A3o+verde,levada+do+caldeirao+verde,levada+walk,mad%C3%A8re,madeira,madere,nature+meetings,portugal,pt,randonn%C3%A9e,walk","S2CellId":"486b6c0000000000","result":4926,"accuracy":0.013818751,"title":"Mad%C3%A8re+-+V%C3%A9g%C3%A9tation+au+bord+de+la+levada+do+Caldeir%C3%A3o+Verde"}
{"id":4521098909,"url":"http://farm5.staticflickr.com/4042/4521098909_cb59c1526c.jpg","path":"a8f/559/a8f5598df7dcca559ea98624164ad29.jpg","date":"2010-04-14","year":2010,"month":4,"lon":-17.23526,"lat":32.79618,"tags":"ilha,island,madeira,portugal,travel,vacation","S2CellId":"0c6af00000000000","result":157,"accuracy":0.24124953,"title":"Tal"}
{"id":5474441566,"url":"http://farm6.staticflickr.com/5220/5474441566_59564543a7.jpg","path":"f7f/7e3/f7f7e39035613bdd2c14e6a3508829.jpg","date":"2010-09-15","year":2010,"month":9,"lon":-16.83981,"lat":32.651154,"tags":"amore,barbara,christian,famiglia,geotagging,giochi,gioco,humanoids,madeira,moglie,objecst,oggetti,oggetto,persone,persons,playmobil,popup,portogallo,s,sposa,still+life,toys,umanoidi,v,vacanze","S2CellId":"89b7b7dc00000000","result":8877,"accuracy":0.027869912,"title":"Posa"}
{"id":8483383384,"url":"http://farm9.staticflickr.com/8243/8483383384_66c2b0f40d.jpg","path":"f63/953/f6395312c7a80d8ae527d762781c521.jpg","date":"2013-02-12","year":2013,"month":2,"lon":-16.912766,"lat":32.65903,"tags":"mad%C3%A8re","S2CellId":"0c60500000000000","result":148,"accuracy":0.61738497,"title":"SHM_6031"}
{"id":5309665572,"url":"http://farm6.staticflickr.com/5125/5309665572_6b7872c76a.jpg","path":"6c3/b7d/6c3b7d7532b08fae2f684741437e32c0.jpg","date":"2010-11-26","year":2010,"month":11,"lon":-16.904127,"lat":32.648598,"tags":"18.0-55.0+mm,bananas,baskets,funchal,madeira,market,mercado+dos+lavradores","S2CellId":"14cab9f000000000","result":1319,"accuracy":0.03170747,"title":"Bananas+%26+Baskets","description":"At+Mercado+dos+Lavradores%2C+Funchal"}
{"id":7914018858,"url":"http://farm9.staticflickr.com/8438/7914018858_d463d4e482.jpg","path":"857/b5b/857b5b7a75e81590ae7b1fe3269b038.jpg","date":"2011-06-07","year":2011,"month":6,"lon":-16.904057,"lat":32.672775,"tags":"2011,funchal,ilha+da+madeira,jardim+tropical+da+quinta+do+monte+palace,jardin,mad%C3%A8re,madeira,madere,monte,monte+palace,portugal,pt,town,tropical,view,ville,vue","S2CellId":"134c700000000000","result":1172,"accuracy":0.051373817,"title":"Funchal+-+Vue+sur+la+ville","description":"Depuis+le+jardin+tropical+de+Monte+Palace"}
{"id":3402344226,"url":"http://farm4.staticflickr.com/3551/3402344226_4d39575801.jpg","path":"64d/01d/64d01d81de705abb18a3ab8caac6e.jpg","date":"2009-03-16","year":2009,"month":3,"lon":-17.229996,"lat":32.75848,"tags":"bananen,calheta,enbodenumer,hiking,hotel,ilha+da+madeira,levada,levada+nova,madeira,madeira+island,maloeira,pa%C3%B9l+do+mar,plantage,ponta+do+sol,portugal,prazeres,quinta+alegre,wandern","S2CellId":"12c9100000000000","result":838,"accuracy":0.012048459,"title":"Urspr%C3%BCngliches+Madeira+5.Tag"}
{"id":7474751902,"url":"http://farm9.staticflickr.com/8024/7474751902_576f14c5a5.jpg","path":"825/6e3/8256e3e675b29a7dbe2ac88d36b447.jpg","date":"2012-06-30","year":2012,"month":6,"lon":-16.97893,"lat":32.78178,"tags":"boaventura,donamaro,flowers,lombo+do+urzal,madeira,photoexcursion","S2CellId":"0c60500000000000","result":148,"accuracy":0.19988482,"title":"Lombo+do+Urzal"}
{"id":6079467483,"url":"http://farm7.staticflickr.com/6069/6079467483_47df0db042.jpg","path":"dcd/ec0/dcdec0961296e1bad65cc2dff222ae7.jpg","date":"2011-08-20","year":2011,"month":8,"lon":-16.921692,"lat":32.644436,"tags":"fado,madeira","S2CellId":"487604ce50000000","result":5237,"accuracy":0.029807951,"title":"Fado","description":"Madeira"}
{"id":5663175575,"url":"http://farm6.staticflickr.com/5145/5663175575_81222b5162.jpg","path":"d00/201/d00201e63b244fae387334d145662.jpg","date":"2011-04-21","year":2011,"month":4,"lon":-16.907957,"lat":32.654697,"tags":"madeira","S2CellId":"7952400000000000","result":6862,"accuracy":0.03364328,"title":"IMG_1716"}
{"id":6716165451,"url":"http://farm8.staticflickr.com/7142/6716165451_7b818689e9.jpg","path":"f33/c33/f33c3360f691a999b566c8f4f7a9dd.jpg","date":"2011-12-15","year":2011,"month":12,"lon":-16.929243,"lat":32.63952,"tags":"funchal,grass,green,madeira,palms,portugal,row,shadow","S2CellId":"7955400000000000","result":6875,"accuracy":0.04842757,"title":"Palms","description":"21026"}
{"id":7003351632,"url":"http://farm9.staticflickr.com/8028/7003351632_921e849ace.jpg","path":"65b/d4b/65bd4bb32c7071421639e52222ba17f.jpg","date":"2012-01-04","year":2012,"month":1,"lon":-16.883154,"lat":32.808342,"tags":"madeira,santana","S2CellId":"0c60700000000000","result":149,"accuracy":0.1717459,"title":"Santana%2C+Madeira"}
{"id":153332182,"url":"http://farm1.staticflickr.com/49/153332182_f6cd603527.jpg","path":"391/346/391346eff54be8ad229555b65d4ee2b.jpg","date":"2006-05-25","year":2006,"month":5,"lon":-16.910534,"lat":32.65318,"tags":"birds,flower,paradise","S2CellId":"009bd5c000000000","result":41,"accuracy":0.020884015,"title":"flight"}
{"id":6483935857,"url":"http://farm8.staticflickr.com/7143/6483935857_ccdfa03a71.jpg","path":"10a/68a/10a68affafd363e8124225ab378d066.jpg","date":"2011-10-26","year":2011,"month":10,"lon":-16.9753,"lat":32.64625,"tags":"island,madeira,madera,portugal,portugalia,wyspa","S2CellId":"0c60500000000000","result":148,"accuracy":0.6908347,"title":"Madeira+%28panorama%29"}
{"id":5546537395,"url":"http://farm6.staticflickr.com/5131/5546537395_6bdb6d296f.jpg","path":"6c9/389/6c938950884a85f1a9362885b14f4589.jpg","date":"2011-03-12","year":2011,"month":3,"lon":-16.713049,"lat":32.748775,"tags":"2011,55,a55,alpha,atlantic,atlantik,atlantische,bild,blumeninsel,cc,commons,creative,flickr,foto,fr%C3%BChling,geo,hi-res,high+resolution,image,insel,island,jpeg,jpg,leisure,m%C3%A4rz,madeira,photo,picture,portugal,portuguesa,rep%C3%BAblica,slt,slt-a55v,sony,spring,stockphoto,tourism,tourismus,urlaub,volcano,vulkaninsel","S2CellId":"0c60700000000000","result":149,"accuracy":0.1293973,"title":"2011-03-05+03-13+Madeira+693+Ponta+de+S%C3%A3o+Louren%C3%A7o"}
{"id":10173924263,"url":"http://farm4.staticflickr.com/3808/10173924263_14ba833bda.jpg","path":"3a9/832/3a98320cf5f74601c7f27677b386eac.jpg","date":"2013-06-04","year":2013,"month":6,"lon":-16.879549,"lat":32.740433,"tags":"atlantic,atlantic+ocean,atlantik,eiland,frio,gr%C3%BCn,green,gruen,hiking,insel,isle,levada,lichen,madeira,moos,moss,ocean,ozean,portugal,ribeiro,ribeiro+frio,wasser,water","S2CellId":"4761000000000000","result":3310,"accuracy":0.040878806,"title":"rushing+water","description":"Ribeiro+Frio+levada+%2F+Madeira+%2F+Portugal."}
