{"id":246429111,"url":"http://farm1.staticflickr.com/82/246429111_c701cd988a.jpg","path":"c17/ad6/c17ad62ee6daee4af3c3abb0bc849d46.jpg","date":"2006-09-05","year":2006,"month":9,"lon":28.710709,"lat":37.678387,"tags":"ancient,antique,aphrodisias,arykanda,ephese,heraklie,hierapolis,kalekoi,lac+bafa,latmos,phaselis,site,t%C3%BCrkei,tlos,turkey,turquie","S2CellId":"85c7000000000000","result":7447,"accuracy":0.23752686,"title":"IMG_0856"}
{"id":5523734184,"url":"http://farm6.staticflickr.com/5258/5523734184_8657da11e6.jpg","path":"8c4/38c/8c438c5f1ce8ad5ae1af78781719540.jpg","date":"2010-05-24","year":2010,"month":5,"lon":28.727116,"lat":37.709328,"tags":"aphrodisias,aphrodisias+m%C3%BCzesi,cheval,horse,marble,marbre,mus%C3%A9e,museum,statue,t%C3%BCrkiye,turkey,turquie","S2CellId":"94ce59f000000000","result":9723,"accuracy":0.041633707,"title":"Mus%C3%A9e+d%27Aphrodisias+-+Cheval+et+Art%C3%A9mis"}
{"id":209433405,"url":"http://farm1.staticflickr.com/63/209433405_6ae9cf4579.jpg","path":"91e/f9d/91ef9d0991059608c4a369ee1868c79.jpg","date":"2006-08-02","year":2006,"month":8,"lon":28.298035,"lat":37.048805,"tags":"b%C3%B6rt%C3%BCb%C3%B6cek,su","S2CellId":"3b30000000000000","result":2535,"accuracy":0.08128019}
{"id":5085845532,"url":"http://farm5.staticflickr.com/4091/5085845532_b548b0e0bd.jpg","path":"f51/eea/f51eeaf9e0f944cc5d9c77d288a36852.jpg","date":"2010-10-14","year":2010,"month":10,"lon":28.685818,"lat":37.70314,"tags":"aphrodisias","S2CellId":"8084c00000000000","result":6909,"accuracy":0.009985712,"title":"aphrodisias+museum+sebasteion+apollo+and+hero+info+board"}
{"id":13303897225,"url":"http://farm8.staticflickr.com/7254/13303897225_2ce076435b.jpg","path":"8dd/e4a/8dde4a16fa772b38a9256d3bea41b0.jpg","date":"2007-07-29","year":2007,"month":7,"lon":28.724022,"lat":37.708057,"tags":"ancient+history,archaeology,middle+east,theatre,turkey","S2CellId":"14c7000000000000","result":1290,"accuracy":0.2875853,"title":"Aphrodisias","description":"APAAMEG_20070729_DLK-0036.jpg"}
{"id":8576766514,"url":"http://farm9.staticflickr.com/8384/8576766514_9018599f22.jpg","path":"51a/b9a/51ab9aeb46a0e819e3aab5cf637dda61.jpg","date":"2009-10-15","year":2009,"month":10,"lon":28.724699,"lat":37.70922,"tags":"aphrodisias,architecture,column,poplar,roman,stone,tree,turkey","S2CellId":"14c7000000000000","result":1290,"accuracy":0.6004285,"title":"Fallen+columns%2C+growing+trees"}
{"id":5523775264,"url":"http://farm6.staticflickr.com/5180/5523775264_8e131eee95.jpg","path":"3d9/515/3d95153b4c825c5ba27f57506cea4f25.jpg","date":"2010-05-24","year":2010,"month":5,"lon":28.723469,"lat":37.709274,"tags":"antique,aphrodisias,bouleut%C3%A9rion,cit%C3%A9,city,council+house,grec,greek,od%C3%A9on,t%C3%BCrkiye,turkey,turquie,vestige","S2CellId":"14c7000000000000","result":1290,"accuracy":0.80960923,"title":"Aphrodisias+-+Bouleut%C3%A9rion"}
