{"id":3063374216,"url":"http://farm4.staticflickr.com/3056/3063374216_534f374f80.jpg","path":"851/e87/851e8729595489aaef4eb0cdc7a684.jpg","date":"2007-08-04","year":2007,"month":8,"lon":-91.990585,"lat":17.534714,"tags":"2007,mexico,travel,xurde","S2CellId":"311016c000000000","result":1710,"accuracy":0.372524,"title":"Mexico+2007-0684"}
{"id":2335802400,"url":"http://farm4.staticflickr.com/3005/2335802400_0b52fe6962.jpg","path":"654/749/654749e2bc84ee3c95eb66e7c819de80.jpg","date":"2005-08-25","year":2005,"month":8,"lon":-91.9693,"lat":17.687202,"tags":"2005,brian%27s+photos,mexico,palenque,yucatan","S2CellId":"8edc000000000000","result":9506,"accuracy":0.03309689,"title":"mIMG0358"}
{"id":439779166,"url":"http://farm1.staticflickr.com/177/439779166_ff09808757.jpg","path":"cdd/519/cdd5195fc96d7963c2baaa06a5f50b8.jpg","date":"2007-03-30","year":2007,"month":3,"lon":-91.98217,"lat":17.50937,"tags":"1983,accipiteridae,accipitridae,accipitriformes,chiapas,hawk,mexico,raptor,roadside+hawk","S2CellId":"88d0a631cabb5071","result":8563,"accuracy":0.01217375,"title":"RdSH_59236.jpg","description":"Roadside+Hawk+at+Pelanque%2C+Chiapas%2C+Mexico%2C+831205.+Buteo+magnirostris"}
{"id":127457522,"url":"http://farm1.staticflickr.com/52/127457522_43d3059048.jpg","path":"fc1/a32/fc1a32e3b1ebba9857d69d21eb1444.jpg","date":"2006-01-18","year":2006,"month":1,"lon":-91.98286,"lat":17.512041,"tags":"ball,ballcourt,court,game,indian,mexico,palenque,worldheritage","S2CellId":"8f5d000000000000","result":9533,"accuracy":0.37804723,"title":"Ball+court+in+Palenque"}
{"id":2334947679,"url":"http://farm3.staticflickr.com/2392/2334947679_98936bacac.jpg","path":"119/7c2/1197c2e3c1454c71c5281726c27d52f.jpg","date":"2005-08-25","year":2005,"month":8,"lon":-91.9693,"lat":17.687202,"tags":"2005,brian%27s+photos,mexico,palenque,yucatan","S2CellId":"8f57000000000000","result":9530,"accuracy":0.04438433,"title":"mIMG0301"}
{"id":127457269,"url":"http://farm1.staticflickr.com/51/127457269_b5b0d66e98.jpg","path":"efc/368/efc368566cf3d0651bcdf23df392ee.jpg","date":"2006-01-18","year":2006,"month":1,"lon":-91.98286,"lat":17.512041,"tags":"cemetary,grave,mexico,palenque,tomb,tombs,worldheritage","S2CellId":"8f75000000000000","result":9551,"accuracy":0.06353183,"title":"Over+the+cemetary%27s+wall","description":"This+was+the+most+intresting+thing+in+city+of+Palenque.+And+on+we+go."}
{"id":2214680798,"url":"http://farm3.staticflickr.com/2349/2214680798_717508551c.jpg","path":"96d/ac8/96dac8e5975ad08915625e2be1711b44.jpg","date":"2007-02-25","year":2007,"month":2,"lon":-91.996765,"lat":17.376852,"tags":"archer,archer10,dennis,dennis+g.+jarvis,dennis+jarvis,free,i+am+canadian,maya,mayan,mexico,palenque,ruins,world+travels","S2CellId":"489b000000000000","result":5779,"accuracy":0.022253754,"title":"Mexico-2514","description":"Passageway+that+runs+in+front+of+the+tomb+with+stairs+that+would+have+gone+up+to+higher+levels+of+the+temple."}
{"id":7981080732,"url":"http://farm9.staticflickr.com/8036/7981080732_50e49c9a99.jpg","path":"fa2/95e/fa295e965c2ea54dd5ebb7bf87347b28.jpg","date":"2012-08-20","year":2012,"month":8,"lon":-91.99946,"lat":17.390997,"tags":"chiapas,hdr,mexico","S2CellId":"4761000000000000","result":3310,"accuracy":0.22071841,"title":"La+Cascada+Misol-Ha"}
