{"id":345286924,"url":"http://farm1.staticflickr.com/129/345286924_8961e16b56.jpg","path":"5e8/cde/5e8cde4bc3362e5d376ef0a5599aa2ee.jpg","date":"2004-09-18","year":2004,"month":9,"lon":102.25027,"lat":27.897198,"tags":"%E4%B8%AD%E5%9B%BD,%E5%8F%A4%E5%9F%8E,%E5%9B%9B%E5%B7%9D,%E5%BD%9D%E6%97%8F,%E6%97%A7%E5%B8%82%E8%A1%97,%E6%B6%BC%E5%B1%B1,%E8%80%81%E5%9F%8E,%E8%A5%BF%E6%98%8C%E5%B8%82,china,liangshan,sichuan,xichang,yi","S2CellId":"39eb1b0000000000","result":2495,"accuracy":0.2657287,"title":"DSCF5212b.jpg","description":"View+to+the+slope+road+from+the+top+of+the+old+castle.%0AOld+town%2C+Xichang%2C+Liangshan+Yi+Autonomous+Prefecture%2C+Sichuan%2C+China%2C+Sep%2C+2004%2C+Fujifilm+Finepix+F700%0A%0A%E3%81%8A%E5%9F%8E%E3%81%AE%E4%B8%8A%E3%81%8B%E3%82%89%E8%A6%8B%E3%81%9F%E5%9D%82%E9%81%93%E3%80%82%0A%E4%B8%AD%E5%9B%BD%E5%9B%9B%E5%B7%9D%E7%9C%81%E6%B6%BC%E5%B1%B1%E5%BD%9D%E6%97%8F%E8%87%AA%E6%B2%BB%E5%B7%9E%E8%A5%BF%E6%98%8C%E5%B8%82%E6%97%A7%E5%B8%82%E8%A1%97"}
{"id":3771923762,"url":"http://farm4.staticflickr.com/3595/3771923762_0c43349a25.jpg","path":"f66/e3a/f66e3a23b16ebc8e24a1d6c89368f5c4.jpg","date":"2009-07-10","year":2009,"month":7,"lon":103.69057,"lat":29.797033,"tags":"china,deep+sky+exploration,dse,gongfu+tea+ceremony,kina,kinatur,kungfu+tea+ceremony,sichuan,szechuan,ten+fu+tea+garden","S2CellId":"2e69f70000000000","result":1574,"accuracy":0.02591633,"title":"Kungfu+Tea+Master","description":"The+Kung+Fu+Tea+Master+at+work+in+the+Ten+Fu+Tea+Garden+in+Sichuan."}
{"id":240329749,"url":"http://farm1.staticflickr.com/97/240329749_725158353f.jpg","path":"44d/576/44d576c8c73d319eeae89995bc0a784.jpg","date":"2005-10-02","year":2005,"month":10,"lon":103.00232,"lat":29.678509,"tags":"+tiger+leaping+gorge,china,yunnan","S2CellId":"a9d5c00000000000","result":9945,"accuracy":0.38495964,"title":"Pipe+Down%21","description":"A+few+random+things+along+Tiger+Leaping+Gorge"}
{"id":3461249902,"url":"http://farm4.staticflickr.com/3565/3461249902_d15f5126bb.jpg","path":"d48/cf6/d48cf6992d2280ddf8dbb5b1b5521c9.jpg","date":"2009-03-17","year":2009,"month":3,"lon":103.770485,"lat":29.549154,"tags":"china,chn,leshan,sichuan","S2CellId":"3690000000000000","result":2402,"accuracy":0.12720856,"title":"IMG_8987"}
{"id":3461958539,"url":"http://farm4.staticflickr.com/3656/3461958539_c29f6b6abf.jpg","path":"15c/0c6/15c0c6bc8864254f0af472034935e4d.jpg","date":"2009-03-18","year":2009,"month":3,"lon":103.33485,"lat":29.522627,"tags":"china,chn,emeishan+shi,sichuan","S2CellId":"3171400000000000","result":1767,"accuracy":0.10945269,"title":"IMG_9144"}
{"id":3461791268,"url":"http://farm4.staticflickr.com/3662/3461791268_81689a892c.jpg","path":"99a/235/99a23539f05b9e141d853d942330ab.jpg","date":"2009-03-17","year":2009,"month":3,"lon":103.7697,"lat":29.547005,"tags":"china,chn,leshan,sichuan","S2CellId":"35d0000000000000","result":2359,"accuracy":0.10703294,"title":"IMG_9075"}
{"id":850537310,"url":"http://farm2.staticflickr.com/1368/850537310_f1caf6b10a.jpg","path":"20b/a86/20ba8679e493422690adad45f4f3c0f5.jpg","date":"2007-06-25","year":2007,"month":6,"lon":102.30057,"lat":27.866396,"tags":"xichangchina%E8%A5%BF%E6%98%8C%E4%B8%AD%E5%9B%BD","S2CellId":"5377000000000000","result":6058,"accuracy":0.048986737,"title":"_MG_2061+copy"}
{"id":345286858,"url":"http://farm1.staticflickr.com/145/345286858_3dfa26bed0.jpg","path":"8c6/3ee/8c63ee3d3f4580fe4fdbbc94e651d17.jpg","date":"2004-09-18","year":2004,"month":9,"lon":102.25027,"lat":27.897198,"tags":"%E4%B8%AD%E5%9B%BD,%E5%8F%A4%E5%9F%8E,%E5%9B%9B%E5%B7%9D,%E5%BD%9D%E6%97%8F,%E6%97%A7%E5%B8%82%E8%A1%97,%E6%B6%BC%E5%B1%B1,%E8%80%81%E5%9F%8E,%E8%A5%BF%E6%98%8C%E5%B8%82,china,liangshan,mf,sichuan,xichang,yi","S2CellId":"8589400000000000","result":7437,"accuracy":0.031388786,"title":"DSCF5211b.jpg","description":"View+to+the+slope+road+from+the+top+of+the+old+castle.%0AOld+town%2C+Xichang%2C+Liangshan+Yi+Autonomous+Prefecture%2C+Sichuan%2C+China%2C+Sep%2C+2004%2C+Fujifilm+Finepix+F700%0A%0A%E3%81%8A%E5%9F%8E%E3%81%AE%E4%B8%8A%E3%81%8B%E3%82%89%E8%A6%8B%E3%81%9F%E5%9D%82%E9%81%93%E3%80%82%0A%E4%B8%AD%E5%9B%BD%E5%9B%9B%E5%B7%9D%E7%9C%81%E6%B6%BC%E5%B1%B1%E5%BD%9D%E6%97%8F%E8%87%AA%E6%B2%BB%E5%B7%9E%E8%A5%BF%E6%98%8C%E5%B8%82%E6%97%A7%E5%B8%82%E8%A1%97"}
{"id":5050087397,"url":"http://farm5.staticflickr.com/4149/5050087397_dd960873b4.jpg","path":"34f/746/34f746659fa7d82f591be56e8457d5f9.jpg","date":"2007-01-11","year":2007,"month":1,"lon":103.73634,"lat":29.573458,"tags":"%E4%B8%AD%E5%9C%8B,%E5%9B%9B%E5%B7%9D,%E6%A8%82%E5%B1%B1,%E6%A8%82%E5%B1%B1%E5%A4%A7%E4%BD%9B,china,leshan,sichuan","S2CellId":"3124000000000000","result":1729,"accuracy":0.049162913,"title":"DSC_6841.JPG"}
{"id":3771923750,"url":"http://farm3.staticflickr.com/2622/3771923750_3586b8a53b.jpg","path":"1eb/e1b/1ebe1bfb9c4e6a3a9805d67509f2726.jpg","date":"2009-07-10","year":2009,"month":7,"lon":103.69057,"lat":29.797033,"tags":"china,deep+sky+exploration,dse,gongfu+tea+ceremony,kina,kinatur,kungfu+tea+ceremony,sichuan,szechuan,ten+fu+tea+garden","S2CellId":"346eb00000000000","result":2224,"accuracy":0.042229004,"title":"Kungfu+Tea+Master","description":"The+Kung+Fu+Tea+Master+at+work+in+the+Ten+Fu+Tea+Garden+in+Sichuan."}
{"id":2380517447,"url":"http://farm3.staticflickr.com/2366/2380517447_948d02a583.jpg","path":"3a5/1a8/3a51a87336d7bcdd6a328a4a456cafd7.jpg","date":"2007-02-27","year":2007,"month":2,"lon":103.64502,"lat":29.659416,"tags":"blogged","S2CellId":"3be7cc0000000000","result":2574,"accuracy":0.09411282}
{"id":3460557917,"url":"http://farm4.staticflickr.com/3632/3460557917_e923a27eb2.jpg","path":"70e/875/70e87544fd9cb7ac40c836bb6affc65b.jpg","date":"2009-03-17","year":2009,"month":3,"lon":103.769424,"lat":29.547735,"tags":"china,chn,leshan,sichuan","S2CellId":"144c000000000000","result":1197,"accuracy":0.1608569,"title":"IMG_9010"}
{"id":5050139857,"url":"http://farm5.staticflickr.com/4112/5050139857_056dd23849.jpg","path":"be7/022/be7022ecd5b333a131187b56226ed1c.jpg","date":"2007-01-11","year":2007,"month":1,"lon":103.73634,"lat":29.573458,"tags":"%E4%B8%AD%E5%9C%8B,%E5%9B%9B%E5%B7%9D,%E6%A8%82%E5%B1%B1,%E6%A8%82%E5%B1%B1%E5%A4%A7%E4%BD%9B,china,leshan,sichuan","S2CellId":"0d71fcb400000000","result":582,"accuracy":0.014513555,"title":"DSCN3501.JPG"}
{"id":5050830622,"url":"http://farm5.staticflickr.com/4088/5050830622_b697f7cbaa.jpg","path":"e85/d2b/e85d2be8c2a921937a2bbc807b43c3.jpg","date":"2007-01-11","year":2007,"month":1,"lon":103.73634,"lat":29.573458,"tags":"%E4%B8%AD%E5%9C%8B,%E5%9B%9B%E5%B7%9D,%E6%A8%82%E5%B1%B1,%E6%A8%82%E5%B1%B1%E5%A4%A7%E4%BD%9B,china,leshan,sichuan","S2CellId":"3134400000000000","result":1736,"accuracy":0.11159329,"title":"DSCN3546.JPG"}
{"id":22107297,"url":"http://farm1.staticflickr.com/15/22107297_ef7ded19b1.jpg","path":"599/976/59997617ff6931594039eb167ae897b.jpg","date":"2005-06-15","year":2005,"month":6,"lon":103.76922,"lat":29.534184,"tags":"buddha,china,leshan","S2CellId":"94f7000000000000","result":9773,"accuracy":0.18029474,"title":"DSC01545"}
{"id":849688811,"url":"http://farm2.staticflickr.com/1363/849688811_6c2cf01bd1.jpg","path":"f5a/ce6/f5ace64fc9d71dff58c6d3a430fd33.jpg","date":"2007-06-24","year":2007,"month":6,"lon":102.30057,"lat":27.866396,"tags":"xichangchina%E8%A5%BF%E6%98%8C%E4%B8%AD%E5%9B%BD","S2CellId":"4b5b000000000000","result":5824,"accuracy":0.004685877,"title":"_MG_1936+copy","description":"A+rare+species+of+speaker+panda+in+its+natural+hotel+habitat."}
{"id":3462722840,"url":"http://farm4.staticflickr.com/3479/3462722840_5ca9e88b5c.jpg","path":"d0b/86b/d0b86b48e61ab5f47d62384e8442a94.jpg","date":"2009-03-18","year":2009,"month":3,"lon":103.33353,"lat":29.537872,"tags":"china,chn,emeishan+shi,sichuan","S2CellId":"89c2f4c000000000","result":9106,"accuracy":0.042837936,"title":"IMG_9124"}
{"id":3460444373,"url":"http://farm4.staticflickr.com/3530/3460444373_29caedaede.jpg","path":"8a2/3e5/8a23e557a4e7b8087c6d36d26b9482a.jpg","date":"2009-03-17","year":2009,"month":3,"lon":103.770485,"lat":29.549154,"tags":"china,chn,leshan,sichuan","S2CellId":"3be7cc0000000000","result":2574,"accuracy":0.43713906,"title":"IMG_8990"}
{"id":60390460,"url":"http://farm1.staticflickr.com/24/60390460_5a9474035a.jpg","path":"117/c8b/117c8b16b8b75b46be39d131504d3671.jpg","date":"2005-10-15","year":2005,"month":10,"lon":103.37079,"lat":29.495867,"tags":"animals","S2CellId":"36ef000000000000","result":2415,"accuracy":0.106109954,"title":"IMG_0846","description":"At+the+monkey+park+in+Emeishan.++This+one+just+finished+inspecting+the+contents+of+the+garbage+can."}
{"id":2334874750,"url":"http://farm4.staticflickr.com/3287/2334874750_411abc3a2a.jpg","path":"6cb/f10/6cbf10295ff2b2bcfdfec38b432fb50.jpg","date":"2008-03-15","year":2008,"month":3,"lon":103.76209,"lat":29.555986,"tags":"big+buddha,china,leshan,sichuan","S2CellId":"3663000000000000","result":2397,"accuracy":0.14195682,"title":"P1010224","description":"At+least+the+people+lug+the+big+stones+too+and+don%27t+leave+it+all+to+the+donkeys"}
{"id":3463301642,"url":"http://farm4.staticflickr.com/3660/3463301642_7bcc8b533c.jpg","path":"3c6/fc8/3c6fc81d63e08642289ae6af40f0b89.jpg","date":"2009-03-19","year":2009,"month":3,"lon":103.391785,"lat":29.574001,"tags":"baoguosi,china,chn,sichuan","S2CellId":"3724000000000000","result":2419,"accuracy":0.19376469,"title":"IMG_9279"}
{"id":3463519294,"url":"http://farm4.staticflickr.com/3541/3463519294_c83cda2665.jpg","path":"714/44c/71444c56d9b7f6e35e88880d4a450bf.jpg","date":"2009-03-19","year":2009,"month":3,"lon":103.42553,"lat":29.564745,"tags":"baoguosi,china,chn,sichuan","S2CellId":"3143000000000000","result":1758,"accuracy":0.035531126,"title":"IMG_9328"}
{"id":240329743,"url":"http://farm1.staticflickr.com/92/240329743_ba6afbfd54.jpg","path":"82a/6be/82a6be792f8a8be81acf32c48f5e4aee.jpg","date":"2005-09-10","year":2005,"month":9,"lon":103.60657,"lat":29.589579,"tags":"+emei+shan,+mount+emei,china,mountain,steps","S2CellId":"346ed40000000000","result":2227,"accuracy":0.090364605,"title":"Follower","description":"Climbing+Emei+Shans+steep+steps+was%2C+umm%2C+good+thanks."}
