{"id":109464537,"url":"http://farm1.staticflickr.com/28/109464537_c627fcae49.jpg","path":"314/c1d/314c1dc6bd6a6cb0ab3e6ff4edcdf5ae.jpg","date":"2006-02-28","year":2006,"month":2,"lon":-57.63565,"lat":-25.287231,"tags":"asuncion,casa,edificios,encarnacion,everdaniel,ferrocarril,heroes,independencia,panteon,paraguay,turismo","S2CellId":"88fb8c0000000000","result":8745,"accuracy":0.0690566,"title":"tumba","description":"tumba+del+soldado+desconocido+rodeado+de+otros+h%C3%A9roes+nacionales"}
{"id":2332641799,"url":"http://farm4.staticflickr.com/3058/2332641799_5256c1f7e8.jpg","path":"7cb/7cc/7cb7cc9b9e4429c94137da38568c22.jpg","date":"2008-03-14","year":2008,"month":3,"lon":-57.660713,"lat":-25.297165,"tags":"flores,flower,flowers","S2CellId":"88d0a631cabb5071","result":8563,"accuracy":0.014338028,"title":"flower","description":"flower+and+dof"}
{"id":4935757700,"url":"http://farm5.staticflickr.com/4138/4935757700_0b32cb155a.jpg","path":"34d/d63/34dd634329ffe7ad08fa9c72abc87.jpg","date":"2010-08-26","year":2010,"month":8,"lon":-57.63977,"lat":-25.234758,"tags":"4+eyes,hairy,insect+spider+4+eyes+hairy+paraguay,paraguay,spider","S2CellId":"8f61000000000000","result":9535,"accuracy":0.039059438,"title":"4+eyed+spider","description":"Amazing+little+critter%2C+this+one%21"}
{"id":3478344124,"url":"http://farm4.staticflickr.com/3326/3478344124_9fc445d5b8.jpg","path":"9e6/032/9e603252f37c92cc31569abe5d6efb2b.jpg","date":"2009-04-14","year":2009,"month":4,"lon":-57.65831,"lat":-25.283195,"tags":"asuncion,paraguay","S2CellId":"14a1bd3c00000000","result":1257,"accuracy":0.05490199,"title":"Asunci%C3%B3n","description":"Paraguay+2009"}
{"id":5447547183,"url":"http://farm6.staticflickr.com/5217/5447547183_364a165130.jpg","path":"7cd/d30/7cdd30167ab62bad90b6d05236de1816.jpg","date":"2010-09-05","year":2010,"month":9,"lon":-57.638096,"lat":-25.302944,"tags":"a+cuadros,arbol,arboles,championes,converse,dress,fatima+fernandez,flannel,green,park,parque,plaid,sneakers,tree,trees,twigs,verde,vestido,zapatillas","S2CellId":"9450000000000000","result":9674,"accuracy":0.06577104,"title":"F%C3%A1tima+Fern%C3%A1ndez","description":"Sesi%C3%B3n+de+hace+tiempo+con+F%C3%A1tima+Fern%C3%A1ndez"}
{"id":3726115407,"url":"http://farm3.staticflickr.com/2669/3726115407_94b1a047f2.jpg","path":"a2c/1eb/a2c1ebe4f73b96299ef26cc843c56.jpg","date":"2009-07-14","year":2009,"month":7,"lon":-57.634277,"lat":-25.29437,"tags":"barred+antshrike,batara+rayado,bird,egg,karina+diarte,paraguay,specanimal,thamnophilus+doliatus","S2CellId":"12a49d0000000000","result":704,"accuracy":0.118065305,"title":"Batara+rayado+%2F+Barred+Antshrike","description":"%3Ci%3EThamnophilus+doliatus+%3C%2Fi%3E%2C+female%0A%0Aexplore%0A%0AYou+have+made+known+to+me+the+path+of+life%3B+you+will+fill+me+with+joy+in+your+presence%2C++with+eternal+pleasures+at+your+right+hand.+Psalm+16%0A%0A%3Cstrong%3EAll+my+photos+are+copyrighted.+Please+do+not+use+them+for+any+purpose%2C+including+on+blogs%2C+without+my+express+permission.%3C%2Fstrong%3E"}
{"id":286906736,"url":"http://farm1.staticflickr.com/120/286906736_646951b93a.jpg","path":"42d/ac7/42dac77e7dfdf430c8eb48b3938d3.jpg","date":"2006-11-02","year":2006,"month":11,"lon":-57.5354,"lat":-25.131691,"tags":"argentina,gr%C3%A4ns,paraguay","S2CellId":"1950000000000000","result":1435,"accuracy":0.08459942,"title":"Sydamerika+-+202.jpg"}
{"id":2689685140,"url":"http://farm4.staticflickr.com/3279/2689685140_8cc902f494.jpg","path":"2ad/7c0/2ad7c098a0a74e23f21d48c7ecb9f.jpg","date":"2008-07-20","year":2008,"month":7,"lon":-57.631874,"lat":-25.364813,"tags":"affe,affenbaby,br%C3%BCllaffe,paraguay","S2CellId":"46b5370000000000","result":3055,"accuracy":0.00907318,"title":"Young+Howler+Monkey"}
{"id":3759117823,"url":"http://farm4.staticflickr.com/3435/3759117823_b4ab36f7f9.jpg","path":"4d4/3fb/4d43fb78805c5c588c8be013d9591f0.jpg","date":"2009-07-26","year":2009,"month":7,"lon":-57.371376,"lat":-25.300346,"tags":"aregua,asuncion,train","S2CellId":"0d604b0000000000","result":511,"accuracy":0.20237108,"title":"Reflected","description":"Aregua+lake"}
{"id":5564173618,"url":"http://farm6.staticflickr.com/5106/5564173618_9d7bd8d6c6.jpg","path":"bf3/1e1/bf31e118a9bd768a158acedd5b235b9.jpg","date":"2011-03-25","year":2011,"month":3,"lon":-57.64592,"lat":-25.302673,"tags":"architecture,arquitectura,b%26w,ballet,black,black+and+white,blanco,blanco+y+negro,estudio+fratta,fratta,macarena+franco,negro,white","S2CellId":"80d9549000000000","result":7295,"accuracy":0.067790285,"title":"Macarena","description":"sesi%C3%B3n+ballet%C3%ADstica"}
{"id":8259918048,"url":"http://farm9.staticflickr.com/8487/8259918048_150f29733c.jpg","path":"1e4/520/1e452021c7e5eb5130b553fa7f451b5.jpg","date":"2012-12-09","year":2012,"month":12,"lon":-57.6399,"lat":-25.2766,"tags":"bicicletas,bicis,bicycle,bike+culture,bikes,critical+mass,masa+cr%C3%ADtica","S2CellId":"9662c5b000000000","result":9881,"accuracy":0.021322787,"title":"Masa+cr%C3%ADtica"}
{"id":3734473967,"url":"http://farm3.staticflickr.com/2485/3734473967_10e20c8f1a.jpg","path":"5f2/9dd/5f29ddc6674882b2e11144b635b6ec93.jpg","date":"2009-07-18","year":2009,"month":7,"lon":-57.634277,"lat":-25.29437,"tags":"bird,greyish+saltator,karina+diarte,paraguay,pepitero+gris,saltator+coerulescens","S2CellId":"47edc00000000000","result":4703,"accuracy":0.5504105,"title":"Pepitero+Gris+%2F+Greyish+Saltator","description":"%3Ci%3ESaltator+coerulescens%3C%2Fi%3E%0A%0AThe%3Ca+href%3D%22http%3A%2F%2Fwww.flickr.com%2Fphotos%2Fkarinadiarte%2F3735268036%2F%3Fedited%3D1%22%3E+video%3C%2Fa%3E%0A%0Aexplore%0A%0AIn+him+was+life%2C+and+that+life+was+the+light+of+men.+John+1%0A%0A%3Cstrong%3EAll+my+photos+are+copyrighted.+Please+do+not+use+them+for+any+purpose%2C+including+on+blogs%2C+without+my+express+permission.%3C%2Fstrong%3E"}
