{"id":237020980,"url":"http://farm1.staticflickr.com/82/237020980_b28d9c158b.jpg","path":"3c1/33d/3c133db6e9af7a65d3bc353a9b9ae2ad.jpg","date":"2006-09-07","year":2006,"month":9,"lon":17.400627,"lat":67.502396,"tags":"hiking,mountains,nij%C3%A1k,ruohtesv%C3%A1gge,sarek","S2CellId":"4ec0000000000000","result":5959,"accuracy":0.026280986,"title":"A228402+019A"}
{"id":1160911273,"url":"http://farm2.staticflickr.com/1240/1160911273_0d1c04b006.jpg","path":"b71/29f/b7129f2fd558305044e3c6779b5d1ade.jpg","date":"2007-08-06","year":2007,"month":8,"lon":17.367325,"lat":67.53036,"tags":"ao%C3%BBt2007,fj%C3%A4llen,kisurisk%C3%A5tan,padjelantaleden,rivi%C3%A8re","S2CellId":"45d9000000000000","result":2756,"accuracy":0.36867657,"title":"La+vall%C3%A9e","description":"Une+rivi%C3%A8re%2C+des+buissons%2C+des+mousses%2C+des+cailloux.+C%27est+le+paysage+de+la+rando."}
{"id":2798772305,"url":"http://farm4.staticflickr.com/3002/2798772305_a9876f6edf.jpg","path":"4fd/eed/4fdeed8de863b8e8abcd8cf111ed9b.jpg","date":"2008-08-17","year":2008,"month":8,"lon":17.786777,"lat":67.04725,"tags":"lappland,norrland,outdoor,sarek,sunset,sweden,trekking","S2CellId":"5353000000000000","result":6037,"accuracy":0.048955,"title":"Picturesque"}
{"id":2964658065,"url":"http://farm4.staticflickr.com/3035/2964658065_c77ae9ebe5.jpg","path":"fda/799/fda79999f698849fc14e1db9257bc96.jpg","date":"2008-10-22","year":2008,"month":10,"lon":17.386808,"lat":67.1896,"tags":"hiking,mountains,njoatsosv%C3%A1gge,sarek","S2CellId":"45db000000000000","result":2757,"accuracy":0.16089903,"title":"A253336+022"}
{"id":2798763221,"url":"http://farm4.staticflickr.com/3012/2798763221_a3daa93285.jpg","path":"5f5/f84/5f5f84d839c3f16380c5134216c3d6.jpg","date":"2008-08-26","year":2008,"month":8,"lon":17.913721,"lat":67.03959,"tags":"andi,lappland,myself,norrland,outdoor,sarek,sweden,trekking","S2CellId":"5140000000000000","result":5964,"accuracy":0.33999574,"title":"A+path%21"}
{"id":2833330342,"url":"http://farm4.staticflickr.com/3171/2833330342_2f3d5a6c77.jpg","path":"a9b/5f0/a9b5f0895f72dcd0f1ea3c768365dac3.jpg","date":"2008-08-27","year":2008,"month":8,"lon":17.227848,"lat":67.754684,"tags":"clouds,fells,fj%C3%A4llen,himmel,lake,moln,natur,rainbow,regnb%C3%A5ge,sensommar,sj%C3%B6,sky,sweden,vaisaluokta,vatten,water","S2CellId":"45d4000000000000","result":2755,"accuracy":0.09238002,"title":"rainbows+end+in+akkajaure"}
{"id":3852489112,"url":"http://farm3.staticflickr.com/2534/3852489112_f88f96e53b.jpg","path":"43b/ccf/43bccff6d61fc025b9fc05a20664b84.jpg","date":"2009-08-08","year":2009,"month":8,"lon":17.479322,"lat":67.71714,"tags":"extremecom,padjelanta+national+park,ritsem,sweden","S2CellId":"56c8c00000000000","result":6320,"accuracy":0.0933879,"title":"DSC_4139"}
{"id":9986792684,"url":"http://farm3.staticflickr.com/2892/9986792684_b2b1a2ff86.jpg","path":"525/db3/525db3e74b5bd18690af08f2c474bfc.jpg","date":"2013-09-01","year":2013,"month":9,"lon":17.930405,"lat":67.23908,"tags":"laponia,moose,rapadalen,sarek,sweden","S2CellId":"45d4000000000000","result":2755,"accuracy":0.12706971,"title":"_9010097","description":"A+moose+in+Rapadalen."}
{"id":9987114386,"url":"http://farm4.staticflickr.com/3722/9987114386_068ffb5c8e.jpg","path":"bd8/8df/bd88dfb992cff04a3a65a1bf146499e1.jpg","date":"2013-08-28","year":2013,"month":8,"lon":17.784986,"lat":67.02029,"tags":"camp,laponia,sarek,stuor+tata,sweden","S2CellId":"5240000000000000","result":5966,"accuracy":0.2754565,"title":"_8280004","description":"The+first+camp+of+the+trip+on+the+shore+of+Stuor+Tata."}
