{"id":3506828836,"url":"http://farm4.staticflickr.com/3571/3506828836_fce6f741b8.jpg","path":"a6a/891/a6a89149486cb6c3a1d4df175c3eaa96.jpg","date":"2009-05-01","year":2009,"month":5,"lon":109.500046,"lat":18.253235,"tags":"china,city,hainan,sanya","S2CellId":"8fa5000000000000","result":9566,"accuracy":0.03410897,"title":"Sanya+City"}
{"id":94160207,"url":"http://farm1.staticflickr.com/42/94160207_736ec87943.jpg","path":"236/2a5/2362a576fd0373b64fcdb9cb01b77ef.jpg","date":"2006-01-25","year":2006,"month":1,"lon":109.483734,"lat":18.269457,"tags":"china4,hainan,sanya","S2CellId":"40a4000000000000","result":2667,"accuracy":0.031882625,"title":"IMG_7663"}
{"id":3505274289,"url":"http://farm4.staticflickr.com/3636/3505274289_259e396ee8.jpg","path":"5f4/d85/5f4d85f3f3d1da6ae2dc0f084ba8636.jpg","date":"2009-05-02","year":2009,"month":5,"lon":109.4767,"lat":18.272879,"tags":"beach,china,hainan,sanya","S2CellId":"3102c00000000000","result":1683,"accuracy":0.030104414,"title":"Sanya+Beach"}
{"id":3509010401,"url":"http://farm4.staticflickr.com/3659/3509010401_dba07d3738.jpg","path":"359/fdf/359fdfb0d38fdfb153fda55c3cc32396.jpg","date":"2009-04-30","year":2009,"month":4,"lon":109.735565,"lat":18.342794,"tags":"china,hainan,monkey,monkey+island,nanwan,nanwan+monkey+island,ryan+chen,sanya","S2CellId":"310b000000000000","result":1702,"accuracy":0.015371855,"title":"Nanwan+Monkey+Island"}
{"id":73709276,"url":"http://farm1.staticflickr.com/35/73709276_93fa23211d.jpg","path":"413/f1e/413f1e9a9fed5e556483c712688ec.jpg","date":"2005-11-17","year":2005,"month":11,"lon":109.51172,"lat":18.999802,"tags":"%E9%B3%A5,bird","S2CellId":"8814d00000000000","result":8186,"accuracy":0.03647759,"title":"DSC+5578"}
{"id":6406121185,"url":"http://farm8.staticflickr.com/7143/6406121185_b6cbae5b63.jpg","path":"98e/5b3/98e5b354519af12d8385b32cea2fa1.jpg","date":"2010-10-30","year":2010,"month":10,"lon":109.5136,"lat":18.218916,"tags":"china+hainan+chine+%E6%B5%B7%E5%8D%97+%E6%B5%B7%E5%8F%A3,haikou","S2CellId":"34040c0000000000","result":2008,"accuracy":0.032349307,"title":"Sanya"}
{"id":3507389904,"url":"http://farm4.staticflickr.com/3344/3507389904_e5291750a8.jpg","path":"9a4/542/9a45426d3ab7fa2cb62ae134a11203f.jpg","date":"2009-05-03","year":2009,"month":5,"lon":109.4767,"lat":18.272879,"tags":"beach,china,hainan,ocean,sanya","S2CellId":"88d9b49400000000","result":8595,"accuracy":0.090920486,"title":"Sanya+Beach"}
{"id":3510722325,"url":"http://farm4.staticflickr.com/3567/3510722325_503d5864c5.jpg","path":"7c9/989/7c99892fea199beb2a4f124f7143232.jpg","date":"2009-05-04","year":2009,"month":5,"lon":109.234314,"lat":18.310204,"tags":"buddha,buddhism+cultural+tourism+zone,china,guanyin,hainan,nanshan+temple,sanya,temple","S2CellId":"346eb00000000000","result":2224,"accuracy":0.03689451,"title":"Sanya+Nanshan+Temple+%3F%3F%3F"}
{"id":7195781344,"url":"http://farm6.staticflickr.com/5038/7195781344_52c879cbff.jpg","path":"24c/020/24c02086263f2e03f6724142498afb.jpg","date":"2010-10-27","year":2010,"month":10,"lon":109.4827,"lat":18.2678,"tags":"china,sanya","S2CellId":"217d000000000000","result":1486,"accuracy":0.059064396,"title":"Sanya+Nantian+Ecological+Garden"}
{"id":3506133489,"url":"http://farm4.staticflickr.com/3298/3506133489_b9102b80a4.jpg","path":"fcf/d31/fcfd31d68c8594ee607d9de404617e0.jpg","date":"2009-05-02","year":2009,"month":5,"lon":109.51618,"lat":18.22291,"tags":"beach,china,dodonghai,hainan,sanya","S2CellId":"3145000000000000","result":1759,"accuracy":0.072564,"title":"Sanya+DaDongHai+Beach"}
{"id":3507462013,"url":"http://farm4.staticflickr.com/3299/3507462013_0ea0473fc7.jpg","path":"c5d/143/c5d1432556155ddea71f1dd33685fc.jpg","date":"2009-05-03","year":2009,"month":5,"lon":109.500046,"lat":18.253235,"tags":"china,city,hainan,sanya","S2CellId":"8085874300000000","result":6973,"accuracy":0.008358937,"title":"Sanya+City"}
{"id":3505636023,"url":"http://farm4.staticflickr.com/3560/3505636023_66b5a4d23a.jpg","path":"0f8/c1d/0f8c1d95d103fcd8c510e37b1b799e.jpg","date":"2009-04-29","year":2009,"month":4,"lon":109.4767,"lat":18.272879,"tags":"beach,china,hainan,sanya","S2CellId":"3102c00000000000","result":1683,"accuracy":0.19394208,"title":"Sanya+Beach"}
{"id":3359159161,"url":"http://farm4.staticflickr.com/3640/3359159161_60e718af19.jpg","path":"236/17d/23617d2be4ad29ea42e3b5dc1065cb65.jpg","date":"2009-03-16","year":2009,"month":3,"lon":109.49361,"lat":18.230196,"tags":"%E4%B8%89%E4%BA%9A,%E5%8D%97%E5%B1%B1,%E5%A4%A9%E6%B6%AF%E6%B5%B7%E8%A7%92,%E6%97%85%E8%A1%8C","S2CellId":"3170400000000000","result":1765,"accuracy":0.17545228,"title":"%E9%98%B3%E5%85%89%E9%82%A3%E4%B8%AA%E7%83%88%E5%95%8A%EF%BC%8C%E5%A4%A7%E6%B5%B7%E9%82%A3%E4%B8%AA%E8%93%9D%E9%98%BF"}
{"id":66629213,"url":"http://farm1.staticflickr.com/32/66629213_1f0f2aed9a.jpg","path":"28c/e48/28ce48e41d6bb13a438d5cba6443b95.jpg","date":"2005-11-16","year":2005,"month":11,"lon":109.51172,"lat":18.999802,"tags":"%E8%9C%BB%E8%9C%93","S2CellId":"8620af4000000000","result":7522,"accuracy":0.010304015,"title":"HainanPhoto1315"}
{"id":7043905097,"url":"http://farm6.staticflickr.com/5461/7043905097_a264a70620.jpg","path":"a5f/f5e/a5ff5e753a9e82c3d87fecd1fe3b4.jpg","date":"2012-04-04","year":2012,"month":4,"lon":109.5191,"lat":18.22566,"tags":"instagram+app,iphoneography,lo-fi,square,square+format","S2CellId":"880fb40000000000","result":8155,"accuracy":0.12324803}
{"id":66630530,"url":"http://farm1.staticflickr.com/25/66630530_867dc921f6.jpg","path":"f5b/f40/f5bf4032fa9f7fea5071ec9e5113ef3.jpg","date":"2005-11-18","year":2005,"month":11,"lon":109.51172,"lat":18.999802,"tags":"%E8%9C%BB%E8%9C%93","S2CellId":"4871500000000000","result":5036,"accuracy":0.016825827,"title":"HainanPhoto3375"}
{"id":73709121,"url":"http://farm1.staticflickr.com/34/73709121_59dd2b2c7c.jpg","path":"fe2/afd/fe2afd2f2a38bab8f1edab6eace256.jpg","date":"2005-11-16","year":2005,"month":11,"lon":109.51172,"lat":18.999802,"tags":"%E9%B3%A5,bird","S2CellId":"4860f00000000000","result":4843,"accuracy":0.016703581,"title":"DSC+5261"}
{"id":3510891914,"url":"http://farm4.staticflickr.com/3586/3510891914_29f95df0f7.jpg","path":"15c/0be/15c0bef6e297f3c4dc545bb169d2f9de.jpg","date":"2009-05-03","year":2009,"month":5,"lon":109.234314,"lat":18.310204,"tags":"buddha,buddhism+cultural+tourism+zone,china,guanyin,hainan,nanshan,nanshan+temple,sanya,temple","S2CellId":"3b05000000000000","result":2531,"accuracy":0.047190547,"title":"Sanya+Nanshan+Temple+%3F%3F%3F"}
{"id":66618142,"url":"http://farm1.staticflickr.com/31/66618142_41ea26b70f.jpg","path":"1fe/ca9/1feca98f619bf3e4ffaa847df2d9150.jpg","date":"2005-11-18","year":2005,"month":11,"lon":109.51172,"lat":18.999802,"tags":"%E8%9D%B4%E8%9D%B6","S2CellId":"12a4840000000000","result":693,"accuracy":0.053736478,"title":"HainanPhoto3353"}
{"id":66618209,"url":"http://farm1.staticflickr.com/35/66618209_371af79828.jpg","path":"e34/b0d/e34b0d417fda33e62bfbc2e3aa2478.jpg","date":"2005-11-18","year":2005,"month":11,"lon":109.51172,"lat":18.999802,"tags":"%E8%9D%B4%E8%9D%B6","S2CellId":"47d7700000000000","result":4408,"accuracy":0.009112647,"title":"HainanPhoto3412"}
{"id":3507537360,"url":"http://farm4.staticflickr.com/3320/3507537360_7f36316d80.jpg","path":"efa/fcc/efafcc9061e8f61c3ddff5765281a12.jpg","date":"2009-04-30","year":2009,"month":4,"lon":109.500046,"lat":18.253235,"tags":"china,city,hainan,sanya","S2CellId":"54950b4000000000","result":6249,"accuracy":0.02706403,"title":"Sanya+City"}
{"id":3510102556,"url":"http://farm4.staticflickr.com/3650/3510102556_9226a5ba2a.jpg","path":"526/fc3/526fc329dc57eb5abe7c195b19af5cc0.jpg","date":"2009-05-01","year":2009,"month":5,"lon":109.735565,"lat":18.342794,"tags":"china,hainan,monkey,monkey+island,nanwan,nanwan+monkey+island,sanya","S2CellId":"2dd23d0000000000","result":1544,"accuracy":0.38886523,"title":"Nanwan+Monkey+Island"}
{"id":3504477195,"url":"http://farm4.staticflickr.com/3383/3504477195_59f55b1634.jpg","path":"48d/c3f/48dc3f58247c506792864b57f81e323c.jpg","date":"2009-04-30","year":2009,"month":4,"lon":109.4767,"lat":18.272879,"tags":"china,city,hainan,sanya","S2CellId":"80dccc0000000000","result":7339,"accuracy":0.013481175,"title":"Sanya+City"}
{"id":3506100809,"url":"http://farm4.staticflickr.com/3351/3506100809_87d0318797.jpg","path":"b92/0fb/b920fba5a76af34bbbaa7a4238d5.jpg","date":"2009-05-02","year":2009,"month":5,"lon":109.51618,"lat":18.22291,"tags":"beach,china,dodonghai,hainan,sanya","S2CellId":"85b0000000000000","result":7443,"accuracy":0.09070556,"title":"Sanya+DaDongHai+Beach"}
{"id":3365747778,"url":"http://farm4.staticflickr.com/3033/3365747778_85b01f2061.jpg","path":"148/7a0/1487a045e219c9c3701a22a52582c355.jpg","date":"2009-03-12","year":2009,"month":3,"lon":109.48631,"lat":18.264565,"tags":"china,hainan,sanya","S2CellId":"3568f00000000000","result":2286,"accuracy":0.2982466,"title":"Welcome+to+the+Beach.+Now+please+don%27t+swim","description":"Hainan+Island+is+China%27s+Hawaii%2C+where+sun-deprived+mainlanders+come+down+for+fun.+Unfortunately%2C+none+of+them+seem+to+know+how+to+swim.+Apart+from+some+sunburnt+Russians%2C+few+Chinese+ventured+into+the+water%2C+much+less+out+beyond+knee+deep."}
{"id":3510113402,"url":"http://farm4.staticflickr.com/3664/3510113402_33f1b3e09f.jpg","path":"9b3/64a/9b364a85a6c8772c2e3cb744be53d.jpg","date":"2009-05-01","year":2009,"month":5,"lon":109.735565,"lat":18.342794,"tags":"china,hainan,monkey,monkey+island,nanwan,nanwan+monkey+island,sanya","S2CellId":"2dd23d0000000000","result":1544,"accuracy":0.13556828,"title":"Nanwan+Monkey+Island"}
{"id":3510354850,"url":"http://farm4.staticflickr.com/3629/3510354850_bef9da0efb.jpg","path":"eec/55a/eec55a7b30abf4f78611a2bdb450ecc3.jpg","date":"2009-05-01","year":2009,"month":5,"lon":109.735565,"lat":18.342794,"tags":"china,hainan,monkey,monkey+island,nanwan,nanwan+monkey+island,sanya","S2CellId":"356f000000000000","result":2290,"accuracy":0.17857878,"title":"Nanwan+Monkey+Island"}
{"id":3506166186,"url":"http://farm4.staticflickr.com/3342/3506166186_e6b0ba2e2a.jpg","path":"88d/b7a/88db7a67eadc2f493b2452b6d0d99.jpg","date":"2009-05-02","year":2009,"month":5,"lon":109.500046,"lat":18.253235,"tags":"china,city,hainan,sanya","S2CellId":"346c400000000000","result":2192,"accuracy":0.056551572,"title":"Sanya+City"}
{"id":3510775348,"url":"http://farm4.staticflickr.com/3380/3510775348_24e5156bb3.jpg","path":"b46/a56/b46a56b84bccac89127fa2cb4d116c9c.jpg","date":"2009-05-03","year":2009,"month":5,"lon":109.234314,"lat":18.310204,"tags":"buddha,buddhism+cultural+tourism+zone,china,guanyin,hainan,nanshan,nanshan+temple,sanya,temple","S2CellId":"48760dd000000000","result":5282,"accuracy":0.013071104,"title":"Sanya+Nanshan+Temple+%3F%3F%3F"}
{"id":3506813762,"url":"http://farm4.staticflickr.com/3324/3506813762_973a1a7670.jpg","path":"556/8f2/5568f2b0293867fca23ce1b1aa7c5911.jpg","date":"2009-05-02","year":2009,"month":5,"lon":109.51618,"lat":18.22291,"tags":"beach,china,dodonghai,hainan,sanya","S2CellId":"345d5c0000000000","result":2111,"accuracy":0.01803287,"title":"Sanya+DaDongHai+Beach"}
{"id":3505602001,"url":"http://farm4.staticflickr.com/3542/3505602001_b87f1f5715.jpg","path":"c91/2c7/c912c7cded6fa95a228258ee1d73ec1.jpg","date":"2009-04-29","year":2009,"month":4,"lon":109.4767,"lat":18.272879,"tags":"beach,china,hainan,jones+yan,sanya","S2CellId":"94ce100000000000","result":9697,"accuracy":0.11750719,"title":"Sanya+Beach"}
{"id":73710004,"url":"http://farm1.staticflickr.com/35/73710004_3260975817.jpg","path":"2cb/568/2cb56822be54bfa8f5d3fd83396456a5.jpg","date":"2005-11-18","year":2005,"month":11,"lon":109.51172,"lat":18.999802,"tags":"%E9%B3%A5,bird","S2CellId":"88d0a631cabb5071","result":8563,"accuracy":0.010293619,"title":"HainanPhoto2883"}
{"id":3511754470,"url":"http://farm4.staticflickr.com/3335/3511754470_9194005d1c.jpg","path":"2f9/3b4/2f93b420395dcb7f6c5de41eb117a.jpg","date":"2009-05-04","year":2009,"month":5,"lon":109.234314,"lat":18.310204,"tags":"buddha,buddhism+cultural+tourism+zone,china,guanyin,hainan,nanshan+temple,sanya,temple","S2CellId":"8ea9000000000000","result":9495,"accuracy":0.013696825,"title":"Sanya+Nanshan+Temple+%3F%3F%3F"}
{"id":100457272,"url":"http://farm1.staticflickr.com/36/100457272_682fef5b22.jpg","path":"432/b3a/432b3aa04468dbb7317820929f1e81d4.jpg","date":"2006-01-30","year":2006,"month":1,"lon":109.7596,"lat":18.31444,"tags":"china,hainan,landscape,sanya,sea","S2CellId":"7c00500000000000","result":6879,"accuracy":0.08933259,"title":"Wuzhizhou+Island"}
{"id":3505898088,"url":"http://farm4.staticflickr.com/3549/3505898088_2be2e835c3.jpg","path":"b4a/494/b4a4943f8e7df45d6b851873e629cd.jpg","date":"2009-05-02","year":2009,"month":5,"lon":109.500046,"lat":18.253235,"tags":"china,city,hainan,sanya","S2CellId":"30e2997000000000","result":1664,"accuracy":0.018604537,"title":"Sanya+City"}
{"id":12517714423,"url":"http://farm6.staticflickr.com/5480/12517714423_efd3062535.jpg","path":"538/52a/53852aaefa49bdc4eb5c5c414454c1.jpg","date":"2014-02-14","year":2014,"month":2,"lon":109.49853,"lat":18.261686,"tags":"instagram+app,iphoneography,rise,square,square+format","S2CellId":"3415000000000000","result":2020,"accuracy":0.014749116,"title":"upload"}
{"id":7195817278,"url":"http://farm9.staticflickr.com/8164/7195817278_f2a673cea8.jpg","path":"255/096/255096aabfcdfbd3f9b6dbee839e5fe.jpg","date":"2010-10-29","year":2010,"month":10,"lon":109.36787,"lat":18.289831,"tags":"china,sanya","S2CellId":"0d1ac00000000000","result":238,"accuracy":0.03956254,"title":"Beach+at+Narada+Resort+%26+Spa+in+Sanya"}
{"id":94074778,"url":"http://farm1.staticflickr.com/42/94074778_7d6046ed14.jpg","path":"549/8c8/5498c8124192acc17ac1ed2aeaf57eaf.jpg","date":"2006-01-25","year":2006,"month":1,"lon":109.483734,"lat":18.269457,"tags":"china,china4,hainan,sanya","S2CellId":"14c1000000000000","result":1285,"accuracy":0.053501256,"title":"IMG_0907"}
{"id":3510905788,"url":"http://farm4.staticflickr.com/3226/3510905788_5f71fd0806.jpg","path":"395/d78/395d787b77dcd2865a4f17376d3fdfa2.jpg","date":"2009-05-03","year":2009,"month":5,"lon":109.234314,"lat":18.310204,"tags":"buddha,buddhism+cultural+tourism+zone,china,guanyin,hainan,nanshan,nanshan+temple,ryan+chen,sanya,temple","S2CellId":"2e69f70000000000","result":1574,"accuracy":0.06453467,"title":"Sanya+Nanshan+Temple+%3F%3F%3F"}
{"id":3507486212,"url":"http://farm4.staticflickr.com/3406/3507486212_c0637c8f69.jpg","path":"5b8/e7d/5b8e7d47881019796383b53349946f.jpg","date":"2009-04-30","year":2009,"month":4,"lon":109.500046,"lat":18.253235,"tags":"china,city,hainan,sanya","S2CellId":"39eb190000000000","result":2494,"accuracy":0.024000285,"title":"Sanya+City"}
{"id":3510328216,"url":"http://farm4.staticflickr.com/3334/3510328216_f0cd4f85e6.jpg","path":"d39/139/d39139a49b55c5e5982b4a408544d347.jpg","date":"2009-05-01","year":2009,"month":5,"lon":109.735565,"lat":18.342794,"tags":"china,hainan,monkey,monkey+island,nanwan,nanwan+monkey+island,sanya","S2CellId":"2e69f70000000000","result":1574,"accuracy":0.029571274,"title":"Nanwan+Monkey+Island"}
{"id":3512390474,"url":"http://farm4.staticflickr.com/3328/3512390474_51f544b3d5.jpg","path":"49c/4b8/49c4b889f9547c2435fd4819f05b43a5.jpg","date":"2009-05-04","year":2009,"month":5,"lon":109.234314,"lat":18.310204,"tags":"buddha,buddhism+cultural+tourism+zone,china,guanyin,hainan,nanshan+temple,sanya,temple","S2CellId":"35f052f000000000","result":2371,"accuracy":0.06664554,"title":"Sanya+Nanshan+Temple"}
{"id":6531389247,"url":"http://farm8.staticflickr.com/7153/6531389247_c915c3070c.jpg","path":"c3b/793/c3b793913e63d1a9bcba977c80e82579.jpg","date":"2011-11-14","year":2011,"month":11,"lon":109.63978,"lat":18.23359,"tags":"canon,china,hainan,my+honeymoon,pond,powershot,pullman,resort,s95,sanya,yalong+bay","S2CellId":"3170400000000000","result":1765,"accuracy":0.13025723,"title":"IMG_0488","description":"The+lagoon+at+the+Pullman+Yalong+Bay."}
{"id":3506063144,"url":"http://farm4.staticflickr.com/3619/3506063144_f43496442a.jpg","path":"baf/bd2/bafbd2549b29905d46bc71fa4059bd62.jpg","date":"2009-05-02","year":2009,"month":5,"lon":109.4767,"lat":18.272879,"tags":"beach,china,hainan,sanya","S2CellId":"94ce100000000000","result":9697,"accuracy":0.18509306,"title":"Sanya+Beach"}
{"id":3507309607,"url":"http://farm4.staticflickr.com/3354/3507309607_b0e994d7ee.jpg","path":"93f/964/93f964c6df96471c7dddaccf6555.jpg","date":"2009-05-03","year":2009,"month":5,"lon":109.500046,"lat":18.253235,"tags":"china,city,hainan,sanya","S2CellId":"88fd000000000000","result":8754,"accuracy":0.002467881,"title":"Sanya+City"}
{"id":94601059,"url":"http://farm1.staticflickr.com/12/94601059_2d5645d505.jpg","path":"fe6/424/fe6424d4cd9bf6ad9045b9f43618f4c1.jpg","date":"2006-01-28","year":2006,"month":1,"lon":109.483734,"lat":18.269457,"tags":"china,china4,hainan,sanya","S2CellId":"8f57000000000000","result":9530,"accuracy":0.017782614,"title":"IMG_7826"}
{"id":3359171091,"url":"http://farm4.staticflickr.com/3024/3359171091_b3886bf8ba.jpg","path":"641/768/641768a32209cd8e0fbab6ebd1e265.jpg","date":"2009-03-16","year":2009,"month":3,"lon":109.49361,"lat":18.230196,"tags":"%E4%B8%89%E4%BA%9A,%E5%8D%97%E5%B1%B1,%E5%A4%A9%E6%B6%AF%E6%B5%B7%E8%A7%92,%E6%97%85%E8%A1%8C","S2CellId":"3102c00000000000","result":1683,"accuracy":0.07561965,"title":"%E5%8D%97%E5%B1%B1%E5%AF%BA%EF%BC%8C%E6%B3%A8%E6%84%8F%E4%B8%AD%E9%97%B4%E5%81%8F%E5%8F%B3%E7%9A%84%E9%82%A3%E6%A3%B5%E6%A0%91%EF%BC%8C%E6%98%AF%E5%8D%83%E5%B9%B4%E4%B8%8D%E8%80%81%E6%9D%BE%EF%BC%8C%E6%B1%9F%E6%B3%BD%E6%B0%91%E6%A0%BD%E7%9A%84%E5%93%A6%EF%BC%8C%E6%8D%AE%E8%AF%B4%E5%8F%AF%E4%BB%A5%E6%B4%BB6000%E5%B9%B4"}
{"id":66629783,"url":"http://farm1.staticflickr.com/27/66629783_2bf501a2ff.jpg","path":"617/1e5/6171e5f6c84ea6e68dbbd98a5fb22c71.jpg","date":"2005-11-16","year":2005,"month":11,"lon":109.51172,"lat":18.999802,"tags":"%E8%9C%BB%E8%9C%93","S2CellId":"8620af4000000000","result":7522,"accuracy":0.015677365,"title":"HainanPhoto1959"}
{"id":3510220784,"url":"http://farm4.staticflickr.com/3366/3510220784_09ca3fa8b9.jpg","path":"1cd/100/1cd100886b68c18f3f587bc45e381.jpg","date":"2009-05-01","year":2009,"month":5,"lon":109.735565,"lat":18.342794,"tags":"china,hainan,monkey,monkey+island,nanwan,nanwan+monkey+island,sanya","S2CellId":"310b000000000000","result":1702,"accuracy":0.04219102,"title":"Nanwan+Monkey+Island"}
