{"id":8622022398,"url":"http://farm9.staticflickr.com/8109/8622022398_f08a50a621.jpg","path":"f35/195/f351957213da1ddc0193c3c23e71898.jpg","date":"2013-03-28","year":2013,"month":3,"lon":79.861176,"lat":6.918545,"tags":"apiit,colombo,journalism,march,media,meetup,refresh,refreshcolombo,social,srilanka,tech","S2CellId":"935a3b4000000000","result":9656,"accuracy":0.061331753,"title":"Mili+%40+RC+March+Meetup"}
{"id":6916630584,"url":"http://farm6.staticflickr.com/5197/6916630584_9263a78211.jpg","path":"838/e61/838e6136fba648ece4e4bc612c2d9.jpg","date":"2011-02-01","year":2011,"month":2,"lon":79.85207,"lat":6.918769,"tags":"%5Bbuddhist,colombo,festival%5D,full,http%3A%2F%2Fmalbuk.tumblr.com%2F,lanka,moon,navam,poya,sri","S2CellId":"48761c4000000000","result":5333,"accuracy":0.585955,"title":"Sri+Lanka+Colombo+Navam+Full+Moon+Poya+%5BBuddhist+Festival%5D","description":"Sri+Lanka+Colombo+Navam+Full+Moon+Poya+%5BBuddhist+Festival%5D"}
{"id":6221128547,"url":"http://farm7.staticflickr.com/6048/6221128547_93d9fd8315.jpg","path":"168/6d6/1686d633a0d81872dd9feff3ecf7fde.jpg","date":"2010-12-25","year":2010,"month":12,"lon":79.86511,"lat":6.951646,"tags":"sri+lanka,temple","S2CellId":"3bab000000000000","result":2541,"accuracy":0.050290186,"title":"Temple"}
{"id":6162209198,"url":"http://farm7.staticflickr.com/6153/6162209198_4b9084fdf9.jpg","path":"273/7ca/2737cab9b1c85e9b13fb3d0d2263bae.jpg","date":"2011-08-16","year":2011,"month":8,"lon":79.878845,"lat":6.945512,"tags":"food,people,sri+lanka,train","S2CellId":"48761ca530000000","result":5338,"accuracy":0.046894398,"title":"DSC00182-ap","description":"Local+food+sell+on+the+train%2C+Sri+Lanka"}
{"id":6782681613,"url":"http://farm8.staticflickr.com/7156/6782681613_c33b1352ee.jpg","path":"d59/8a8/d598a88a7c107c2e5a4aaee55d3e1e9f.jpg","date":"2012-01-29","year":2012,"month":1,"lon":79.90148,"lat":6.997151,"tags":"bird,birds,branch,coconut,nest,srilanka,tree","S2CellId":"88d0a631cabb5071","result":8563,"accuracy":0.054840546,"title":"Indian+Pond+Heron","description":"Caught+from+the+backyard.."}
{"id":473689237,"url":"http://farm1.staticflickr.com/167/473689237_b628dd37b2.jpg","path":"579/c78/579c78c572e9baf602437a1931e9952.jpg","date":"2007-04-26","year":2007,"month":4,"lon":79.85601,"lat":6.931709,"tags":"beira+lake,bridge,colombo,hotel,plants","S2CellId":"31f0000000000000","result":1885,"accuracy":0.044095132,"title":"Beira+Lake"}
{"id":294334905,"url":"http://farm1.staticflickr.com/111/294334905_d98e51222d.jpg","path":"a29/49c/a2949c313464971b3fa7555e7b30795f.jpg","date":"2006-11-11","year":2006,"month":11,"lon":79.84589,"lat":6.933072,"tags":"+moir,dazzle,lanka,sri,sri+lanka","S2CellId":"85cfd00000000000","result":7456,"accuracy":0.025517581,"title":"baila-girls","description":"The+Baila+Girls+-+%22Dazzle%22+%2706+%5BA+Moir+Production%5D"}
{"id":6568480713,"url":"http://farm8.staticflickr.com/7162/6568480713_88bc1da1d9.jpg","path":"b85/261/b852610a19176389f758a47b4e6cde5.jpg","date":"2011-12-25","year":2011,"month":12,"lon":79.93206,"lat":6.927278,"tags":"gaurika,gaurikaw,purple-rumped,purple-rumped+sunbird+%28leptocoma+zeylonica%29,sun+birds,sunbird","S2CellId":"89c3700000000000","result":9120,"accuracy":0.02028147,"title":"Purple-rumped+Sunbird+%28Leptocoma+zeylonica%29"}
{"id":4447084311,"url":"http://farm5.staticflickr.com/4040/4447084311_cdf1d3abcf.jpg","path":"7a7/2f5/7a72f5612317d4adf09248fe9cb18dc0.jpg","date":"2010-02-14","year":2010,"month":2,"lon":79.8448,"lat":6.923242,"tags":"beach,colombo,galle+face,sri+lanka","S2CellId":"3bc4000000000000","result":2563,"accuracy":0.10795169,"title":"Want+a+pony+ride%3F"}
{"id":11398552345,"url":"http://farm8.staticflickr.com/7311/11398552345_dfc3b9b6bf.jpg","path":"7a8/c5a/7a8c5a5cb3fa57da94a08bd4e87fb18d.jpg","date":"2013-12-15","year":2013,"month":12,"lon":79.842445,"lat":6.933083,"tags":"2013,cnr,cnr2013,colombo,daniel,f1,formula1,fort,galleface,night,race,rb7,redbull,redbullracing,ricciardo,srilanka","S2CellId":"48771c4000000000","result":5410,"accuracy":0.12122417,"title":"Daniel+Ricciardo+having+a+chat+with+his+pit+crew"}
{"id":9642813692,"url":"http://farm3.staticflickr.com/2850/9642813692_c35297ff83.jpg","path":"f91/16c/f9116cc23996aca6cbb4d58c44b6f72.jpg","date":"2013-08-31","year":2013,"month":8,"lon":79.87301,"lat":6.856192,"tags":"bengal+tiger+%28panthera+tigris+tigris%29,dehiwala+zoom,gaurika,gaurikaw,keep+wildlife+in+wild,national+zoological+gardens,sri+lanka,zoo+animals","S2CellId":"47bd0e9000000000","result":4086,"accuracy":0.048663698,"title":"Bengal+tiger+%28Panthera+tigris+tigris%29"}
{"id":8388020988,"url":"http://farm9.staticflickr.com/8504/8388020988_111600147f.jpg","path":"5b4/e92/5b4e925da279c6d7c7c694275cab2df1.jpg","date":"2012-12-23","year":2012,"month":12,"lon":79.845726,"lat":6.920213,"tags":"camille-yunha,colombo,sri+lanka,western+province","S2CellId":"3468b00000000000","result":2163,"accuracy":0.04353365,"title":"Sunset"}
{"id":8518786382,"url":"http://farm9.staticflickr.com/8372/8518786382_a1e550b6fd.jpg","path":"f7c/9a5/f7c9a5bfafb49590ae1f70994093763f.jpg","date":"2013-02-23","year":2013,"month":2,"lon":79.848976,"lat":6.934606,"tags":"ceylon,colombo,sri+lanka","S2CellId":"12a4a3c000000000","result":746,"accuracy":0.4464141,"title":"Colombo+-+Galle+Face+Green","description":"Sri+Lanka+-+Colombo+2013"}
{"id":2684050093,"url":"http://farm4.staticflickr.com/3141/2684050093_2e1dae937b.jpg","path":"da6/9a3/da69a370ee84da3cce2ba6da4d1d976c.jpg","date":"2007-07-27","year":2007,"month":7,"lon":79.87198,"lat":6.849651,"tags":"animal,colombo,dehiwala+zoo,park,sri+lanka,zoo+dehiwala+zoo","S2CellId":"94ce59f000000000","result":9723,"accuracy":0.0037073907,"title":"DSC00028","description":"Dehiwala+Zoo"}
{"id":4979124843,"url":"http://farm5.staticflickr.com/4104/4979124843_51c249d79e.jpg","path":"dcf/3a8/dcf3a8f54d52c07f6f10c87a79a9d38.jpg","date":"2010-01-22","year":2010,"month":1,"lon":79.96811,"lat":6.854508,"tags":"butterfly,close+up,nature,nigger,sri+lanka,wildlife","S2CellId":"4cc91d0000000000","result":5899,"accuracy":0.029268635,"title":"Nigger"}
{"id":6872244428,"url":"http://farm8.staticflickr.com/7137/6872244428_b2aa939699.jpg","path":"269/056/2690567850eb7325ada429594d44708c.jpg","date":"2012-03-25","year":2012,"month":3,"lon":79.947296,"lat":6.887401,"tags":"gaurika,gaurikaw,talangama+wetlands","S2CellId":"12a49d0000000000","result":704,"accuracy":0.08759593,"title":"Purple+Swamphen+%28Porphyrio+porphyrio%29+%40+Talangama+Wetlands"}
{"id":6872233316,"url":"http://farm8.staticflickr.com/7099/6872233316_f893f4555a.jpg","path":"bab/a11/baba1119e0c67399e2eda063b4ba68e2.jpg","date":"2012-03-25","year":2012,"month":3,"lon":79.947296,"lat":6.887401,"tags":"gaurika,gaurikaw,talangama+wetlands","S2CellId":"12a49d0000000000","result":704,"accuracy":0.030601798,"title":"Indian+Pond+Heron+%40+Talangama+Wetlands"}
{"id":5189702434,"url":"http://farm5.staticflickr.com/4131/5189702434_eaa55a8edf.jpg","path":"bb5/26d/bb526df258673de66afaae5e516dece4.jpg","date":"2010-11-18","year":2010,"month":11,"lon":79.85514,"lat":6.901211,"tags":"bibble5,colombo,markus+spring,springm,sri+lanka,western+province","S2CellId":"8819ad0000000000","result":8204,"accuracy":0.013365394,"title":"Rover","description":"Duplication+Road%2C+Colombo"}
{"id":6124071013,"url":"http://farm7.staticflickr.com/6086/6124071013_6e3bd2af47.jpg","path":"fe5/088/fe5088e44eecb2c2d3b848b5489ee525.jpg","date":"2011-09-07","year":2011,"month":9,"lon":79.8833,"lat":6.8667,"tags":"bird,birds,lanka,nest,old,sri","S2CellId":"1458300000000000","result":1202,"accuracy":0.016679658,"title":"Old+Nest","description":"%3Ca+href%3D%22http%3A%2F%2Fkesara.lk%2F%22+rel%3D%22nofollow%22%3Ekesara.lk%3C%2Fa%3E"}
{"id":8019017139,"url":"http://farm9.staticflickr.com/8439/8019017139_5a15c32155.jpg","path":"985/75c/98575cef527200e974080ad14917.jpg","date":"2012-09-23","year":2012,"month":9,"lon":79.87228,"lat":6.940006,"tags":"%23engvsind,colombo,cricket,england,icc,india,rps,srilanka,t20,worldcup,wt20","S2CellId":"3442a87000000000","result":2035,"accuracy":0.0657513,"title":"Graeme+Swann+bowling"}
{"id":2818817892,"url":"http://farm4.staticflickr.com/3216/2818817892_10d2346f15.jpg","path":"491/d76/491d76f1f2b18f4a2ff7f4ca1dc28.jpg","date":"2008-08-16","year":2008,"month":8,"lon":79.899445,"lat":6.794512,"tags":"aiesec,induction,recruitment","S2CellId":"935a3b4000000000","result":9656,"accuracy":0.022098128,"title":"IMG_0157"}
{"id":4296821877,"url":"http://farm3.staticflickr.com/2686/4296821877_d1e3f759e7.jpg","path":"614/41c/61441c7bf48e7e821c44c26e7b89c5f9.jpg","date":"2009-12-13","year":2009,"month":12,"lon":79.85666,"lat":6.91716,"tags":"buda,buddha,colombo,sri+lanka","S2CellId":"4772400000000000","result":3388,"accuracy":0.010658614,"title":"Food+for+thought"}
{"id":2684413331,"url":"http://farm4.staticflickr.com/3295/2684413331_d22bd40680.jpg","path":"40e/040/40e0407e8b91faf46d92b572f64720.jpg","date":"2007-07-27","year":2007,"month":7,"lon":79.87198,"lat":6.849651,"tags":"animal,colombo,dehiwala+zoo,park,sri+lanka,zoo+dehiwala+zoo","S2CellId":"a9d5c00000000000","result":9945,"accuracy":0.026808007,"title":"DSC00080","description":"Dehiwala+Zoo"}
{"id":473670890,"url":"http://farm1.staticflickr.com/200/473670890_c1e2186f63.jpg","path":"627/79c/62779cfc42adac7afb7d394a9e1d80.jpg","date":"2007-04-25","year":2007,"month":4,"lon":79.85601,"lat":6.931709,"tags":"ceylon,colombo,engineers,entrance,institution,simple","S2CellId":"7100000000000000","result":6857,"accuracy":0.047059137,"title":"The+Institution+of+Engineers"}
{"id":524530561,"url":"http://farm1.staticflickr.com/198/524530561_7a35c2849e.jpg","path":"ce3/7ca/ce37cae64795da33fa8ad5bff49c93e4.jpg","date":"2004-10-14","year":2004,"month":10,"lon":79.85086,"lat":6.933754,"tags":"eliot,lanka,sri+lanka","S2CellId":"60013c0000000000","result":6413,"accuracy":0.02134532,"title":"DSCN1066"}
{"id":5928620457,"url":"http://farm7.staticflickr.com/6121/5928620457_85ce1d44ba.jpg","path":"c42/b62/c42b629fe9e316afb1f72ebbdda0a272.jpg","date":"2011-07-09","year":2011,"month":7,"lon":79.891716,"lat":6.887486,"tags":"365,365%3A+the+2011,365%3A2011,animal,d90,dog,nikon,peruma,pet,project365,shehan,shehan+peruma","S2CellId":"6b13400000000000","result":6709,"accuracy":0.032185804,"title":"day+190%2F365","description":"taken%3A+2011.07.09"}
{"id":6916769694,"url":"http://farm6.staticflickr.com/5159/6916769694_9f18b81c20.jpg","path":"717/f9d/717f9d1a782c3859a5422ccc4bec6483.jpg","date":"2011-02-01","year":2011,"month":2,"lon":79.85207,"lat":6.918769,"tags":"%5Bbuddhist,colombo,festival%5D,full,http%3A%2F%2Fmalbuk.tumblr.com%2F,lanka,moon,navam,poya,sri","S2CellId":"00997f1000000000","result":15,"accuracy":0.06836346,"title":"Sri+Lanka+Colombo+Navam+Full+Moon+Poya+%5BBuddhist+Festival%5D","description":"Sri+Lanka+Colombo+Navam+Full+Moon+Poya+%5BBuddhist+Festival%5D"}
{"id":286964678,"url":"http://farm1.staticflickr.com/116/286964678_41fd7a50ab.jpg","path":"985/a42/985a42362b9aeff32b9dc83d3aa9d1c.jpg","date":"2004-12-15","year":2004,"month":12,"lon":79.961754,"lat":6.56918,"tags":"sri+lanka","S2CellId":"6f00000000000000","result":6856,"accuracy":0.050055485,"title":"Sri+Lanka+-+164.jpg"}
{"id":4792498734,"url":"http://farm5.staticflickr.com/4077/4792498734_6c2346621e.jpg","path":"ded/6b2/ded6b2479b2fa27487994e8fffcc8eb.jpg","date":"2004-03-13","year":2004,"month":3,"lon":79.85893,"lat":6.928301,"tags":"sri+lanka","S2CellId":"310951c000000000","result":1695,"accuracy":0.10417422,"title":"SriLanka+Trip+Mar+2004-109"}
{"id":5742753843,"url":"http://farm4.staticflickr.com/3456/5742753843_880096c174.jpg","path":"bf9/e72/bf9e72d08531c48f287dc98a74c8ca28.jpg","date":"2011-05-17","year":2011,"month":5,"lon":79.94802,"lat":6.886549,"tags":"birds,close+up,common+kingfisher,kingfisher,lake,sri+lanka,tank,thalangama","S2CellId":"3bbd000000000000","result":2558,"accuracy":0.017607518,"title":"Hunter","description":"%3Ca+href%3D%22http%3A%2F%2Fwww.9thstarimages.com%22+rel%3D%22nofollow%22%3Ewww.9thstarimages.com%3C%2Fa%3E"}
{"id":8216571171,"url":"http://farm9.staticflickr.com/8205/8216571171_5149ac700f.jpg","path":"a22/427/a22427d05ce77fd0db912c83cfb2c0b0.jpg","date":"2012-11-24","year":2012,"month":11,"lon":79.87419,"lat":6.857299,"tags":"animal,cat,colombo,dehiwela,leopard,srilanka,zoo","S2CellId":"48746c0000000000","result":5139,"accuracy":0.023262007,"title":"Leopard"}
{"id":5584626753,"url":"http://farm6.staticflickr.com/5267/5584626753_b9445ec002.jpg","path":"5e8/fbd/5e8fbdef94dc312ba469d1beca83f72.jpg","date":"2011-04-02","year":2011,"month":4,"lon":79.86099,"lat":6.939718,"tags":"colombo,dehiwala,sri+lanka","S2CellId":"1458300000000000","result":1202,"accuracy":0.012677056,"title":"cats+n+dogs+-+eating+together."}
{"id":11756010346,"url":"http://farm4.staticflickr.com/3726/11756010346_a7f875a1a8.jpg","path":"fbb/24e/fbb24e74d4c55985dfb9c286d509162.jpg","date":"2014-01-04","year":2014,"month":1,"lon":79.86266,"lat":6.893952,"tags":"colombo,dialog,dialogaxiata,dialogrugby,ground,kandy,league,park,police,policepark,rugby,srilanka","S2CellId":"9669000000000000","result":9899,"accuracy":0.052836657,"title":"Police+SC+Vs+Kandy+SC+-+Rugby+League"}
{"id":5461116659,"url":"http://farm6.staticflickr.com/5257/5461116659_a207c0a5b1.jpg","path":"78a/567/78a56785bc62d0ebee822ac311fd4e70.jpg","date":"2011-02-20","year":2011,"month":2,"lon":79.92485,"lat":6.950794,"tags":"boo,boo+tree,kelaniya,kelaniya+boo+tree","S2CellId":"07af000000000000","result":114,"accuracy":0.012331685,"title":"New+Branch+of+the+Boo+Tree","description":"Most+religious+place+near+Colombo%0A%0A%3Ca+href%3D%22http%3A%2F%2Fwww.kelaniyatemple.com%22+rel%3D%22nofollow%22%3Ewww.kelaniyatemple.com%3C%2Fa%3E"}
{"id":8505148605,"url":"http://farm9.staticflickr.com/8526/8505148605_85c5e8b8d2.jpg","path":"147/761/1477618fd2b8f8cfafcb081586af1eb.jpg","date":"2013-02-20","year":2013,"month":2,"lon":79.891075,"lat":6.89061,"tags":"beard,closeup,d90,face,human,male,manu,nikon,peruma,portrait,project365,shehan,shehan+peruma,stubble","S2CellId":"3755b00000000000","result":2431,"accuracy":0.0071369573,"title":"day+51%2F365","description":"taken%3A+2013.02.20"}
{"id":5453259189,"url":"http://farm6.staticflickr.com/5293/5453259189_2c8f35deb2.jpg","path":"731/f55/731f5515d9bcf90f63034fa6baf2296.jpg","date":"2011-02-03","year":2011,"month":2,"lon":79.870865,"lat":6.989303,"tags":"%E0%B8%99%E0%B8%81%E0%B8%81%E0%B8%A3%E0%B8%B0%E0%B9%81%E0%B8%95%E0%B9%81%E0%B8%95%E0%B9%89%E0%B9%81%E0%B8%A7%E0%B9%89%E0%B8%94,%E3%82%A4%E3%83%B3%E3%83%89%E3%83%88%E3%82%B5%E3%82%AB%E3%82%B2%E3%83%AA,%E8%82%89%E5%9E%82%E9%BA%A6%E9%B8%A1rotlappenkiebitz,allkatti,avefr%C3%ADa+india,charadriidae,charadriiformes,pavoncella+indiana+dalle+caruncole+rosse,rapang+minta+duit,red-wattled+lapwing,te+v%E1%BA%B7t,tringa+indica,trulek+gelambir-merah,vanellus+indicus,vanellus+indicus+lankae,vanneau+indien","S2CellId":"6ad1000000000000","result":6610,"accuracy":0.012019334,"title":"Red-wattled+Lapwing+%28Vanellus+indicus%29","description":"Red-wattled+Lapwing+%0AVanellus+indicus%0AVanellus+indicus+lankae%0ARanwelli%2C+Waikkal%2C+Sri+Lanka%0A3rd.+February+2011%0A%0ADistribution%3A+%3Ca+href%3D%22http%3A%2F%2Favibase.bsc-eoc.org%2Fspecies.jsp%3Flang%3DEN%26avibaseid%3DB4B5DE1BB434B92D%26sec%3Dmap%26zoom%3Dasi%22+rel%3D%22nofollow%22%3Eavibase.bsc-eoc.org%2Fspecies.jsp%3Flang%3DEN%26avibaseid%3DB4B...%3C%2Fa%3E%0A%0A+690V7625"}
{"id":12233357265,"url":"http://farm4.staticflickr.com/3755/12233357265_63b295316a.jpg","path":"e65/782/e65782d1d87bd3b77785f576d0c6e438.jpg","date":"2014-01-31","year":2014,"month":1,"lon":79.86057,"lat":6.906358,"tags":"art,biennale,cab,colombo,groundviews","S2CellId":"47e61d1d00000000","result":4562,"accuracy":0.018660499,"title":"IMG_7203"}
{"id":4380590837,"url":"http://farm5.staticflickr.com/4018/4380590837_9d457d5896.jpg","path":"6b5/597/6b55976a950823255921757902b3e2.jpg","date":"2010-02-04","year":2010,"month":2,"lon":79.874306,"lat":6.865081,"tags":"bushed,bushy,canon+7d,cat,ears,feline,fur,kitten,kittenmagazine,kitty,paws,tail,whiskers","S2CellId":"345d5c0000000000","result":2111,"accuracy":0.016465,"title":"Bushed","description":"%C2%A9+Daran+Kandasamy"}
{"id":7152948629,"url":"http://farm6.staticflickr.com/5349/7152948629_4b52aeaf59.jpg","path":"8d5/cae/8d5caeb788b545ad4c3b288eeb4c83a5.jpg","date":"2012-03-29","year":2012,"month":3,"lon":79.85807,"lat":6.928812,"tags":"colombo,pettah,sri+lanka","S2CellId":"80e9130000000000","result":7401,"accuracy":0.043387488,"title":"Morning+in+Colombo","description":"Not+sure+which+mosque+is+it%2C+it+was+somewhere+in+Pettah+%28bazzar+part+of+the+town%29."}
{"id":6916500498,"url":"http://farm8.staticflickr.com/7091/6916500498_1c98e23379.jpg","path":"7ea/e4d/7eae4da1dccdb4295a09ea43a59f368.jpg","date":"2011-02-01","year":2011,"month":2,"lon":79.853096,"lat":6.916468,"tags":"%5Bbuddhist,caparisoned,colombo,elephant,festival%5D,full,http%3A%2F%2Fmalbuk.tumblr.com%2F,lanka,moon,navam,poya,sri","S2CellId":"00997f1000000000","result":15,"accuracy":0.031607453,"title":"Caparisoned+Elephant+Sri+Lanka+Colombo+Navam+Full+Moon+Poya+%5BBuddhist+Festival%5D","description":"Sri+Lanka+Colombo+Navam+Full+Moon+Poya+%5BBuddhist+Festival%5D"}
{"id":5645128671,"url":"http://farm6.staticflickr.com/5229/5645128671_695b83a8a9.jpg","path":"228/9c0/2289c071874ceebe5ab7fc869ad6f4cc.jpg","date":"2011-04-08","year":2011,"month":4,"lon":79.974976,"lat":6.503628,"tags":"boudha,boudha+couch%C3%A9,sri+lnaka","S2CellId":"3afc000000000000","result":2528,"accuracy":0.30816266,"title":"Boudhas+au+Sri+Lanka","description":"Une+religion+omni+pr%C3%A9sente+%C3%A0+tous+les+coins+de+rues"}
{"id":6839810475,"url":"http://farm8.staticflickr.com/7021/6839810475_e2d5645601.jpg","path":"5f4/78b/5f478be8446e5de378fe3c6f71ead.jpg","date":"2012-02-07","year":2012,"month":2,"lon":79.85536,"lat":6.916899,"tags":"buddha,buddhism,colombo,float,gangrama,nawammaha,parade,perahera","S2CellId":"88e7809f00000000","result":8683,"accuracy":0.17219973,"title":"LED+Buddha+Float"}
{"id":267771722,"url":"http://farm1.staticflickr.com/103/267771722_2e16dea231.jpg","path":"922/de7/922de7a0886ea33136c4dc45c934b95e.jpg","date":"2006-09-11","year":2006,"month":9,"lon":79.84743,"lat":6.931539,"tags":"city+hall,colombo,grass,park,sri+lanka,sri+lanka+2006,town+hall,vihara+maha+devi,vihara+maha+devi+park,walkway","S2CellId":"3baf400000000000","result":2553,"accuracy":0.17439005,"title":"2006_09_11+022","description":"September+11%2C+2006+-+Jay+and+I+went+to+Colombo+just+to+walk+around+and+cash+a+few+traveller%27s+cheques.%0A%0A%3Ca+href%3D%22http%3A%2F%2Fwww.flickr.com%2Fphotos%2Fdennissylvesterhurd%2F215546484%2F%22%3EEven+twenty+years+before+this+shot%3C%2Fa%3E%2C+with+an+old+film+camera%2C+it+was+difficult+to+make+out+the+Town+Hall+against+a+cloudy+sky.%0A%0A%3Ca+href%3D%22http%3A%2F%2Fwww.dennissylvesterhurd.com%2Fblog%2F2006_09_10_vault.html%23116041420848269819%22+target%3D%22_new%22%3EHere%27s+the+blog+entry%3C%2Fa%3E+for+this+day."}
{"id":6333230236,"url":"http://farm7.staticflickr.com/6213/6333230236_dd17b0f87c.jpg","path":"8d1/0bc/8d10bc24cf2539383c4f70d4a34a6c0.jpg","date":"2011-11-11","year":2011,"month":11,"lon":79.9892,"lat":6.4777,"tags":"alone,android,asia,beach,beauty,beruwala,blue,breeze,camera+phone,cell+phone,clouds,contemplate,desire,evening,guy,holiday,htc,human,island,landscape,lanka,light,lonely,male,man,mobile+phone,person,photography,rocks,scenery,sea,shore,sky,sri+lanka,standing,sun,sunset,tropics,view,water,waves","S2CellId":"3470400000000000","result":2237,"accuracy":0.17702225,"title":"Contemplation","description":"%C2%A9+Daran+Kandasamy%0A%0AShot+with+a+HTC+Desire+running+Android+OS"}
