{"id":489117665,"url":"http://farm1.staticflickr.com/211/489117665_2238e26dca.jpg","path":"ffc/727/ffc727ea13481d21557b843277da1e2e.jpg","date":"2007-05-07","year":2007,"month":5,"lon":-80.7411,"lat":39.923035,"tags":"police","S2CellId":"89c245c000000000","result":8940,"accuracy":0.07918032,"title":"Mock+Riot+2","description":"Clark+County%2C+Indiana%2C+deputies+take+down+rioting+inmates+in+a+scenario+at+the+Mock+Riot+in+Moundsville%2C+WV.+On+May+7%2C+2007."}
{"id":84506542,"url":"http://farm1.staticflickr.com/36/84506542_a84de8e2c8.jpg","path":"f6e/dd2/f6edd254866ade1cfc4f4c6871bcc6.jpg","date":"2006-01-09","year":2006,"month":1,"lon":-80.04261,"lat":39.147038,"tags":"2006,african+violet,buttersweet,color,flower,flowerheart,gesneriaceae,macro,purple,white,yellow","S2CellId":"3be7b00000000000","result":2572,"accuracy":0.01045764,"title":"violet"}
{"id":652242761,"url":"http://farm2.staticflickr.com/1353/652242761_9c55ef50ec.jpg","path":"c0e/02a/c0e02a68714e9a8ad3cc852dd4bffc5.jpg","date":"2007-06-24","year":2007,"month":6,"lon":-80.13874,"lat":39.48143,"tags":"2007,bridge,fairmont,fairmontwv,fuji,night,nighttime,s5700,s700,shuttersparks,technorati,west+virginia,wv","S2CellId":"882b500000000000","result":8261,"accuracy":0.012063365,"title":"Mollohan+Bridge+at+Night%2C+Fairmont%2C+WV+4"}
{"id":43662580,"url":"http://farm1.staticflickr.com/26/43662580_567e39ec05.jpg","path":"a32/4ad/a324ad2529b9f5c5b1762c4f7918f44f.jpg","date":"2004-11-13","year":2004,"month":11,"lon":-80.04261,"lat":39.147038,"tags":"beading,buttersweet,crazy+quilt,embellishment,embroidery,hand+embroidery","S2CellId":"6d318a3000000000","result":6816,"accuracy":0.043865222,"title":"pink+black+%26+silver"}
{"id":261763650,"url":"http://farm1.staticflickr.com/81/261763650_fd279f806b.jpg","path":"84a/eb8/84aeb89c01bf9504bf31dd1d4d4e71.jpg","date":"2006-10-05","year":2006,"month":10,"lon":-80.740585,"lat":39.915527,"tags":"farm,path,road","S2CellId":"487bb30000000000","result":5594,"accuracy":0.011478379,"title":"Old+Farm+Road","description":"An+old+farm+road"}
{"id":9765420263,"url":"http://farm3.staticflickr.com/2827/9765420263_bba6de7835.jpg","path":"c5b/911/c5b91120e6fa51fa01c6c223f577fca.jpg","date":"2013-09-14","year":2013,"month":9,"lon":-80.60811,"lat":39.956497,"tags":"festival+of+colors,holi,moundsville,palace+of+gold","S2CellId":"8084100000000000","result":6905,"accuracy":0.09116501,"title":"IMG_1454"}
{"id":5838483829,"url":"http://farm6.staticflickr.com/5192/5838483829_d20a0c0f68.jpg","path":"d64/eef/d64eefcc22b168cf91b61c8d0b520a2.jpg","date":"2011-06-10","year":2011,"month":6,"lon":-80.55678,"lat":39.281914,"tags":"harrison+county,salem,west+virginia,wv","S2CellId":"4709400000000000","result":3131,"accuracy":0.032199427,"title":"Salem+Depot","description":"Salem%2C+Harrison+County%2C+West+Virginia"}
{"id":56367082,"url":"http://farm1.staticflickr.com/29/56367082_e2a63da3fa.jpg","path":"9ef/a9c/9efa9c877fb59de1a64456d1263a3b5.jpg","date":"2005-10-26","year":2005,"month":10,"lon":-80.04261,"lat":39.147038,"tags":"2005,autumn,buttersweet,catchycolor,color,fall,green,ilovenature,leaves,macro,maple,nature,red,tree,yellow","S2CellId":"4871740000000000","result":5039,"accuracy":0.0072086,"title":"maple+leaves"}
{"id":2630017600,"url":"http://farm4.staticflickr.com/3281/2630017600_bbc5515fce.jpg","path":"817/823/817823d2d4f5c7e8ffc3ecb79d7bbe0.jpg","date":"2008-07-01","year":2008,"month":7,"lon":-80.02095,"lat":39.37901,"tags":"dmc-tz5,insect,lumix,lumix+dmc-tz5,nature,procreation,sex","S2CellId":"12a47c0000000000","result":692,"accuracy":0.0062507764,"title":"Even+Educated+Flees+Do+it","description":"Unknown+insects+caught+in+the+act.+%0A%0ATaken+in+Grafton%2C+West+Virginia."}
{"id":50867399,"url":"http://farm1.staticflickr.com/30/50867399_0f9afa4377.jpg","path":"cd3/a29/cd3a29cc63539584ff4a77a46448c8.jpg","date":"2005-10-09","year":2005,"month":10,"lon":-80.04261,"lat":39.147038,"tags":"2005,buttersweet,buttersweetsgarden,catchycolor,flower,green,honeysuckle,macro,wildflower,yellow","S2CellId":"89c2f34000000000","result":9103,"accuracy":0.013187426,"title":"wild+honeysuckle+vine"}
{"id":645711042,"url":"http://farm2.staticflickr.com/1066/645711042_a7aedeaa9d.jpg","path":"e44/56f/e4456f2d6bdec8e120fff9a2962c6.jpg","date":"2007-06-23","year":2007,"month":6,"lon":-80.150604,"lat":39.478603,"tags":"2007,action,aves,bird,birds,birdwatching,cardinal,cardinals,fairmont,fairmontwv,feathers,fuji,nature,outdoor,red,redbird,s5700,s700,shuttersparks,technorati,vogeln,west+virginia,wildlife,wv","S2CellId":"89c3700000000000","result":9120,"accuracy":0.03420771,"title":"Takeoff","description":"A+blur+of+high-speed+motion."}
{"id":56709392,"url":"http://farm1.staticflickr.com/32/56709392_18e32f3f79.jpg","path":"835/8bc/8358bce6dee69d3cee0f0f6fe9da6a6.jpg","date":"2005-10-16","year":2005,"month":10,"lon":-80.03978,"lat":39.15426,"tags":"rachelshots,storytelling","S2CellId":"4d5c000000000000","result":5955,"accuracy":0.012522646,"title":"trees","description":"rachel+photo+at+black+water+falls"}
{"id":849410696,"url":"http://farm2.staticflickr.com/1198/849410696_750cc712a4.jpg","path":"253/6eb/2536eb3cd107f261d7fdbf1e7fda7e3.jpg","date":"2007-07-15","year":2007,"month":7,"lon":-80.150604,"lat":39.478603,"tags":"fairmont,fairmontwv,fauna,fuji,groundhog,marmota+monax,outdoors,s5700,s700,sciuridae,shuttersparks,technorati,whistlepig,wildlife,woodchuck,wv","S2CellId":"4cce044000000000","result":5915,"accuracy":0.0070522036,"title":"Groundhog+10","description":"I+was+caught+unprepared+and+had+to+shoot+these+through+the+old+window+screen.++Sorry+about+the+blurring.%0A%0AThe+groundhog+%28Marmota+monax%29%2C+also+known+as+the+woodchuck+or+whistlepig%2C+is+a+rodent+of+the+family+Sciuridae%2C+belonging+to+the+group+of+large+ground+squirrels+known+as+marmots.%0A%3Ca+href%3D%22http%3A%2F%2Fen.wikipedia.org%2Fwiki%2FGroundhog%22%3Een.wikipedia.org%2Fwiki%2FGroundhog%3C%2Fa%3E%0A%0AFor+video+of+Punxsutawny+Phil%3A+%3Ca+href%3D%22http%3A%2F%2Fwww.youtube.com%2Fwatch%3Fv%3DiMlHFHnm3ZA%22%3Ewww.youtube.com%2Fwatch%3Fv%3DiMlHFHnm3ZA%3C%2Fa%3E"}
{"id":2570799854,"url":"http://farm4.staticflickr.com/3151/2570799854_445a3ec699.jpg","path":"c9f/674/c9f674618cd57b59119859ff68027.jpg","date":"2007-05-02","year":2007,"month":5,"lon":-80.03815,"lat":39.17372,"tags":"buttersweet,flower,macro,paeonia,peony","S2CellId":"864e640000000000","result":7620,"accuracy":0.033792406,"title":"peony+bud"}
{"id":5912822237,"url":"http://farm7.staticflickr.com/6059/5912822237_81d7f8bbd3.jpg","path":"8d5/7b2/8d57b27ae4504e6171f39fdd0a108a.jpg","date":"2011-07-07","year":2011,"month":7,"lon":-80.87132,"lat":39.76432,"tags":"assistance,clarington,clean,fund,monroe+county,ohio","S2CellId":"47e6d00000000000","result":4688,"accuracy":0.01711583,"title":"Clarington+-+Leek+Property+%28COAF%29"}
{"id":51956866,"url":"http://farm1.staticflickr.com/33/51956866_a6d3f9145a.jpg","path":"30a/bcb/30abcb1a3edaeffd6ec4079d4b84b5a.jpg","date":"2005-10-12","year":2005,"month":10,"lon":-80.04261,"lat":39.147038,"tags":"2005,autumn,buttersweet,buttersweetsgarden,color,fall,green,leaves,pink,red,water,wet,yellow","S2CellId":"4c90000000000000","result":5830,"accuracy":0.013990997,"title":"leaf+bath"}
{"id":43093539,"url":"http://farm1.staticflickr.com/32/43093539_229d394e63.jpg","path":"52c/ba2/52cba24b3814c7df9f415a1eec685.jpg","date":"2005-09-13","year":2005,"month":9,"lon":-80.03978,"lat":39.15426,"tags":"rachelshots","S2CellId":"89b4400000000000","result":8820,"accuracy":0.06653563,"title":"Sunset+mountains","description":"the+next+few+photos+are+all+taken+by+Rachel.++She+had+the+perfect+spot+for+the+view+of+the+start+of+our+real+mountains.++I+love+this+place%21"}
{"id":47874008,"url":"http://farm1.staticflickr.com/30/47874008_d0a943091b.jpg","path":"aa1/d48/aa1d4895b22b7e6aa4d09fe8bbe655.jpg","date":"2005-09-29","year":2005,"month":9,"lon":-80.03978,"lat":39.15426,"tags":"arden,autumn,berries,bush,buttersweet,catchycolor,color,fall,green,orange,purple","S2CellId":"12a47c0000000000","result":692,"accuracy":0.028269233,"title":"berries"}
{"id":33751704,"url":"http://farm1.staticflickr.com/21/33751704_ec21b5c246.jpg","path":"268/723/268723555169d128a37e7d4936af18.jpg","date":"2005-07-02","year":2005,"month":7,"lon":-80.04261,"lat":39.147038,"tags":"buttersweetsgarden,papaver,poppies,poppy","S2CellId":"8620af4000000000","result":7522,"accuracy":0.010294623,"title":"Poppy"}
{"id":650019401,"url":"http://farm2.staticflickr.com/1300/650019401_3ab9e16213.jpg","path":"939/84d/93984d5a1e94a6228a3dd114e9d21b.jpg","date":"2007-06-15","year":2007,"month":6,"lon":-80.150604,"lat":39.478603,"tags":"action,animals,cat,cats,chase,chat,fairmont,fairmontwv,fuji,gato,katze,mitzi,mouse,pet,pets,s5700,s700,shuttersparks,technorati,wv","S2CellId":"89d4d40000000000","result":9260,"accuracy":0.2657736,"title":"I+Have+You+Now","description":"Don%27t+miss+the+other+shots+from+this+drama+in+the+set.%0A%0AActually%2C+the+little+brown+mouse+got+away.++Haha.%0AFor+a+video+of+Mitzi+being+a+lunatic%3A+%3Ca+href%3D%22http%3A%2F%2Fwww.youtube.com%2Fwatch%3Fv%3Dt7v3gkEf53s%22%3Ewww.youtube.com%2Fwatch%3Fv%3Dt7v3gkEf53s%3C%2Fa%3E"}
{"id":8094559219,"url":"http://farm9.staticflickr.com/8190/8094559219_308b950364.jpg","path":"ba4/3ce/ba43ce9f1a8cdcbce4b66889abd952e9.jpg","date":"2012-10-13","year":2012,"month":10,"lon":-80.03017,"lat":39.638332,"tags":"college,lacrosse,mcla,morgantown,selc,sports,university,west+virginia,wv,wvu","S2CellId":"8085640000000000","result":6913,"accuracy":0.1700161,"title":"WVU+Lacrosse","description":"Morgantown%2C+WV+--+WVU+hosted+the+Naval+Academy+Club+Lacrosse+Team+on+Saturday%2C+October+13%2C+2012.%0A%0AThis+work+by++%3Ca+href%3D%22http%3A%2F%2Fwww.flickr.com%2Fpeople%2Fgtcooper25%2F%22%3Ecooper+gary%3C%2Fa%3E+is+licensed+under+a+%3Ca+href%3D%22http%3A%2F%2Fcreativecommons.org%2Flicenses%2Fby-nc-nd%2F3.0%2Fdeed.en_US%22+rel%3D%22nofollow%22%3ECreative+Commons+Attribution-NonCommercial-NoDerivs+License%3C%2Fa%3E.++If+you+use+this+photo%2C+please+credit+as+%22photo+by+%3Ca+href%3D%22http%3A%2F%2Fwww.flickr.com%2Fpeople%2Fgtcooper25%2F%22%3Ecooper+gary%3C%2Fa%3E%22+with+a+link-back+to+this+page+on+Flickr.%0A%0A%3Ca+href%3D%22http%3A%2F%2Fwww.gtcooperphotography.com%22+rel%3D%22nofollow%22%3EGT+Cooper+Photography%3C%2Fa%3E%0A%0A%3Ca+href%3D%22http%3A%2F%2Fwww.flickr.com%2Fphotos%2Fgtcooper25%2Fsets%2F72157631785606662%2Fwith%2F8094558483%2F%22%3EMore+WVU+Lacrosse+Photos+on+Flickr%3C%2Fa%3E%0A%0A%3Ca+href%3D%22http%3A%2F%2Fwww.gtcooperphotography.com%2FSports%2Fwvulax%22+rel%3D%22nofollow%22%3EMore+West+Virginia+University+Lacrosse+Photos+at+GTCooper+Photography%3C%2Fa%3E"}
{"id":2939440579,"url":"http://farm4.staticflickr.com/3033/2939440579_ac638f85ca.jpg","path":"9b7/67d/9b767ddfd9bbb9b4a54c8eed4222a9.jpg","date":"2008-10-04","year":2008,"month":10,"lon":-80.03847,"lat":39.40289,"tags":"fairmont,west+virginia,wv","S2CellId":"89db000000000000","result":9273,"accuracy":0.0141641665,"title":"WV+country+road"}
{"id":5991384382,"url":"http://farm7.staticflickr.com/6026/5991384382_0d4201d160.jpg","path":"6cb/b8c/6cbb8c7d2f674c701b66feda920f9b2.jpg","date":"2011-07-30","year":2011,"month":7,"lon":-80.18576,"lat":39.89645,"tags":"business,railroad,waynesburg","S2CellId":"52af000000000000","result":5972,"accuracy":0.0078119915,"title":"RUSH-AN001-0013-0050","description":"Real-photo+postcard+of+the+Waynesburg+%26+Washington+Railroad+in+Waynesburg%2C+Greene+County%2C+Pennsylvania.+Labeled%2C+%22Scene+on+W.+%26+W.+R.+R.%2C+Waynesburg%2C+PA.%22+Original%2C+no+photographer+or+printer+listed.+Included+in+the+Walter+%E2%80%9CBlackie%E2%80%9D+Markiewich+Postcard+Collection%2C+which+was+passed+to+Brice+%26+Linda+Rush+who+owned+and+shared+the+postcards+with+the+Greene+Connections%3A+Greene+County%2C+Pennsylvania+Photo+Archives+Project+in+2006."}
{"id":650015955,"url":"http://farm2.staticflickr.com/1145/650015955_43e07c3edd.jpg","path":"d08/312/d08312f6d7f7696348846c9ce89675bc.jpg","date":"2007-06-15","year":2007,"month":6,"lon":-80.150604,"lat":39.478603,"tags":"action,animals,cat,cats,chase,chat,fairmont,fairmontwv,fuji,gato,katze,mitzi,mouse,pet,pets,s5700,s700,shuttersparks,technorati,wv","S2CellId":"6b9c000000000000","result":6776,"accuracy":0.015864234,"title":"Mitzi+vs.+Mouse","description":"Don%27t+miss+the+other+shots+from+this+drama+in+the+set.%0A%0AFor+a+video+of+Mitzi+being+a+lunatic%3A+%3Ca+href%3D%22http%3A%2F%2Fwww.youtube.com%2Fwatch%3Fv%3Dt7v3gkEf53s%22%3Ewww.youtube.com%2Fwatch%3Fv%3Dt7v3gkEf53s%3C%2Fa%3E"}
{"id":48286720,"url":"http://farm1.staticflickr.com/31/48286720_52939a0c80.jpg","path":"c81/d1a/c81d1a27c55a7bd8833d2bfe47e83d.jpg","date":"2005-09-29","year":2005,"month":9,"lon":-80.04261,"lat":39.147038,"tags":"2005,arden,autumn,brown,buttersweet,fall,grass,macro,pine+island","S2CellId":"12a47c0000000000","result":692,"accuracy":0.043287195,"title":"grass"}
{"id":50068003,"url":"http://farm1.staticflickr.com/28/50068003_fa481fc00b.jpg","path":"c1a/9fe/c1a9feff78547acc867ae8df650d6eb.jpg","date":"2005-10-03","year":2005,"month":10,"lon":-80.035225,"lat":39.1489,"tags":"buttersweetsgarden","S2CellId":"0d56c00000000000","result":472,"accuracy":0.012289748,"title":"rose","description":"it+will+be+green+later"}
{"id":2308646032,"url":"http://farm3.staticflickr.com/2226/2308646032_f3cf471fbf.jpg","path":"b5d/696/b5d6963d1eafeb7e41ff7db76ec2c6b7.jpg","date":"2008-03-03","year":2008,"month":3,"lon":-80.150604,"lat":39.478603,"tags":"abstract,blackandwhite,bw,fairmont,fairmontwv,fuji,nature,night,nighttime,outdoors,s5700,s700,shuttersparks,snow,sparkles,surreal,technorati,virginia,west,winter,wv","S2CellId":"4887c79400000000","result":5717,"accuracy":0.002878902,"title":"BW+Snow+Sparkles+2","description":"View+larger+to+see+the+effect."}
{"id":4782479771,"url":"http://farm5.staticflickr.com/4097/4782479771_3c2cf4f6cd.jpg","path":"23b/f38/23bf38387427686fa316f624355b77f6.jpg","date":"2010-07-10","year":2010,"month":7,"lon":-80.09155,"lat":39.514122,"tags":"blacksmith,fort,hipstamatic,history,iphone,iphone4,prickett%27s+fort,state+park,west+virginia,wv","S2CellId":"472c000000000000","result":3253,"accuracy":0.003958435,"title":"Prickett%27s+Fort+State+Park+in+Hipstamatic"}
{"id":158330049,"url":"http://farm1.staticflickr.com/78/158330049_264b7f52e5.jpg","path":"18a/83d/18a83d71220ca57c6a28659e6eaa5d1.jpg","date":"2006-06-01","year":2006,"month":6,"lon":-80.035225,"lat":39.1489,"tags":"buttersweet","S2CellId":"808fcb0000000000","result":7069,"accuracy":0.027336072,"title":"orange+rose"}
{"id":650803528,"url":"http://farm2.staticflickr.com/1068/650803528_157905f06b.jpg","path":"684/986/68498625f1e5cfd12f9a4420496bac.jpg","date":"2006-12-04","year":2006,"month":12,"lon":-80.150604,"lat":39.478603,"tags":"cs630,fairmont,fairmontwv,intel,outdoors,shuttersparks,snow,technorati,west+virginia,winter,wv","S2CellId":"4773700000000000","result":3393,"accuracy":0.03343942,"title":"061204-003","description":"Our+first+little+snowfall+in+Fairmont%2C+WV.++December+4%2C+2006."}
{"id":47277865,"url":"http://farm1.staticflickr.com/25/47277865_403ac7270a.jpg","path":"2a7/c93/2a7c93c84138b5e2eb4b6515966f5f6f.jpg","date":"2005-09-27","year":2005,"month":9,"lon":-80.04261,"lat":39.147038,"tags":"2005,bud,buttersweetsgarden,catchycolor,color,dahlia,flower,flowerheart,green,macro,purple","S2CellId":"12a47c0000000000","result":692,"accuracy":0.027265899,"title":"dahlia+bud","description":"purple%3F++i+hope."}
{"id":3279341020,"url":"http://farm4.staticflickr.com/3394/3279341020_225cf058b7.jpg","path":"c88/ec3/c88ec3cd61d96cdbf4e82f3522ebf98d.jpg","date":"2008-08-09","year":2008,"month":8,"lon":-80.603424,"lat":39.962093,"tags":"fountain,gold,krishna,moundsville,new,palace,prabhupada,srila,vrindavan,wv","S2CellId":"87d8b54000000000","result":8008,"accuracy":0.043232583,"title":"IMG_0042"}
{"id":44074939,"url":"http://farm1.staticflickr.com/31/44074939_1ade6df09a.jpg","path":"bdf/6ee/bdf6ee5587a1f26f8acb8172441ea5d.jpg","date":"2005-09-17","year":2005,"month":9,"lon":-80.04261,"lat":39.147038,"tags":"antique,bavaria%2C+germany,black,buttersweet,charger,china,gold,heinrich+%26+co,made+in+germany","S2CellId":"132f606500000000","result":1089,"accuracy":0.0062422347,"title":"Bavarian+Antique+charger","description":"Heinrich+%26+Company+Made+in+Bavaria+Germany%0AHand+painted+in+USA+22+K"}
{"id":8646225124,"url":"http://farm9.staticflickr.com/8528/8646225124_fb2588303c.jpg","path":"445/838/445838d4e5fa26e3934d391531d38c7d.jpg","date":"2013-03-27","year":2013,"month":3,"lon":-80.09403,"lat":39.51745,"tags":"2013,harpers+ferry,hdr,magic+lantern,md,noel+benadom,pricketts+fort,shepherdstown,sistersville,spring+break,tokina,wv","S2CellId":"89b3400000000000","result":8818,"accuracy":0.029363371,"title":"Prickett%27s+Fort%2C+WV","description":"Spring+Break+2013"}
{"id":77030253,"url":"http://farm1.staticflickr.com/38/77030253_5c6b80f886.jpg","path":"6a5/9db/6a59dbd043355a2e9d548ccb8a60b7.jpg","date":"2005-12-24","year":2005,"month":12,"lon":-80.04261,"lat":39.147038,"tags":"2005,buttersweet,cheesecake,christmas,holiday,holiday+set,pumpkin","S2CellId":"808fcb0000000000","result":7069,"accuracy":0.0033507724,"title":"umm%2C+cheesecake"}
{"id":3343282944,"url":"http://farm4.staticflickr.com/3584/3343282944_5590c00db4.jpg","path":"f2b/843/f2b843ffa498fa2bf5b726c8b97472c.jpg","date":"2009-03-07","year":2009,"month":3,"lon":-80.753204,"lat":39.910824,"tags":"earl,ohio,river,vista,wva","S2CellId":"87c5000000000000","result":7979,"accuracy":0.058258086,"title":"Ohio+River+outlook","description":"Earl+is+scouting+the+mountains+of+West+Virginia+and+Ohio+River."}
