{"id":6323712900,"url":"http://farm7.staticflickr.com/6097/6323712900_be363bfaef.jpg","path":"4ec/f83/4ecf833326aa25f1d510d67d1dffdab.jpg","date":"2010-02-13","year":2010,"month":2,"lon":100.134415,"lat":25.854202,"tags":"%E4%B8%AD%E5%9B%BD,artist,caligraphy,camera,china,chn,dmc-gf1,gf1,mft,paintbrush,panasonic,panasonic+dmc-gf1,xizhou,yunnan","S2CellId":"548ff00000000000","result":6177,"accuracy":0.13529667,"title":"Calligraphy+artist"}
{"id":2857769221,"url":"http://farm4.staticflickr.com/3245/2857769221_3bf4a58bab.jpg","path":"b27/248/b27248da5afee6e4177c3e53d35b025.jpg","date":"2008-09-09","year":2008,"month":9,"lon":100.232666,"lat":26.875834,"tags":"lijiang","S2CellId":"357ca2f000000000","result":2313,"accuracy":0.025395226,"title":"lijiang"}
{"id":2532912505,"url":"http://farm3.staticflickr.com/2364/2532912505_50aa7ae47b.jpg","path":"cdf/4b3/cdf4b35a2a9ad88f5d2d1bd0d07d53e1.jpg","date":"2008-05-29","year":2008,"month":5,"lon":100.146904,"lat":25.862776,"tags":"china,dali","S2CellId":"3724000000000000","result":2419,"accuracy":0.5222472,"title":"IMG_7955","description":"Rice+paddies"}
{"id":4604311828,"url":"http://farm2.staticflickr.com/1311/4604311828_3f7a4777c3.jpg","path":"d01/5d3/d015d39a70c5545c5149d77580e185.jpg","date":"2010-05-07","year":2010,"month":5,"lon":100.18973,"lat":26.951195,"tags":"bike,china,lijiang,mountain,yunnan","S2CellId":"5d40000000000000","result":6335,"accuracy":0.30956396,"title":"On+the+bike+trail+in+Yunnan"}
{"id":6943775179,"url":"http://farm8.staticflickr.com/7046/6943775179_385b8ae9fc.jpg","path":"a1d/c42/a1dc42bd45938b692deb288526ba192.jpg","date":"2012-03-01","year":2012,"month":3,"lon":100.23166,"lat":26.878315,"tags":"%E4%B8%BD%E6%B1%9F,%E4%BA%91%E5%8D%97,china,landscape","S2CellId":"3724000000000000","result":2419,"accuracy":0.96126974,"title":"IMG_8729.jpg"}
{"id":5427974732,"url":"http://farm6.staticflickr.com/5299/5427974732_6f9746bd0a.jpg","path":"7e5/22d/7e522dcab25c9de5ec424bc8973c2025.jpg","date":"2006-09-15","year":2006,"month":9,"lon":101.82436,"lat":25.19022,"tags":"lake,lugu,mosuo,quchen","S2CellId":"8589400000000000","result":7437,"accuracy":0.059687532,"title":"%E6%91%A9%E6%A2%AD%E6%B0%91%E5%B1%85++Typical+Mosuo+House"}
{"id":5743062084,"url":"http://farm6.staticflickr.com/5190/5743062084_bc0e1ef080.jpg","path":"125/194/125194489b4fb8bbaa373ab92e8b3e3.jpg","date":"2011-02-07","year":2011,"month":2,"lon":100.145,"lat":26.862333,"tags":"%E4%B8%9C%E5%B7%B4%E5%A3%81%E7%94%BB%EF%BC%88%E4%B8%BD%E6%B1%9F%EF%BC%89,iphoto+%E5%8E%9F%E5%A7%8B","S2CellId":"47c4100000000000","result":4245,"accuracy":0.009622291,"title":"IMGP2754+2"}
{"id":1797709487,"url":"http://farm3.staticflickr.com/2301/1797709487_ed473d5e95.jpg","path":"507/152/5071522e4d87574cf7a8f8ae6cf39e.jpg","date":"2007-10-13","year":2007,"month":10,"lon":100.229294,"lat":26.870588,"tags":"china,dayan,lijiang,viajes,yunnan","S2CellId":"477eae3000000000","result":3462,"accuracy":0.04334006,"title":"Dayan+%28Lijiang%29%3A+fuente+con+dragones","description":"Lijiang+%28%E4%B8%BD%E6%B1%9F%29+es+una+antigua+ciudad+situada+al+noroeste+de+la+provincia+de+Yunnan%2C+en+la+Rep%C3%BAblica+Popular+China.+La+ciudad+tiene+una+historia+de+m%C3%A1s+de+800+a%C3%B1os+y+es+famosa+por+su+ordenado+sistema+de+canales+y+puentes.+Se+la+llama+tambi%C3%A9n+%22Venecia+del+Este%22.%0A%0AFue+capital+del+principado+de+Mexiezhao.+Est%C3%A1+habitada+por+los+Naxi+desde+tiempos+de+la+dinast%C3%ADa+Yuan.+Gran+parte+de+los+templos+y+edificos+actuales+se+construyeron+durante+las+dinast%C3%ADas+Ming+y+Qing.%0A%0ALa+ciudad+antigua+de+Lijiang+es+diferente+a+otras+ciudades+chinas+en+lo+que+se+refiere+a+la+arquitectura%2C+historia+y+cultura+que+aqu%C3%AD+est%C3%A1n+%C3%ADntimamente+ligadas+a+la+tradici%C3%B3n+de+los+Naxi%2C+que+siguen+manteniendo+sus+costumbres+ancestrales.%0A%0AEn+1997+la+UNESCO+declar%C3%B3+Lijiang+Patrimonio+de+la+Humanidad.+Desde+entonces+la+ciudad+ha+sufrido+un+notable+aumento+del+turismo.+Debido+a+esta+comercializaci%C3%B3n%2C+la+UNESCO+est%C3%A1+considerando+retirar+a+la+ciudad+la+categor%C3%ADa+de+Patrimonio+de+la+Humanidad."}
{"id":7951466538,"url":"http://farm9.staticflickr.com/8459/7951466538_7101fbf2da.jpg","path":"d7d/2da/d7d2daefef83d423fe2bc231785d.jpg","date":"2012-04-19","year":2012,"month":4,"lon":100.16197,"lat":26.112259,"tags":"china,countryside,dali,yunnan","S2CellId":"537dc00000000000","result":6064,"accuracy":0.034234483,"title":"Countryside+near+Dali%2C+Yunnan"}
{"id":5323338661,"url":"http://farm6.staticflickr.com/5129/5323338661_d224e4a4e7.jpg","path":"b56/196/b561963a9d109870c6409c81afb1db52.jpg","date":"2010-12-31","year":2010,"month":12,"lon":100.21042,"lat":26.889004,"tags":"lijiang","S2CellId":"0d22c00000000000","result":251,"accuracy":0.00449537,"title":"%E6%88%91%E5%9C%A8%E4%B8%BD%E6%B1%9F","description":"%E6%88%B4%E4%B8%8A%E7%89%9B%E4%BB%94%E5%B8%BD%EF%BC%8C%E6%8B%8D%E4%B8%AA%E7%89%B9%E5%86%99%E3%80%82"}
{"id":2857919961,"url":"http://farm4.staticflickr.com/3295/2857919961_3666813209.jpg","path":"308/c22/308c22eefd6a85294f88d4a3f7138744.jpg","date":"2008-09-10","year":2008,"month":9,"lon":100.2065,"lat":26.927334,"tags":"lijiang,shuhe","S2CellId":"35f052f000000000","result":2371,"accuracy":0.014785634,"title":"lijiang"}
{"id":2157240963,"url":"http://farm3.staticflickr.com/2156/2157240963_c3998f9027.jpg","path":"f1b/860/f1b860f15238e739a7e6dcad7e65b97e.jpg","date":"2008-01-02","year":2008,"month":1,"lon":100.22072,"lat":25.58766,"tags":"%E4%BA%91%E5%8D%97,%E5%A4%A7%E7%90%86,%E5%B4%87%E5%9C%A3%E5%AF%BA,dali,yunnan","S2CellId":"35f052f000000000","result":2371,"accuracy":0.3291309,"title":"%E5%A4%A7%E7%90%86+%E5%B4%87%E5%9C%A3%E5%AF%BA+%E5%BB%BA%E7%AD%91"}
{"id":5237759118,"url":"http://farm6.staticflickr.com/5248/5237759118_512254fe34.jpg","path":"855/4ed/8554ed493e4eecbe5148bae64862db9.jpg","date":"2010-10-15","year":2010,"month":10,"lon":100.205475,"lat":26.924017,"tags":"buildings,china,courtyard,courtyard+housing,lijiang,retail,vernacular,yunnan","S2CellId":"312f000000000000","result":1733,"accuracy":0.07785413,"title":"403_1080351","description":"A+shop+selling+vintage+traditional+fabric+and+clothes+in+a+courtyard+house+on+the+south+side+of+Longquan+Lu+%28%E9%BE%99%E6%B3%89%E8%B7%AF%29+east+of+Luyuan+Lu+%28%E9%B9%BF%E8%8B%91%E8%B7%AF%29%2C+Shuhe+ancient+town+%28%E6%9D%9F%E6%B2%B3%29%2C+Lijiang+%28%E4%B8%BD%E6%B1%9F%29%2C+Yunnan+%28%E4%BA%91%E5%8D%97%29"}
{"id":3861755544,"url":"http://farm4.staticflickr.com/3424/3861755544_06630f6751.jpg","path":"5ab/e26/5abe2651488582ac8ff08511ae42de.jpg","date":"2009-08-21","year":2009,"month":8,"lon":100.17059,"lat":25.673712,"tags":"china,dali,yunnan","S2CellId":"3468840000000000","result":2159,"accuracy":0.17662759,"title":"path"}
{"id":2162612290,"url":"http://farm3.staticflickr.com/2224/2162612290_4a5ab7efbc.jpg","path":"6dd/967/6dd967acc816759421ec16a8b3f718.jpg","date":"2008-01-01","year":2008,"month":1,"lon":100.24166,"lat":25.636108,"tags":"%E4%BA%91%E5%8D%97,%E5%A4%A7%E7%90%86,%E6%B4%B1%E6%B5%B7,dali,erhai+lake,yunnan","S2CellId":"5470000000000000","result":6094,"accuracy":0.14388525,"title":"%E6%B4%B1%E6%B5%B7"}
{"id":3861717168,"url":"http://farm3.staticflickr.com/2627/3861717168_988e93f977.jpg","path":"8be/499/8be499dcecf97c643a5d55263511a0.jpg","date":"2009-08-21","year":2009,"month":8,"lon":100.17059,"lat":25.673712,"tags":"china,dali,yunnan","S2CellId":"48d1000000000000","result":5787,"accuracy":0.030112876,"title":"moss"}
{"id":6334784403,"url":"http://farm7.staticflickr.com/6234/6334784403_f64727669e.jpg","path":"2a8/e42/2a8e423342ea9564f5fc177b521fa6d.jpg","date":"2011-09-18","year":2011,"month":9,"lon":100.23141,"lat":26.8732,"tags":"china,gorge,leaping,lijiang,tiger,water,yangtze","S2CellId":"5377000000000000","result":6058,"accuracy":0.046604503,"title":"Gorge","description":"Tiger+Leaping+Gorge+on+the+Yangtze+River.%0APlease%2C+visit+my+blog+mochiladeviajes.blogspot.com+and+share"}
{"id":7455478588,"url":"http://farm9.staticflickr.com/8150/7455478588_fe31f8fece.jpg","path":"c5d/11c/c5d11cb7343ae987d201fb964a8e31.jpg","date":"2012-06-21","year":2012,"month":6,"lon":101.82436,"lat":25.19022,"tags":"shangri-la,travel","S2CellId":"3724000000000000","result":2419,"accuracy":0.2706841,"title":"One+lazy+afternoon+in+Shangri-la+Ancient+Town","description":"An+afternoon+with+tea+and+dream"}
{"id":5659518366,"url":"http://farm6.staticflickr.com/5261/5659518366_6d9c9ff698.jpg","path":"c91/1a4/c911a460a26f814be44792a8b5c2885.jpg","date":"2011-02-12","year":2011,"month":2,"lon":100.303116,"lat":26.924824,"tags":"%E4%BA%91%E5%8D%97","S2CellId":"1bc0000000000000","result":1443,"accuracy":0.023648802,"title":"%E6%B3%B8%E6%B2%BD%E6%B9%96"}
{"id":2823960544,"url":"http://farm4.staticflickr.com/3254/2823960544_59a68db506.jpg","path":"f87/7c2/f877c258cc75121c25bc5101da8ad6c.jpg","date":"2008-08-25","year":2008,"month":8,"lon":100.22484,"lat":26.868027,"tags":"city,lijiang,naxi,old,women,yunnan","S2CellId":"3724000000000000","result":2419,"accuracy":0.24036022,"title":"Naxi+dance","description":"I+was+flabbergasted+by+this+throng+of+dancing+grannies.+Taken+at+Lijiang%27s+Old+City"}
{"id":86253325,"url":"http://farm1.staticflickr.com/40/86253325_e10df7d854.jpg","path":"d34/c5d/d34c5d543ccb6430cd1b8ee41dc4.jpg","date":"2005-12-03","year":2005,"month":12,"lon":100.13497,"lat":24.449337,"tags":"china,door,ispygame,poster,sculpture,yunnan,yunxian","S2CellId":"35f052f000000000","result":2371,"accuracy":0.046737805,"title":"100_1288","description":"Just+say+no+to+boring+doors."}
{"id":5657654330,"url":"http://farm6.staticflickr.com/5105/5657654330_dde0eae7ed.jpg","path":"8ec/15a/8ec15a4a9539b2af207f7792ea1aeef.jpg","date":"2011-02-18","year":2011,"month":2,"lon":100.15068,"lat":25.701712,"tags":"%E4%BA%91%E5%8D%97,%E6%A4%8D%E7%89%A9","S2CellId":"6018640000000000","result":6457,"accuracy":0.07192574,"title":"%E6%A8%B1%E8%8A%B1"}
{"id":2245648569,"url":"http://farm3.staticflickr.com/2174/2245648569_3bd8669ae9.jpg","path":"681/0d2/6810d2c96851cac57b9c31514eea38dc.jpg","date":"2008-02-03","year":2008,"month":2,"lon":100.234795,"lat":26.874334,"tags":"china","S2CellId":"39e9000000000000","result":2488,"accuracy":0.17974304,"title":"Sandbar"}
{"id":2376089858,"url":"http://farm3.staticflickr.com/2179/2376089858_4aa2b57ca6.jpg","path":"d15/2e6/d152e62b3e871425ca030752bbb9b9e.jpg","date":"2006-09-30","year":2006,"month":9,"lon":100.157715,"lat":25.70233,"tags":"china,dali","S2CellId":"3724000000000000","result":2419,"accuracy":0.36120662,"title":"093006-152416-Dali-China"}
{"id":3310934909,"url":"http://farm4.staticflickr.com/3427/3310934909_6ce639a875.jpg","path":"f11/387/f113870790b047175ee7138c87bea5.jpg","date":"2009-01-24","year":2009,"month":1,"lon":100.231186,"lat":26.876722,"tags":"aasia,china,hiina,lijiang,yunnan","S2CellId":"3724000000000000","result":2419,"accuracy":0.7573282,"title":"Lijiang+%7C+p%C3%A4ev+enne+%28Hiina%29+uut+aastat"}
{"id":270315472,"url":"http://farm1.staticflickr.com/94/270315472_667b1da2d0.jpg","path":"9d4/dd4/9d4dd47d702db6ef88f059a64a9be71f.jpg","date":"2006-10-04","year":2006,"month":10,"lon":100.14957,"lat":25.700937,"tags":"architecture,china,dali,nikon,nikonstunninggallery,xizhou,yan,yunnan","S2CellId":"46524c0000000000","result":2849,"accuracy":0.041930832,"title":"Plafonds+d%C3%A9cor%C3%A9s%2C+maison+du+clan+Yan%2C+Xizhou"}
{"id":5323348993,"url":"http://farm6.staticflickr.com/5204/5323348993_c14c4648cc.jpg","path":"b7c/760/b7c7609d4ebce1f4196a4c3f29d4f0c4.jpg","date":"2011-01-01","year":2011,"month":1,"lon":100.21042,"lat":26.889004,"tags":"lijiang","S2CellId":"3724000000000000","result":2419,"accuracy":0.83411765,"title":"%E4%B8%BD%E6%B1%9F%C2%B7%E5%8F%A4%E5%9F%8E%E7%9A%84%E9%BE%99%E9%97%A8%E5%AE%A2%E6%A0%88","description":"%E4%B8%8D%E7%9F%A5%E9%81%93%E9%87%8C%E9%9D%A2%E7%9A%84%E8%80%81%E6%9D%BF%E5%A8%98%E6%98%AF%E4%BD%95%E6%96%B9%E7%A5%9E%E5%9C%A3%E3%80%82"}
{"id":3447879102,"url":"http://farm4.staticflickr.com/3556/3447879102_e638a56708.jpg","path":"3a2/cb3/3a2cb32a38a14ffd81f4b297b867544e.jpg","date":"2009-02-24","year":2009,"month":2,"lon":100.224495,"lat":26.891148,"tags":"martin+long,nitram","S2CellId":"3724000000000000","result":2419,"accuracy":0.4226726,"title":"Black+Dragon+Pool"}
{"id":5164159769,"url":"http://farm2.staticflickr.com/1309/5164159769_4f6d4befbb.jpg","path":"f1a/044/f1a04482657efab4698fb6c7aab151.jpg","date":"2010-10-14","year":2010,"month":10,"lon":100.23342,"lat":26.87844,"tags":"baisha,china,lijiang,yunnan","S2CellId":"1dcdc00000000000","result":1459,"accuracy":0.09972543,"title":"bike+to+baisha"}
{"id":4988678362,"url":"http://farm5.staticflickr.com/4113/4988678362_e15d41f3d1.jpg","path":"87b/120/87b12020ab4aa3c57e82f545a620bc14.jpg","date":"2010-08-31","year":2010,"month":8,"lon":100.23038,"lat":26.876774,"tags":"%E4%BA%91%E5%8D%97,%E7%8A%AC,%E7%8B%97,%E9%9B%B2%E5%8D%97,%E9%BA%97%E6%B1%9F,children,china,dogs,lijiang,yunnan","S2CellId":"3724000000000000","result":2419,"accuracy":0.3624712}
{"id":4592132058,"url":"http://farm5.staticflickr.com/4037/4592132058_7ce4a6a03c.jpg","path":"f0c/cd7/f0ccd79e4b66a2c7ccb21902a6bf48.jpg","date":"2008-08-03","year":2008,"month":8,"lon":100.1221,"lat":25.698893,"tags":"china,tiger+leaping+gorge,yunnan","S2CellId":"4782100000000000","result":3540,"accuracy":0.16198479,"title":"Tiger+Leaping+Gorge","description":"Img_2949.Jpg"}
{"id":8021989016,"url":"http://farm9.staticflickr.com/8039/8021989016_1f3dfd10ba.jpg","path":"b1b/cfa/b1bcfa1cb2b8995bd2aedae459fb58.jpg","date":"2012-08-11","year":2012,"month":8,"lon":100.15446,"lat":25.695522,"tags":"art,china,dali,lake,mountain,nature,yunnan","S2CellId":"472c000000000000","result":3253,"accuracy":0.0070678205}
{"id":2917672311,"url":"http://farm4.staticflickr.com/3135/2917672311_a91dc5c3c2.jpg","path":"388/c24/388c248c3468b527a52f5817213dd4d.jpg","date":"2004-09-10","year":2004,"month":9,"lon":100.23025,"lat":26.873999,"tags":"china,lijiang","S2CellId":"3724000000000000","result":2419,"accuracy":0.33814314,"title":"China+2004+-+322"}
{"id":2157273877,"url":"http://farm3.staticflickr.com/2074/2157273877_2dcfa7e1e6.jpg","path":"93e/956/93e9564af82519e8dd2ed82ee91eaeb.jpg","date":"2008-01-01","year":2008,"month":1,"lon":100.22072,"lat":25.58766,"tags":"%E4%BA%91%E5%8D%97,%E5%A4%A7%E7%90%86,dali,yunnan","S2CellId":"346f100000000000","result":2230,"accuracy":0.45088267,"title":"DSC06442"}
{"id":3860909107,"url":"http://farm4.staticflickr.com/3435/3860909107_3d8b8562b6.jpg","path":"de8/b9a/de8b9a977cc4f5ec2e9e0ae28502baf.jpg","date":"2009-08-20","year":2009,"month":8,"lon":100.17059,"lat":25.673712,"tags":"brick,china,dali,yunnan","S2CellId":"3afc000000000000","result":2528,"accuracy":0.003602364,"title":"bricks"}
{"id":4987277493,"url":"http://farm5.staticflickr.com/4150/4987277493_820894c682.jpg","path":"2dd/4b0/2dd4b01d404b2d84836c73a185fb84a7.jpg","date":"2010-08-28","year":2010,"month":8,"lon":100.22,"lat":25.743,"tags":"%E4%BA%91%E5%8D%97,%E9%9B%B2%E5%8D%97,%E9%B5%9C,%E9%B5%9C%E9%A3%BC,animals,birds,china,cormorant,dali,fishing,yunnan","S2CellId":"1351000000000000","result":1177,"accuracy":0.039227463}
{"id":6796390768,"url":"http://farm8.staticflickr.com/7192/6796390768_2d7bd1396a.jpg","path":"822/e59/822e59516d42221fc8d06f71c2ad114.jpg","date":"2012-02-29","year":2012,"month":2,"lon":100.236015,"lat":26.876213,"tags":"%E4%B8%AD%E5%9B%BD,%E4%B8%BD%E6%B1%9F,%E4%BA%91%E5%8D%97,animal,china,cn,dog,landscape","S2CellId":"4b5b000000000000","result":5824,"accuracy":0.04394283,"title":"IMG_0193.jpg"}
{"id":6797575096,"url":"http://farm8.staticflickr.com/7044/6797575096_b31459b73f.jpg","path":"dca/5ad/dca5added169e7e1ef642ba2f0f670aa.jpg","date":"2012-03-01","year":2012,"month":3,"lon":100.23424,"lat":26.875704,"tags":"%E4%B8%BD%E6%B1%9F,%E4%BA%91%E5%8D%97,china,landscape","S2CellId":"3724000000000000","result":2419,"accuracy":0.06504837,"title":"IMG_8747.jpg"}
{"id":7940471376,"url":"http://farm9.staticflickr.com/8305/7940471376_b3c8d713fb.jpg","path":"ceb/332/ceb33288db8763575948cbd727287a9.jpg","date":"2012-04-12","year":2012,"month":4,"lon":99.16423,"lat":25.116922,"tags":"baoshan,china,yunnan","S2CellId":"6b12ae2400000000","result":6681,"accuracy":0.016509661,"title":"Baoshan%2C+Yunnan"}
{"id":2938298852,"url":"http://farm4.staticflickr.com/3207/2938298852_71ed6c32a9.jpg","path":"aef/71c/aef71cf1625b6a5fb7bc1da0a13c1b.jpg","date":"2008-10-13","year":2008,"month":10,"lon":100.15068,"lat":25.708363,"tags":"chine,dali,yunyou","S2CellId":"3468840000000000","result":2159,"accuracy":0.28040877,"title":"P1010500"}
{"id":5162404253,"url":"http://farm5.staticflickr.com/4148/5162404253_6614c0e9c0.jpg","path":"b0e/4b4/b0e4b48bd725fa1fc2c9796336aa9cf.jpg","date":"2010-10-14","year":2010,"month":10,"lon":100.23342,"lat":26.87844,"tags":"blackdragonpools,china,lijiang,yunnan","S2CellId":"3724000000000000","result":2419,"accuracy":0.31827006,"title":"a+day+of+bikes+and+stairs"}
{"id":3370601522,"url":"http://farm4.staticflickr.com/3657/3370601522_a419f14fdf.jpg","path":"4ed/914/4ed9147e9e32d1b1c350a4b565c995a3.jpg","date":"2009-03-20","year":2009,"month":3,"lon":100.22638,"lat":26.8713,"tags":"%E4%B8%BD%E6%B1%9F,%E6%97%85%E8%A1%8C","S2CellId":"3724000000000000","result":2419,"accuracy":0.9752973,"title":"_MG_1426"}
{"id":6942541335,"url":"http://farm8.staticflickr.com/7042/6942541335_852c61e032.jpg","path":"8ce/433/8ce4331fa6e531cbcf864e8caebf940.jpg","date":"2012-02-29","year":2012,"month":2,"lon":100.23551,"lat":26.875383,"tags":"%E4%B8%AD%E5%9B%BD,%E4%B8%BD%E6%B1%9F,%E4%BA%91%E5%8D%97,%E6%A2%A8%E8%8A%B1,china,cn,flower,landscape,nature,plant","S2CellId":"89b7b71000000000","result":8847,"accuracy":0.048206735,"title":"IMG_0220.jpg"}
{"id":2983123195,"url":"http://farm4.staticflickr.com/3065/2983123195_f1879ee297.jpg","path":"2f8/e37/2f8e37393251384a2179c0179ec9.jpg","date":"2008-10-16","year":2008,"month":10,"lon":100.233765,"lat":26.871931,"tags":"chine,lijiang,moi","S2CellId":"3724000000000000","result":2419,"accuracy":0.93640834,"title":"P1010767"}
{"id":5742866325,"url":"http://farm6.staticflickr.com/5270/5742866325_6616fa98bd.jpg","path":"522/56b/52256be45accf58bcd17769ad576e137.jpg","date":"2011-02-04","year":2011,"month":2,"lon":100.189835,"lat":25.901999,"tags":"%E5%8D%97%E8%AF%8F%E9%A3%8E%E6%83%85%E5%B2%9B%EF%BC%88%E5%A4%A7%E7%90%86%EF%BC%89,iphoto+%E5%8E%9F%E5%A7%8B","S2CellId":"478e900000000000","result":3682,"accuracy":0.10620369,"title":"IMGP1585+2"}
{"id":8205518642,"url":"http://farm9.staticflickr.com/8480/8205518642_7ffd43c8cb.jpg","path":"295/07a/29507a7386189ca01cb37eaef7739c0.jpg","date":"2012-11-16","year":2012,"month":11,"lon":100.19331,"lat":25.908102,"tags":"china,dali,er,evening,hai,lake,landscape,light,moon,mountain,night,star,village,water,yunnan","S2CellId":"3468d40000000000","result":2165,"accuracy":0.11061122,"title":"IMGP4980"}
{"id":2155373365,"url":"http://farm3.staticflickr.com/2306/2155373365_50d23f01a5.jpg","path":"5d4/7b6/5d47b6ea327d1b24713c61d5122f2649.jpg","date":"2007-02-24","year":2007,"month":2,"lon":100.15686,"lat":26.935537,"tags":"china,lijiang,minority,yi,yunnan","S2CellId":"89c25896c0000000","result":8974,"accuracy":0.07423737,"title":"Yi+farmers"}
{"id":7962786090,"url":"http://farm9.staticflickr.com/8444/7962786090_3ec2434ce5.jpg","path":"19a/29e/19a29ee375a9f4b496dcadcc90bd96ee.jpg","date":"2012-04-19","year":2012,"month":4,"lon":100.23212,"lat":26.87903,"tags":"china,lijiang,old+town,yunnan","S2CellId":"3724000000000000","result":2419,"accuracy":0.48979658,"title":"Old+town+-+Lijiang%2C+Yunnan"}
{"id":3725947854,"url":"http://farm4.staticflickr.com/3448/3725947854_0af4d325d5.jpg","path":"d96/a1d/d96a1dc15582af4814a33772ed62ea5.jpg","date":"2009-07-14","year":2009,"month":7,"lon":100.15557,"lat":25.695396,"tags":"china,dali","S2CellId":"3724000000000000","result":2419,"accuracy":0.5398755,"title":"Paint+it+all","description":"%D0%9D%D0%B5%D0%BA%D0%BE%D1%82%D0%BE%D1%80%D1%8B%D0%B5+%D0%B4%D0%BE%D0%BC%D0%B0+%D1%80%D0%B0%D1%81%D0%BA%D1%80%D0%B0%D1%88%D0%B5%D0%BD%D1%8B+%D1%86%D0%B5%D0%BB%D0%B8%D0%BA%D0%BE%D0%BC"}
{"id":3649536071,"url":"http://farm3.staticflickr.com/2362/3649536071_b6ae6c9aa6.jpg","path":"f0f/6ed/f0f6ed273d5747e027985b50bf766ab9.jpg","date":"2009-04-22","year":2009,"month":4,"lon":100.23308,"lat":26.875837,"tags":"%E4%B8%BD%E6%B1%9F,%E4%BA%91%E5%8D%97,%E8%9B%8B%E6%8C%9E,2009,custard+tart,egg+tart,lijiang,yunnan","S2CellId":"94cdc00000000000","result":9696,"accuracy":0.018513791,"description":"Cantonese+food+is+a+major+cuisine+in+China%2C+so+professionals+in+the+food+and+beverage+industry+across+the+country+often+come+from+Guangdong.+Even+in+Lijiang%2C+we+managed+to+have+two+feasts+of+authentic+Cantonese+food."}
{"id":4182669441,"url":"http://farm3.staticflickr.com/2696/4182669441_fc1b7788ed.jpg","path":"ccc/edc/cccedcf21f067ebb5df334060ed8c3e.jpg","date":"2009-11-26","year":2009,"month":11,"lon":100.14931,"lat":25.703411,"tags":"%E4%B8%AD%E5%9B%BD,china,yunnan","S2CellId":"30cc000000000000","result":1621,"accuracy":0.48851895,"title":"i+cormorani+%26+i+pescatori"}
{"id":2857903517,"url":"http://farm4.staticflickr.com/3119/2857903517_cd822c0fae.jpg","path":"f93/e5d/f93e5df4a1ef94586d9187dd574df55.jpg","date":"2008-09-10","year":2008,"month":9,"lon":100.204,"lat":26.9295,"tags":"lijiang,shuhe","S2CellId":"60013c0000000000","result":6413,"accuracy":0.09066813,"title":"lijiang"}
{"id":4486835881,"url":"http://farm5.staticflickr.com/4028/4486835881_6aff2e1e4c.jpg","path":"ba6/552/ba6552e8b5242ed93e19384b51c0af62.jpg","date":"2010-03-20","year":2010,"month":3,"lon":100.2269,"lat":26.945944,"tags":"china,lijiang,yunnan","S2CellId":"80c7000000000000","result":7223,"accuracy":0.31263402,"title":"Cloud+Reflection"}
{"id":2768111422,"url":"http://farm4.staticflickr.com/3175/2768111422_9bb8b4b804.jpg","path":"a03/037/a030372c4f7b30151eadcbaeb78d394a.jpg","date":"2008-07-29","year":2008,"month":7,"lon":100.161064,"lat":25.701555,"tags":"china,dali,yunnan","S2CellId":"2dd2470000000000","result":1549,"accuracy":0.058155745,"title":"IMG_1606","description":"Signs+above+the+street+in+Dali%2C+China"}
{"id":4793779295,"url":"http://farm5.staticflickr.com/4102/4793779295_eb9eebed34.jpg","path":"f21/d2a/f21d2acf16e8b5e25cc963bb682b2c0.jpg","date":"2010-06-22","year":2010,"month":6,"lon":100.23216,"lat":26.8798,"tags":"china,lijiang,yunnan","S2CellId":"3724000000000000","result":2419,"accuracy":0.56857115,"title":"DSC_0847"}
{"id":4154714603,"url":"http://farm3.staticflickr.com/2650/4154714603_0985cd305a.jpg","path":"444/4b2/4444b2165d32f3b5e1c9cea9b212f79b.jpg","date":"2008-06-08","year":2008,"month":6,"lon":101.34064,"lat":24.83161,"tags":"road,village,yunnan","S2CellId":"7f00000000000000","result":6901,"accuracy":0.04624967,"title":"To+far+far+way"}
{"id":2858468272,"url":"http://farm4.staticflickr.com/3239/2858468272_f78e50b817.jpg","path":"975/592/9755921dcd5aea97684b6587d71e66.jpg","date":"2008-09-09","year":2008,"month":9,"lon":100.23433,"lat":26.870832,"tags":"flower,lijiang","S2CellId":"3404005400000000","result":1984,"accuracy":0.015106941,"title":"lijiang"}
{"id":3861010873,"url":"http://farm4.staticflickr.com/3422/3861010873_ca11ebfeee.jpg","path":"a73/7e8/a737e8283594c83f4cd38068c3d9ef1.jpg","date":"2009-08-21","year":2009,"month":8,"lon":100.17059,"lat":25.673712,"tags":"china,dali,yunnan","S2CellId":"3724000000000000","result":2419,"accuracy":0.87369156,"title":"the+streets+of+dali"}
{"id":2161896143,"url":"http://farm3.staticflickr.com/2294/2161896143_1504e11b00.jpg","path":"718/a5f/718a5f7443b9b6a8a94f1bc572091.jpg","date":"2008-01-01","year":2008,"month":1,"lon":100.24166,"lat":25.636108,"tags":"%E4%BA%91%E5%8D%97,%E5%A4%A7%E7%90%86,%E6%B4%B1%E6%B5%B7,dali,erhai+lake,yunnan","S2CellId":"478e900000000000","result":3682,"accuracy":0.14858031,"title":"%E6%B4%B1%E6%B5%B7"}
{"id":5743020869,"url":"http://farm4.staticflickr.com/3574/5743020869_ab3c5f5f1f.jpg","path":"578/54e/57854ec2dd21e3b4f4aa149dd87015b2.jpg","date":"2011-02-07","year":2011,"month":2,"lon":100.2035,"lat":26.915,"tags":"%E6%9D%9F%E6%B2%B3%E5%8F%A4%E9%95%87%EF%BC%88%E4%B8%BD%E6%B1%9F%EF%BC%89,iphoto+%E5%8E%9F%E5%A7%8B","S2CellId":"3143000000000000","result":1758,"accuracy":0.053266317,"title":"IMGP2457+2"}
{"id":2956579979,"url":"http://farm4.staticflickr.com/3225/2956579979_8094c4d454.jpg","path":"b89/88d/b8988d770f5dbc2a74beaa969a8a31.jpg","date":"2008-10-15","year":2008,"month":10,"lon":100.233765,"lat":26.871931,"tags":"chine,lijiang","S2CellId":"3724000000000000","result":2419,"accuracy":0.9894106,"title":"P1010645"}
{"id":3861771204,"url":"http://farm3.staticflickr.com/2449/3861771204_e7e6ddfcff.jpg","path":"ad9/727/ad972764c54742df725fbd29e89c99.jpg","date":"2009-08-21","year":2009,"month":8,"lon":100.17059,"lat":25.673712,"tags":"china,dali,yunnan","S2CellId":"30cc000000000000","result":1621,"accuracy":0.0322902,"title":"this+one+was+scary+to+look+at"}
{"id":2857891137,"url":"http://farm4.staticflickr.com/3220/2857891137_af88e00c14.jpg","path":"779/b8a/779b8a16361fc4a13f59f8e8cb13d.jpg","date":"2008-09-10","year":2008,"month":9,"lon":100.204,"lat":26.929,"tags":"lijiang,shuhe","S2CellId":"916dd70000000000","result":9619,"accuracy":0.021867445,"title":"lijiang"}
{"id":6940955151,"url":"http://farm8.staticflickr.com/7060/6940955151_7ef8f655d0.jpg","path":"fce/dd4/fcedd49c8d7f7d505f6b59a2a47bf.jpg","date":"2012-02-29","year":2012,"month":2,"lon":100.233696,"lat":26.87524,"tags":"%E4%B8%AD%E5%9B%BD,%E4%B8%BD%E6%B1%9F,%E4%BA%91%E5%8D%97,china,cn,landscape","S2CellId":"3724000000000000","result":2419,"accuracy":0.5642484,"title":"IMG_0096.jpg"}
{"id":4988072963,"url":"http://farm5.staticflickr.com/4108/4988072963_6037e8e9fd.jpg","path":"3da/7da/3da7dab5d29fdd5c38d3dff2e9612c7.jpg","date":"2010-08-31","year":2010,"month":8,"lon":100.23038,"lat":26.876774,"tags":"%E4%BA%91%E5%8D%97,%E7%8A%AC,%E7%8B%97,%E9%9B%B2%E5%8D%97,%E9%BA%97%E6%B1%9F,china,dogs,lijiang,yunnan","S2CellId":"3461000000000000","result":2114,"accuracy":0.026576817}
{"id":8393475470,"url":"http://farm9.staticflickr.com/8332/8393475470_34c3ceb888.jpg","path":"bbe/0b7/bbe0b74549abeccb64eeb4728112e9fb.jpg","date":"2011-03-04","year":2011,"month":3,"lon":100.16399,"lat":25.687422,"tags":"architecture,asia,ben+ashmole,china,city,dali,night,pagoda,temple,travel,tunnel,yunnan","S2CellId":"479f540000000000","result":3867,"accuracy":0.01629772,"title":"Tunnel+to+the+Temple%2C+Dali%2C+Yunnan+Province%2C+China","description":"The+only+way+to+get+through+the+walls+and+in+to+the+ancient+city+of+Dali+is+through+one+of+four+tunnels+at+either+gate.+I+expect+this+made+it+difficult+to+conquer.+This+shot+is+of+the+south+gate+tunnel.+The+tunnel+almost+points+you+towards+the+temple+pagoda+that+sits+in+the+centre+of+old+town.+%0A%0AAll+images+creative+commons+non+commercial.+%3Ca+href%3D%22http%3A%2F%2Fwww.ashmolephotography.com%22+rel%3D%22nofollow%22%3Ewww.ashmolephotography.com%3C%2Fa%3E"}
{"id":2281520373,"url":"http://farm3.staticflickr.com/2097/2281520373_b58503eb98.jpg","path":"24d/e41/24de41906140289b262dbe6f3abf4f.jpg","date":"2007-05-29","year":2007,"month":5,"lon":100.233246,"lat":26.871778,"tags":"china","S2CellId":"2dcc000000000000","result":1536,"accuracy":0.032720055,"title":"china+2007+295"}
{"id":6374254233,"url":"http://farm7.staticflickr.com/6038/6374254233_1db7620e93.jpg","path":"93a/52c/93a52c15a83d1cea6e85d700f0dd.jpg","date":"2011-11-04","year":2011,"month":11,"lon":100.192566,"lat":26.870018,"tags":"%E4%B8%AD%E5%9C%8B%E9%9B%B2%E5%8D%97,%E6%98%86%E5%A4%A7%E9%BA%97,%E9%BA%97%E6%B1%9F,china","S2CellId":"94cc400000000000","result":9693,"accuracy":0.0101398155,"title":"IMG_9618-1","description":"%E9%BA%97%E6%B1%9F%40%E4%B8%AD%E5%9C%8B%E9%9B%B2%E5%8D%97"}
{"id":3507219150,"url":"http://farm4.staticflickr.com/3305/3507219150_ce57ba8b93.jpg","path":"e0b/36c/e0b36cb6a810c98537f9ad3029f4572a.jpg","date":"2009-04-27","year":2009,"month":4,"lon":100.15703,"lat":25.696375,"tags":"china,dali","S2CellId":"3724000000000000","result":2419,"accuracy":0.3070414,"title":"Town+Gate"}
{"id":5158674069,"url":"http://farm5.staticflickr.com/4036/5158674069_0266ed6f41.jpg","path":"335/19b/33519ba1f840e2f12db39e6bd21268ee.jpg","date":"2010-10-13","year":2010,"month":10,"lon":100.23342,"lat":26.87844,"tags":"china,lijiang","S2CellId":"6ad1000000000000","result":6610,"accuracy":0.008373073,"title":"old+city+meets+new"}
{"id":6123022615,"url":"http://farm7.staticflickr.com/6070/6123022615_78b9c6a9ca.jpg","path":"df4/6e7/df46e7232cc9fd87c64efe9fe72ceb.jpg","date":"2010-11-11","year":2010,"month":11,"lon":100.23141,"lat":26.8732,"tags":"china,lijiang,travel","S2CellId":"30cc000000000000","result":1621,"accuracy":0.1742274,"title":"Tree+in+the+water","description":"water+just+like+a+mirror"}
