{"id":3426217004,"url":"http://farm4.staticflickr.com/3341/3426217004_52ffec3a78.jpg","path":"e67/521/e675218233b1746796c0bda55afe8de4.jpg","date":"2008-08-12","year":2008,"month":8,"lon":-57.528275,"lat":-38.02207,"tags":"argentina,debconf8,mar+del+plata","S2CellId":"151d4cc000000000","result":1387,"accuracy":0.2709368,"title":"Untitled"}
{"id":6221556265,"url":"http://farm7.staticflickr.com/6170/6221556265_74b7b6dcf5.jpg","path":"426/618/4266186a1e8321dd522525b439701ba.jpg","date":"2011-09-17","year":2011,"month":9,"lon":-57.54175,"lat":-38.005615,"tags":"arte,colombia,escultura,fernando+botero,medellin,pintura,viajes","S2CellId":"85dc000000000000","result":7496,"accuracy":0.03434759,"title":"Imagen0331"}
{"id":2188289030,"url":"http://farm3.staticflickr.com/2131/2188289030_62f9e87e48.jpg","path":"484/db8/484db83d8c8b38ec51028c0a696a151.jpg","date":"2008-01-08","year":2008,"month":1,"lon":-57.78448,"lat":-38.248966,"tags":"200801,miramar08,pincemin,xavmp","S2CellId":"5494c00000000000","result":6235,"accuracy":0.23628862,"title":"IMG_0338"}
{"id":229123743,"url":"http://farm1.staticflickr.com/88/229123743_fbccf25958.jpg","path":"1a9/837/1a98378c1484fd9cc2b8d01769dbca31.jpg","date":"2006-08-18","year":2006,"month":8,"lon":-57.530422,"lat":-38.047146,"tags":"argentina,mar+del+plata","S2CellId":"5493000000000000","result":6233,"accuracy":0.08425023,"title":"Ultima+parada","description":"Barcos+a+la+entrada+de+la+escollera+sur+de+Mar+del+Plata"}
{"id":6501245565,"url":"http://farm8.staticflickr.com/7026/6501245565_34ae3da5fc.jpg","path":"b6e/21b/b6e21b9f68ee1dfe3dac41ae94d265ee.jpg","date":"2011-12-12","year":2011,"month":12,"lon":-57.541367,"lat":-38.004448,"tags":"argentina,arqpulti,copa+davis,costa,costa+atl%C3%A1ntica,dakar,f1,formula+1,gf3,latinoamerica,lumix,mar+del+plata,mar+del+plataargentina,panasonic,playa,playas,puerto,regata+del+bicentenario,turismo,turismo+argentina,veraneo","S2CellId":"0d36700000000000","result":311,"accuracy":0.108673856,"title":"MAR+DEL+PLATA"}
{"id":5744593722,"url":"http://farm4.staticflickr.com/3233/5744593722_ee0a5f6b63.jpg","path":"77e/914/77e9143d1fe0437732f0adf8b0669f5d.jpg","date":"2010-10-02","year":2010,"month":10,"lon":-57.574333,"lat":-38.01809,"tags":"argentina,blonde,canon,girl,lionel+fernandez+roca,lionelfernandezroca.com,mar+del+plata,portrait,retrato,stranger,tmdg,trimarchi","S2CellId":"4786c14c00000000","result":3589,"accuracy":0.012066279,"title":"A+stranger+at+Trimarchi","description":"TMDG+9+%3A%3A+Noveno+encuentro+internacional+de+Dise%C3%B1o+Gr%C3%A1fico.%0A1%2C+2+y+3+de+Octubre+de+2010%2C+Mar+del+Plata%2C+Provincia+de+Buenos+Aires.%0A%0A%C2%BB+%3Ca+href%3D%22http%3A%2F%2Fwww.lionelfernandezroca.com%22+rel%3D%22nofollow%22%3Ewww.lionelfernandezroca.com%3C%2Fa%3E"}
{"id":4914160609,"url":"http://farm5.staticflickr.com/4116/4914160609_001908bc3b.jpg","path":"8d5/818/8d5818be9c6ed48a47c0827d6c42b17e.jpg","date":"2010-08-21","year":2010,"month":8,"lon":-57.5251,"lat":-38.03349,"tags":"argentina,arqpulti,barcos,buenosaires,buques,fragata+libertad,fragatas,grandes+veleros,mardelplata,mascaron+de+proa,mascarones+de+proa,nautica,navegaci%C3%B3n,nikon,puerto,puerto+mar+del+plata,regata+del+bicentenario,regatas,turismo,velamen,velas,veleros","S2CellId":"47edc00000000000","result":4703,"accuracy":0.6556094,"title":"REGATA+DEL+BICENTENARIO+MAR+DEL+PLATA","description":"Mascar%C3%B3n+de+proa+de+la+fragata+Mexicana"}
{"id":6268371104,"url":"http://farm7.staticflickr.com/6051/6268371104_96c9a41c23.jpg","path":"4f3/e6b/4f3e6bc9ab84f18822e65d342be1192d.jpg","date":"2011-09-30","year":2011,"month":9,"lon":-57.57424,"lat":-38.017735,"tags":"conference,congreso,design,estadio+polideportivo,mar+del+plata,tmdg11","S2CellId":"80c2c7d000000000","result":7208,"accuracy":0.08487451,"title":"Big+Active+en+TMDG+2011"}
{"id":2187441221,"url":"http://farm3.staticflickr.com/2242/2187441221_c8b69e624d.jpg","path":"2f2/bb9/2f2bb949472be42a5a42acd30f5298.jpg","date":"2007-04-06","year":2007,"month":4,"lon":-57.78448,"lat":-38.248966,"tags":"200801,miramar08,pincemin,xavmp","S2CellId":"959b000000000000","result":9808,"accuracy":0.036897592,"title":"IM009269","description":"Hewlett-Packard"}
{"id":4528498342,"url":"http://farm5.staticflickr.com/4029/4528498342_f5857f15ec.jpg","path":"79d/e9e/79de9e96479a379a6f7e3391ebbba.jpg","date":"2010-04-17","year":2010,"month":4,"lon":-57.528706,"lat":-38.013206,"tags":"argentina,mar+del+plata,playas","S2CellId":"9584000000000000","result":9804,"accuracy":0.81553715,"title":"MAR+DEL+PLATA+ARGENTINA","description":"Playas+de+Mar+del+Plata+Argentina"}
{"id":3425397185,"url":"http://farm4.staticflickr.com/3404/3425397185_a7e0eeabc1.jpg","path":"c13/7c7/c137c7733bf32e51065e0ff84c782f.jpg","date":"2008-08-12","year":2008,"month":8,"lon":-57.53098,"lat":-38.04783,"tags":"argentina,debconf8,mar+del+plata","S2CellId":"0dad000000000000","result":615,"accuracy":0.15590544,"title":"Untitled"}
{"id":1474771454,"url":"http://farm2.staticflickr.com/1402/1474771454_ac660ea075.jpg","path":"8ae/37e/8ae37e53b311fbb287158a350e56da7.jpg","date":"2007-01-28","year":2007,"month":1,"lon":-57.836666,"lat":-38.26878,"tags":"amanecer,argentina,costa,miramar,playa","S2CellId":"80c2b30000000000","result":7157,"accuracy":0.022314912,"title":"Miramar"}
{"id":6221559065,"url":"http://farm7.staticflickr.com/6115/6221559065_2070c72039.jpg","path":"9ab/d28/9abd28eac3ae5826acd4fd056377e.jpg","date":"2011-09-18","year":2011,"month":9,"lon":-57.54175,"lat":-38.005615,"tags":"arte,colombia,escultura,fernando+botero,medellin,pintura,viajes","S2CellId":"9584000000000000","result":9804,"accuracy":0.092496954,"title":"Imagen0425"}
{"id":480732479,"url":"http://farm1.staticflickr.com/221/480732479_49d67ab9ce.jpg","path":"b14/755/b1475584e788f892fe919a5c948d7987.jpg","date":"2007-05-01","year":2007,"month":5,"lon":-57.56338,"lat":-38.015842,"tags":"animal,animales,animals,dog,dogs","S2CellId":"12c9100000000000","result":838,"accuracy":0.02898088,"title":"P1050773.JPG","description":"Nicanor+en+la+casa+de+los+papas+de+Yesica."}
{"id":4303174509,"url":"http://farm3.staticflickr.com/2794/4303174509_784fcc5df5.jpg","path":"ebf/0e0/ebf0e0d8b9b7999ba60234e8fdc3cb.jpg","date":"2010-01-14","year":2010,"month":1,"lon":-57.612606,"lat":-38.14527,"tags":"argentina,mar+del+plata,vacaciones2010","S2CellId":"6b9c000000000000","result":6776,"accuracy":0.010564066,"title":"Rumbo+a+Chapadmalal"}
{"id":2187440711,"url":"http://farm3.staticflickr.com/2147/2187440711_9aabe1d524.jpg","path":"2a8/aaf/2a8aafebfff5dfd36292ab45fd4be3a.jpg","date":"2007-04-06","year":2007,"month":4,"lon":-57.78448,"lat":-38.248966,"tags":"200801,miramar08,pincemin,xavmp","S2CellId":"9570000000000000","result":9803,"accuracy":0.0043587815,"title":"IM009262","description":"Hewlett-Packard"}
{"id":8575427377,"url":"http://farm9.staticflickr.com/8104/8575427377_b56e8a3095.jpg","path":"16d/4ef/16d4ef66f5603cf81ca5de145fc6d5cc.jpg","date":"2013-03-15","year":2013,"month":3,"lon":-57.53992,"lat":-38.00841,"tags":"argentina,arquitectura,mar+del+plata","S2CellId":"0d5914f000000000","result":486,"accuracy":0.121727936,"title":"Medianeras+%28Mar+del+Plata%29"}
{"id":267333312,"url":"http://farm1.staticflickr.com/112/267333312_82331ef005.jpg","path":"702/03a/70203afdf42e7869cfb6b9a85f6df3a.jpg","date":"2006-10-01","year":2006,"month":10,"lon":-57.545185,"lat":-38.00401,"tags":"argentina,tmdg,trimarchi","S2CellId":"880fd24000000000","result":8163,"accuracy":0.017110853,"title":"10-01+Viagem+para+Argentina+%28144%29","description":"Vinhos%21"}
