{"id":2392068875,"url":"http://farm3.staticflickr.com/2047/2392068875_6224b386b5.jpg","path":"e83/398/e83398d836de22d89cec22fc72ff6817.jpg","date":"2007-06-09","year":2007,"month":6,"lon":17.381058,"lat":61.62704,"tags":"%C3%A5ror,calm,evening,fishing,fiskel%C3%A4ge,hudiksvall,kv%C3%A4ll,olmen,rodd,roddb%C3%A5t,stilla,village","S2CellId":"4645400000000000","result":2809,"accuracy":0.12095964,"title":"%C3%85ror","description":"En+stilla+roddtur+i+hamnbas%C3%A4ngen+mot+kv%C3%A4llningen.+Olmen+juni+2007.+Foto%3A+Lars+Ilshammar."}
{"id":2377437746,"url":"http://farm4.staticflickr.com/3094/2377437746_c88f0cfe43.jpg","path":"ef8/ee4/ef8ee4bdaa9b2452c6a7e3be1155ec4.jpg","date":"2008-03-31","year":2008,"month":3,"lon":17.381058,"lat":61.62704,"tags":"fisherman,fishing,fiskare,fiske,fiskel%C3%A4ge,hudiksvall,olmen,village","S2CellId":"3143000000000000","result":1758,"accuracy":0.03162512,"title":"Sk%C3%B6tarna+ruskas+2","description":"Str%C3%B6mmingen+ruskas+ruskas+ur+sk%C3%B6tarna+efter+fisket.+Olmen+sommaren+1980.+Foto%3A+Lars+Ilshammar."}
{"id":4353581533,"url":"http://farm3.staticflickr.com/2739/4353581533_8d6131dd94.jpg","path":"7c7/a94/7c7a94e13e1cad036e1d64be44b743.jpg","date":"2010-02-12","year":2010,"month":2,"lon":17.370672,"lat":61.987625,"tags":"winter","S2CellId":"45d4000000000000","result":2755,"accuracy":0.24803852,"title":"Winter+landscape","description":"This+is+how+it+looks+like+in+my+village.+A+lot+of+snow+this+year."}
{"id":4353735292,"url":"http://farm3.staticflickr.com/2798/4353735292_671ba29307.jpg","path":"44d/35a/44d35a5eeef01f44d3cf99d1b92d470.jpg","date":"2008-07-08","year":2008,"month":7,"lon":17.386894,"lat":61.988934,"tags":"seaweed,texture,water","S2CellId":"a9d5c00000000000","result":9945,"accuracy":0.0042293184,"title":"Water","description":"Water+surface%2C+late+summer+in+the+fishing+village."}
{"id":5901722017,"url":"http://farm7.staticflickr.com/6034/5901722017_f2837ff95c.jpg","path":"25d/770/25d770227801bf185486a893bede6c.jpg","date":"2011-07-03","year":2011,"month":7,"lon":17.214718,"lat":61.63385,"tags":"hav,helg,iggesund,kajak,ledig,paddla,sk%C3%A4rg%C3%A5rd,sol,sverige,vatten,vind","S2CellId":"46920b9000000000","result":2990,"accuracy":0.11087812}
{"id":3907114457,"url":"http://farm3.staticflickr.com/2501/3907114457_fee9ff3689.jpg","path":"afe/8f0/afe8f0304c73fc9b112f1e3e529d91.jpg","date":"2009-07-26","year":2009,"month":7,"lon":17.149347,"lat":61.32432,"tags":"evening,lake","S2CellId":"466f000000000000","result":2947,"accuracy":0.05224938,"title":"Silence."}
{"id":8947141677,"url":"http://farm9.staticflickr.com/8276/8947141677_746d0878c6.jpg","path":"e14/518/e145184657f95788b914cc4582c744e.jpg","date":"2013-05-30","year":2013,"month":5,"lon":17.244406,"lat":61.008556,"tags":"fishing+village,fiskel%C3%A4ge,g%C3%A4strikland,g%C3%A5sholma,g%C3%A5sholma+fisk+%26+caf%C3%A9,jungfrukusten,maiden+coast,r%C3%B6keri,r%C3%B6khus,smokehouse,sweden","S2CellId":"467c000000000000","result":2949,"accuracy":0.06629007,"title":"G%C3%A5sholma","description":"Fotograf+Mats+i+ett+avslappnat+samtal+med+fiskare+Rolf+Sundberg+utanf%C3%B6r+G%C3%A5sholma+Fisk+%26+Caf%C3%A9.%0A%0AFoto%3A+Mats+Lundblad%2C+AME+Intermedia"}
{"id":5431321303,"url":"http://farm5.staticflickr.com/4147/5431321303_9ab8b6e705.jpg","path":"de4/e76/de4e7675d7cfd7381239374270297635.jpg","date":"2011-02-09","year":2011,"month":2,"lon":17.0721,"lat":61.639915,"tags":"iggesund,iggesunds%C3%A5n,negativ,sverige,vatten","S2CellId":"4691000000000000","result":2978,"accuracy":0.10260836,"title":"Gamla+dammen"}
