{"id":6052966155,"url":"http://farm7.staticflickr.com/6083/6052966155_f796c007d6.jpg","path":"13b/018/13b018bddef4819bb6b641a62a6aad0.jpg","date":"2011-08-16","year":2011,"month":8,"lon":17.669659,"lat":59.183884,"tags":"insects,s%C3%B6dert%C3%A4lje","S2CellId":"4810100000000000","result":4787,"accuracy":0.03217603,"title":"Ok%C3%A4nd+spindel"}
{"id":2407313321,"url":"http://farm3.staticflickr.com/2294/2407313321_fc38f3dbe2.jpg","path":"6e2/e95/6e2e954459d88f92e5b78fcb4547acc.jpg","date":"2008-04-12","year":2008,"month":4,"lon":17.633099,"lat":59.858124,"tags":"k100d,pentax,super,uppsala","S2CellId":"14cab9bf00000000","result":1317,"accuracy":0.0043233805,"title":"Bowl","description":"In+Uppsala+Cathedral%2C+Uppsala."}
{"id":2592954748,"url":"http://farm4.staticflickr.com/3101/2592954748_735fec32d2.jpg","path":"1e1/79b/1e179b1f26ccc3712319c5e209da4be.jpg","date":"2008-06-19","year":2008,"month":6,"lon":17.99069,"lat":59.311394,"tags":"centrum+ok,fredrik+holmstr%C3%B6m,jonas+nylund,stockholm+city+cup,torbj%C3%B6rn+thufvesson,vinterviken","S2CellId":"4659400000000000","result":2884,"accuracy":0.06542227,"title":"A251069+021"}
{"id":5143804112,"url":"http://farm5.staticflickr.com/4025/5143804112_e79f107f17.jpg","path":"402/f69/402f6951d5d892ecd011cc634a5b49e7.jpg","date":"2010-09-18","year":2010,"month":9,"lon":17.683954,"lat":59.73275,"tags":"alsike,canonef85mmf12liiusm,canoneos5dmarkii,church,kyrka,uppland","S2CellId":"14cab9bf00000000","result":1317,"accuracy":0.025671043,"title":"Alsike+kyrka","description":"6723-25.+Stitched+Vertorama+%283+images%29"}
{"id":5898361447,"url":"http://farm6.staticflickr.com/5069/5898361447_19ea740be9.jpg","path":"a18/16a/a1816aa832eac0e0d3274463214bdf1.jpg","date":"2011-06-14","year":2011,"month":6,"lon":17.878145,"lat":59.317547,"tags":"drottingholm,slottet,stockholm,sweden","S2CellId":"88d0a631cabb5071","result":8563,"accuracy":0.012453334,"title":"Near+the+Chinese+Pavilion"}
{"id":5712965541,"url":"http://farm3.staticflickr.com/2292/5712965541_3661d2637b.jpg","path":"e6a/532/e6a532922f58e3e7f16ab7869a51dbb.jpg","date":"2011-05-12","year":2011,"month":5,"lon":17.826324,"lat":59.02159,"tags":"%C3%A4gg,egg,geting,getingbo,sorunda,wasp,waspnest","S2CellId":"95b5000000000000","result":9826,"accuracy":0.019163102,"title":"Getingbobyggeri%2FWaspnesting","description":"%C3%84ggl%C3%A4ggning+p%C3%A5g%C3%A5r%0ALaying+an+egg"}
{"id":2581187975,"url":"http://farm4.staticflickr.com/3021/2581187975_bccc654809.jpg","path":"d8e/ce0/d8ece054c41bfaf3e39f89c0c9e6b196.jpg","date":"2008-06-15","year":2008,"month":6,"lon":17.577524,"lat":59.90964,"tags":"foveon,sigma+dp1","S2CellId":"880e440000000000","result":8139,"accuracy":0.009332579,"title":"%231579"}
{"id":4965265226,"url":"http://farm5.staticflickr.com/4111/4965265226_3eb643dffe.jpg","path":"302/4e6/3024e642eb9e6a41e21d1cd69efc9d.jpg","date":"2010-09-06","year":2010,"month":9,"lon":17.968782,"lat":59.29184,"tags":"restaurang,v%C3%A4stertorp","S2CellId":"4876440000000000","result":5361,"accuracy":0.0032697804,"title":"I+en+liten+l%C3%A5da"}
{"id":479877387,"url":"http://farm1.staticflickr.com/215/479877387_6c7451d350.jpg","path":"226/9cb/2269cbde6d6fe2addc7dc4b7c1e0ce.jpg","date":"2007-04-30","year":2007,"month":4,"lon":17.869562,"lat":59.27634,"tags":"art,betalning,copyfight,copyme,free,gratis,illegal,klf,konst,kopimi,lagligt,legal,life,liv,offentligt,olagligt,party,payment,piracy,piratbyr%C3%A5n,piratbyran.org,privat,private,public,ritual,techology,teknik,v%C3%A5rberg,v%C3%A5rbergstoppen,valborg,walpurgis,walpurgisnacht","S2CellId":"3690000000000000","result":2402,"accuracy":0.0036400764,"title":"Incineration+can+produce+powerful+glowing"}
{"id":4942630471,"url":"http://farm5.staticflickr.com/4136/4942630471_e4b5fe7f80.jpg","path":"854/add/854add74db8365f3407b1929cb1c8d.jpg","date":"2010-08-30","year":2010,"month":8,"lon":17.637691,"lat":59.858395,"tags":"easter+2010,uppsala","S2CellId":"80db100000000000","result":7313,"accuracy":0.009120102,"title":"Silver+pool+table"}
{"id":2205734167,"url":"http://farm3.staticflickr.com/2101/2205734167_dd235430a3.jpg","path":"2ad/ef8/2adef8ddd6557685834ca8e6c412d372.jpg","date":"2008-01-20","year":2008,"month":1,"lon":17.879604,"lat":59.2583,"tags":"europe,landscape,location,mapped,nature,nordic,on+a+map,scandinavia,scenery,shore,show+me+where,v%C3%A5rby,varby,water","S2CellId":"4647000000000000","result":2811,"accuracy":0.028164076,"title":"Shore+and+sky","description":"V%C3%A5rby%2C+Sweden."}
{"id":5244051545,"url":"http://farm6.staticflickr.com/5010/5244051545_35da980471.jpg","path":"e76/020/e76020d5e2a8ecd4cd3f2f2045851a.jpg","date":"2010-11-25","year":2010,"month":11,"lon":17.993374,"lat":59.299805,"tags":"eating+design,experience+design,mixology","S2CellId":"80dd317000000000","result":7376,"accuracy":0.014117511,"title":"Secret+recipe"}
{"id":3023369772,"url":"http://farm4.staticflickr.com/3185/3023369772_0781254535.jpg","path":"329/5d4/3295d417d7344f864bf870b8adc7f982.jpg","date":"2007-02-06","year":2007,"month":2,"lon":17.960886,"lat":59.449036,"tags":"civilf%C3%B6rsvar,elefanten,nostalgi","S2CellId":"89c2588f00000000","result":8969,"accuracy":0.012128373,"title":"Elefanten"}
{"id":6948816297,"url":"http://farm8.staticflickr.com/7208/6948816297_c99884d48c.jpg","path":"352/9e0/3529e06670df6736651fdde7c9699f32.jpg","date":"2012-03-02","year":2012,"month":3,"lon":17.634987,"lat":59.854404,"tags":"slott,uppsala","S2CellId":"465fd00000000000","result":2932,"accuracy":0.056200083,"title":"Soltorn","description":"Slottets+nordliga+torn+fotograferat+en+solig+v%C3%A5rdag"}
{"id":3627451611,"url":"http://farm4.staticflickr.com/3650/3627451611_bff71873fc.jpg","path":"15f/35c/15f35cb5748bfca9fa5b857c6b21256.jpg","date":"2009-06-13","year":2009,"month":6,"lon":17.913315,"lat":59.327675,"tags":"boats,kungsholmen,marina,masts,sailboat,sailboats,stockholm,sweden","S2CellId":"465f77d000000000","result":2906,"accuracy":0.12432468,"title":"Summer+Quiet","description":"Stockholm%2C+Sweden."}
{"id":9086345665,"url":"http://farm8.staticflickr.com/7296/9086345665_074eba639b.jpg","path":"d0c/874/d0c87495caaa994d24b7d58c751807f.jpg","date":"2013-06-15","year":2013,"month":6,"lon":17.230198,"lat":59.71694,"tags":"franze%CC%81ns+charkuterier","S2CellId":"39e4000000000000","result":2487,"accuracy":0.009138527,"title":"IMG_2929"}
{"id":8176386054,"url":"http://farm9.staticflickr.com/8203/8176386054_e4a1131391.jpg","path":"b54/d6f/b54d6f64fefd6c33471f15bc07cbd.jpg","date":"2012-09-30","year":2012,"month":9,"lon":17.640234,"lat":59.858143,"tags":"fisheye","S2CellId":"4cb8950000000000","result":5865,"accuracy":0.05510748}
{"id":9218053276,"url":"http://farm4.staticflickr.com/3774/9218053276_16dff9e66d.jpg","path":"22a/c9c/22ac9c0769befdf853bd2ea6db505c.jpg","date":"2013-07-05","year":2013,"month":7,"lon":17.925035,"lat":59.31236,"tags":"instagram+app,iphoneography,rise,square,square+format","S2CellId":"47a84f4000000000","result":3913,"accuracy":0.006762469,"title":"Stash"}
{"id":2108416665,"url":"http://farm3.staticflickr.com/2250/2108416665_eb0eed5966.jpg","path":"68f/2d6/68f2d6883375458e886d246b961ba3.jpg","date":"2007-05-12","year":2007,"month":5,"lon":17.987236,"lat":59.32556,"tags":"arch,arches,b%C3%A5t,barco,barcos,boat,boats,bridge,bridges,dock,essingen,europe,evening,ldi,letideascompete,marina,mast,masts,nockebybron,sailboats,scandinavia,segelb%C3%A5t,sthm,stkhm,stockholm,stora,summer,sweden,travel,tvarbana","S2CellId":"465f9d5400000000","result":2923,"accuracy":0.06561531,"title":"Quiet+Stockholm+summer+day","description":"Stora+Essingen%2C+Stockholm%2C+Sweden.%0A%0AThe+bridge+in+the+backgound+is+the+Tranebergsbron.+The+bridge+in+the+foreground+is+for+the+tvarbana+%28kind+of+a+street+car+or+tram%29.+I+don%27t+know+the+name+of+the+bridge.%0A%0AThe+Tranebergsbron+is+also+known+as+Nockebybron."}
{"id":4696689690,"url":"http://farm2.staticflickr.com/1268/4696689690_3640b8705f.jpg","path":"3b5/e48/3b5e48a5db31d0cce2e671316b2496aa.jpg","date":"2010-06-13","year":2010,"month":6,"lon":17.907665,"lat":59.356,"tags":"moblog","S2CellId":"47d9fc0000000000","result":4490,"accuracy":0.015221525,"title":"Dags+f%C3%B6r+en+Flensburger","description":"Tyskland+spelar+ju+trots+allt+i+kv%C3%A4ll."}
{"id":8214202392,"url":"http://farm9.staticflickr.com/8337/8214202392_2abaccabd2.jpg","path":"dfa/645/dfa645b4f05a6b872892714a515e2638.jpg","date":"2010-06-14","year":2010,"month":6,"lon":17.641619,"lat":59.8539,"tags":"uppsala","S2CellId":"89c2f34000000000","result":9103,"accuracy":0.009237416,"title":"Uppsala"}
{"id":3865603462,"url":"http://farm3.staticflickr.com/2521/3865603462_9e0091c42f.jpg","path":"d63/7f6/d637f6cee51a7284fe2d26d09cbdb311.jpg","date":"2009-08-21","year":2009,"month":8,"lon":17.703823,"lat":59.27513,"tags":"helg%C3%B6,historiska+museet","S2CellId":"808e440000000000","result":7005,"accuracy":0.022482565}
{"id":5640072821,"url":"http://farm6.staticflickr.com/5104/5640072821_caa74ec113.jpg","path":"876/a3d/876a3d487a94e2737590f227691bba71.jpg","date":"2011-04-21","year":2011,"month":4,"lon":17.99647,"lat":59.36237,"tags":"earlybird,instagram+app,iphoneography,square,square+format","S2CellId":"33a99c0000000000","result":1938,"accuracy":0.01130459,"title":"Morotsbr%C3%B6d+%23twittbak"}
{"id":8085744070,"url":"http://farm9.staticflickr.com/8047/8085744070_d1b368534d.jpg","path":"21f/0f1/21f0f1f52178d7b12eb464aad6611f51.jpg","date":"2012-10-13","year":2012,"month":10,"lon":17.988739,"lat":59.359188,"tags":"ccr,crime+city+rollers,malm%C3%B6+crime+city+rollers,octoberfist,roller+derby,solna,solnahallen,sport,stockholm+roller+derby,strd","S2CellId":"4874440000000000","result":5111,"accuracy":0.25603548,"title":"Octoberfist"}
{"id":7765773740,"url":"http://farm9.staticflickr.com/8441/7765773740_14453ea434.jpg","path":"444/6e4/4446e49aea0fc26d938068ffa44ed0.jpg","date":"2012-07-30","year":2012,"month":7,"lon":17.219696,"lat":59.255,"tags":"365_1_2012,basement,castle,gripsholmsslott,k%C3%A4llare,mariefred,skumt,sweden,valv","S2CellId":"132dc00000000000","result":1055,"accuracy":0.028096087,"title":"225+av+365%2B1","description":"Det+%C3%A4r+%3Cb%3Eskumt%3C%2Fb%3E+i+k%C3%A4llarvalven."}
{"id":339546017,"url":"http://farm1.staticflickr.com/124/339546017_c882f1c822.jpg","path":"417/7ab/4177ab9ac26c823d90f2fef923b23d.jpg","date":"2006-12-31","year":2006,"month":12,"lon":17.634558,"lat":59.86132,"tags":"calle,mobile","S2CellId":"4692934000000000","result":3009,"accuracy":0.0053997287,"title":"Dreaming+over+a+cup+of+coffee"}
{"id":5171044113,"url":"http://farm5.staticflickr.com/4083/5171044113_5c184b5c8f.jpg","path":"f17/f2d/f17f2da544deb9e21d8fb4ef5337a8.jpg","date":"2010-11-06","year":2010,"month":11,"lon":17.646961,"lat":59.85862,"tags":"accordian,accordion,backpack,bag,beam,central+station,dragspal,light,musician,musiker,red,ryggs%C3%A4ck,uppsala","S2CellId":"46416ec000000000","result":2800,"accuracy":0.028342174,"title":"sun+beam","description":"8043"}
{"id":5908003650,"url":"http://farm6.staticflickr.com/5272/5908003650_bfe814df75.jpg","path":"6cb/93b/6cb93b6229614ed13ea218e87c24ac19.jpg","date":"2011-06-16","year":2011,"month":6,"lon":17.858276,"lat":59.330387,"tags":"scandinavia,stockholm,stockholm+attractions,sweden+must+see,travel+europe","S2CellId":"465f77e400000000","result":2907,"accuracy":0.07188155,"title":"CSC_0321"}
{"id":13349235025,"url":"http://farm8.staticflickr.com/7135/13349235025_53e5b84acb.jpg","path":"4a2/733/4a2733979efc140beb5cd9c90622587.jpg","date":"2013-12-08","year":2013,"month":12,"lon":17.964357,"lat":59.36501,"tags":"ifttt,ios,photos","S2CellId":"132efb7000000000","result":1068,"accuracy":0.008519664,"title":"New+photo+added+to+%22Camera+Roll%22"}
{"id":7526047390,"url":"http://farm9.staticflickr.com/8289/7526047390_7d74274cdc.jpg","path":"166/1da/1661da9ceacd27e5a62e21859d2c27f.jpg","date":"2012-07-08","year":2012,"month":7,"lon":17.990143,"lat":59.38179,"tags":"earlybird,instagram+app,iphoneography,square,square+format","S2CellId":"9630000000000000","result":9869,"accuracy":0.0057063666,"title":"Attic+of+a+mad+professor"}
{"id":486976439,"url":"http://farm1.staticflickr.com/213/486976439_d1ced59030.jpg","path":"99a/7ca/99a7cad529a50be86902a5c193876ec.jpg","date":"2007-04-30","year":2007,"month":4,"lon":17.651478,"lat":59.831123,"tags":"cakes,sista+april,uppsala,valborg","S2CellId":"48761ca530000000","result":5338,"accuracy":0.008948032,"title":"IMG_5987.JPG"}
{"id":1085118315,"url":"http://farm2.staticflickr.com/1165/1085118315_10fb4cf10b.jpg","path":"996/2e5/9962e5f4d96f8f7caa2c84ed4de4883e.jpg","date":"2007-08-11","year":2007,"month":8,"lon":17.967539,"lat":59.393852,"tags":"disc+golf,frisbeegolf,j%C3%A4rva,sdgo,stockholm,tukholma","S2CellId":"4692040000000000","result":2979,"accuracy":0.14887826,"title":"Ragna+Bygde"}
{"id":3735292113,"url":"http://farm4.staticflickr.com/3508/3735292113_30c9d40570.jpg","path":"88a/b7f/88ab7f4daa336a9c1ef7b3ee6fd319c.jpg","date":"2009-07-06","year":2009,"month":7,"lon":17.626104,"lat":59.926247,"tags":"2009,july,sweden","S2CellId":"5496400000000000","result":6277,"accuracy":0.027278153,"title":"Valsg%C3%A4rde"}
{"id":4311409074,"url":"http://farm5.staticflickr.com/4025/4311409074_13b281856e.jpg","path":"43e/c23/43ec23edb291b5529a6de8e542d71b.jpg","date":"2010-01-28","year":2010,"month":1,"lon":17.96996,"lat":59.362354,"tags":"-6c,airme,humidity+93%25,iphone,light+snow,stockholm,sundbyberg,sweden,weatherbug,wind+15kph+ese","S2CellId":"876bec4000000000","result":7871,"accuracy":0.016603274,"title":"Sundbyberg%2C+28+jan+2010","description":"Uploaded+with+%3Ca+href%3D%22http%3A%2F%2Fwww.airme.com%2F%22+rel%3D%22nofollow%22%3EAirMe%3C%2Fa%3E"}
{"id":6431208979,"url":"http://farm8.staticflickr.com/7174/6431208979_62b01570ae.jpg","path":"27a/a76/27aa7626b359ffb3228cc6d573dfb19.jpg","date":"2011-11-24","year":2011,"month":11,"lon":17.985924,"lat":59.23463,"tags":"bostad,centrum,cykel,cykelhj%C3%A4lm,huddinge,sj%C3%B6dalsv%C3%A4gen,veidekke","S2CellId":"4887c78500000000","result":5714,"accuracy":0.037898816,"title":"Mika+Mor%C3%A9n%2C+Huddinge+Cykel","description":"Mika+Mor%C3%A9n%2C+cykelfantast%2C+f%C3%B6retagare+och+%C3%A4gare+av+Huddinge+Cykel%0A%0AProjekt+i+Huddinge%3A%0ABrandstegen%3A+%3Ca+href%3D%22http%3A%2F%2Fveidekkebostad.se%2Fbrandstegen%2F%22+rel%3D%22nofollow%22%3Eveidekkebostad.se%2Fbrandstegen%2F%3C%2Fa%3E%0AS%C3%A5gb%C3%A4cken%3A+%3Ca+href%3D%22http%3A%2F%2Fveidekkebostad.se%2Fsagbacken%2F%22+rel%3D%22nofollow%22%3Eveidekkebostad.se%2Fsagbacken%2F%3C%2Fa%3E%0A%0AFoto%3A+Gitta+Wil%C3%A9n%2C+Veidekke+Bostad."}
{"id":8659009050,"url":"http://farm9.staticflickr.com/8100/8659009050_8eac1728af.jpg","path":"b09/0ca/b090ca227b153e207e2e4f3b5e1bcac6.jpg","date":"2013-04-17","year":2013,"month":4,"lon":17.624666,"lat":59.858955,"tags":"fire+truck,red,sweden,uppsala","S2CellId":"0d5914f000000000","result":486,"accuracy":0.08375299,"title":"Fire+truck"}
{"id":3871848714,"url":"http://farm3.staticflickr.com/2569/3871848714_267ebc3d57.jpg","path":"c88/69f/c8869f534be9d157ae8b29f8c0d084e.jpg","date":"2009-08-30","year":2009,"month":8,"lon":17.192823,"lat":59.62748,"tags":"nature","S2CellId":"4691000000000000","result":2978,"accuracy":0.039414898,"title":"Powerline","description":"Was+ment+for+HDR+trial%2C+but+worked+better+as+b%2Fw."}
{"id":239292533,"url":"http://farm1.staticflickr.com/94/239292533_db07544c98.jpg","path":"1d5/390/1d5390475271a4189b16973aab7b3fe.jpg","date":"2006-09-10","year":2006,"month":9,"lon":17.574133,"lat":59.91362,"tags":"2006,fika,kvarn,september,ulva","S2CellId":"465d000000000000","result":2890,"accuracy":0.10051629,"title":"Snickaren"}
{"id":6826916864,"url":"http://farm8.staticflickr.com/7038/6826916864_8e10548934.jpg","path":"b24/1f4/b241f4fe55a0e01eeb756592f447a6c1.jpg","date":"2011-12-24","year":2011,"month":12,"lon":17.9646,"lat":59.442123,"tags":"ball,christmas,christmas+tree+ornament,christmas2011,julgranskula,sollentuna","S2CellId":"465a400000000000","result":2886,"accuracy":0.0020657594,"title":"Christmas+2011"}
{"id":9305994215,"url":"http://farm6.staticflickr.com/5509/9305994215_f01a194478.jpg","path":"ffb/1bc/ffb1bc8739f46b866ec1917695deb12c.jpg","date":"2013-06-08","year":2013,"month":6,"lon":17.92929,"lat":59.40767,"tags":"bl%C3%A5berga,gravelroad,grusv%C3%A4g,logs","S2CellId":"45d4000000000000","result":2755,"accuracy":0.21864185,"title":"bl%C3%A5berga"}
{"id":6783793413,"url":"http://farm8.staticflickr.com/7010/6783793413_b22ea57b59.jpg","path":"a52/878/a5287881cf965280182c56c7a70a82e.jpg","date":"2012-01-29","year":2012,"month":1,"lon":17.619389,"lat":59.864807,"tags":"sverkerskolan,sweden,uppsala,winter","S2CellId":"4652340000000000","result":2846,"accuracy":0.007674375,"title":"Afternoon_02"}
{"id":2897360716,"url":"http://farm4.staticflickr.com/3130/2897360716_280aa3b665.jpg","path":"f2d/58d/f2d58d3a54f95b02d9e5b8327e6816b.jpg","date":"2008-09-28","year":2008,"month":9,"lon":17.868662,"lat":59.403233,"tags":"station,stockholm,suburban,sweden,train,transit","S2CellId":"47a84e1000000000","result":3905,"accuracy":0.04767161,"title":"Barkaby+station+underpass","description":"Barkaby+station+underpass"}
{"id":3614040611,"url":"http://farm4.staticflickr.com/3362/3614040611_0efdb74ffd.jpg","path":"f33/27f/f3327fc6e74e157b4ee17683f0e892.jpg","date":"2009-06-07","year":2009,"month":6,"lon":17.880163,"lat":59.162533,"tags":"cykelta%3Fvling,lida+loop","S2CellId":"465e400000000000","result":2891,"accuracy":0.07946808,"title":"DSC_0109"}
{"id":6338672714,"url":"http://farm7.staticflickr.com/6216/6338672714_18fd06e8a4.jpg","path":"da6/1b5/da61b56d714d403c3b49ba7edddea87.jpg","date":"2011-11-12","year":2011,"month":11,"lon":17.647198,"lat":59.86144,"tags":"flea+market,november,sweden,uppsala,vaksala+torg","S2CellId":"465f77e400000000","result":2907,"accuracy":0.4105846,"title":"Flea+Market"}
{"id":5799812428,"url":"http://farm3.staticflickr.com/2073/5799812428_2bba7f376e.jpg","path":"12b/03d/12b03df5328e7ed537d9f205b93f4bd.jpg","date":"2011-05-31","year":2011,"month":5,"lon":17.980856,"lat":59.516003,"tags":"natur,upplands+v%C3%A4sby","S2CellId":"54c0c00000000000","result":6302,"accuracy":0.048901327,"title":"Ekorrb%C3%A4r"}
{"id":7071715517,"url":"http://farm8.staticflickr.com/7080/7071715517_9091a5fb6e.jpg","path":"3dd/0fd/3dd0fdd590e7663db9ac7439327ecfa2.jpg","date":"2012-04-09","year":2012,"month":4,"lon":17.943163,"lat":59.343323,"tags":"bromma,car,old+car,volvo","S2CellId":"465b400000000000","result":2888,"accuracy":0.03507106,"title":"Beep+Beep.+%22Where+have+you+been%3F%3F+You%27re+50+years+late%21%21%21%22"}
{"id":4893850549,"url":"http://farm5.staticflickr.com/4073/4893850549_0fc685face.jpg","path":"4cb/a58/4cba58b5a621a929ad9760d486971.jpg","date":"2010-08-15","year":2010,"month":8,"lon":17.719616,"lat":59.61532,"tags":"2010,aug,chocolat,rc,sigtuna","S2CellId":"0d4228d000000000","result":378,"accuracy":0.026422476,"title":"RC+Chocolat"}
{"id":3355597861,"url":"http://farm4.staticflickr.com/3107/3355597861_fa4b62d621.jpg","path":"bba/ef2/bbaef2d8f9ef8ecc3a837e3f66820bf.jpg","date":"2009-03-06","year":2009,"month":3,"lon":17.609066,"lat":59.193317,"tags":"blombackaskolan,mattias,s%C3%B6dert%C3%A4lje,work","S2CellId":"89c2570000000000","result":8951,"accuracy":0.010954041,"description":"Mer+LT-jobb%3A+Vi+intervjuade+en+tjej+som+skrivit+en+l%C3%A5t+till+%C3%A5rets+version+av+S%C3%B6dert%C3%A4ljes+melodifestival.+Hon+vann+sen."}
{"id":2582017008,"url":"http://farm4.staticflickr.com/3191/2582017008_2177d79925.jpg","path":"958/947/958947dc69c75e8fa5f43ab71771d7b.jpg","date":"2008-06-15","year":2008,"month":6,"lon":17.57747,"lat":59.90873,"tags":"cloud,foveon,sigma+dp1","S2CellId":"3468b00000000000","result":2163,"accuracy":0.017374067,"title":"%231580"}
{"id":4143048683,"url":"http://farm3.staticflickr.com/2659/4143048683_4376ee07a6.jpg","path":"acc/975/acc975a691e97f4885399f17d4929ea.jpg","date":"2009-11-28","year":2009,"month":11,"lon":17.684425,"lat":59.867977,"tags":"canom+ef+85+mm+f%2F1.8+usm,canom+eos+5d+mark+ii,canonef85mmf18usm,park,stairs","S2CellId":"479e7c0000000000","result":3861,"accuracy":0.03200705,"title":"0182-84+Autumn+Park+3","description":"Stitched+Panorama"}
{"id":5799263489,"url":"http://farm3.staticflickr.com/2347/5799263489_ba8ebea7b7.jpg","path":"406/b3c/406b3c9cd7f59163b8a994db4627c63.jpg","date":"2011-05-31","year":2011,"month":5,"lon":17.981457,"lat":59.51673,"tags":"natur,upplands+v%C3%A4sby","S2CellId":"46f9000000000000","result":3115,"accuracy":0.010331729,"title":"Mormors+glas%C3%B6gon"}
{"id":196471027,"url":"http://farm1.staticflickr.com/71/196471027_bf521d4b34.jpg","path":"3d8/a98/3d8a98325ea1ef501e8117367ce60.jpg","date":"2006-07-23","year":2006,"month":7,"lon":17.630106,"lat":59.857754,"tags":"jeff,uppsala","S2CellId":"46416e7c00000000","result":2799,"accuracy":0.042542234,"title":"IMG_3997.JPG"}
{"id":6687697465,"url":"http://farm8.staticflickr.com/7143/6687697465_b2b63a5cb4.jpg","path":"a8c/1bc/a8c1bc2fc41f3130ccfc16939ff689.jpg","date":"2011-12-27","year":2011,"month":12,"lon":17.943205,"lat":59.408066,"tags":"clouds,sky,winter","S2CellId":"88d0a631cabb5071","result":8563,"accuracy":0.010668135,"title":"IMG_2898"}
{"id":9664653265,"url":"http://farm4.staticflickr.com/3726/9664653265_8173517d01.jpg","path":"816/d83/816d8392e884771de47cca9e955ac2.jpg","date":"2013-09-01","year":2013,"month":9,"lon":17.831133,"lat":59.2214,"tags":"botkyrka+days,botkyrkadagen,h%C3%A5gelby,parrot,sveriges+papegojf%C3%B6rening","S2CellId":"487eb00000000000","result":5660,"accuracy":0.010296693,"title":"Botkyrkadagen_2013_100"}
{"id":8518461074,"url":"http://farm9.staticflickr.com/8376/8518461074_6db8e32c7b.jpg","path":"16e/d8e/16ed8ed1143f7133277e07ceceffc.jpg","date":"2013-02-28","year":2013,"month":2,"lon":17.628035,"lat":59.8565,"tags":"minimalism,shadows,sweden,uppsala","S2CellId":"808f7fd000000000","result":7036,"accuracy":0.0036380128,"title":"Mini_02"}
{"id":363691117,"url":"http://farm1.staticflickr.com/131/363691117_734b55323c.jpg","path":"e85/09c/e8509c54dc5535df9411d6c67df7eeb.jpg","date":"2006-09-16","year":2006,"month":9,"lon":17.911266,"lat":59.2671,"tags":"s%C3%A4rskrivning","S2CellId":"89d0400000000000","result":9221,"accuracy":0.00582258,"title":"Telefon+tillbeh%C3%B6r"}
{"id":3942588446,"url":"http://farm4.staticflickr.com/3481/3942588446_5818ca3e1f.jpg","path":"a57/1d0/a571d09ebc6176d6b72195fdfe67812b.jpg","date":"2009-09-22","year":2009,"month":9,"lon":17.721977,"lat":59.29863,"tags":"eker%C3%B6,rosenhill,stockholm,sweden","S2CellId":"472c000000000000","result":3253,"accuracy":0.016913021,"title":"Jakuli%3F","description":"Shot+at+Rosenhill+farm%2C+Eker%C3%B6+outside+Stockholm+city.%0A%0A5D%2C+EF17-35%2C+1%3A2%2C8+L"}
{"id":6857859477,"url":"http://farm8.staticflickr.com/7066/6857859477_33418ea9aa.jpg","path":"f72/33a/f7233a5348953e26d26e2e053c4ec4a.jpg","date":"2012-02-10","year":2012,"month":2,"lon":17.63737,"lat":59.857983,"tags":"frost,fyris%C3%A5n,fyris+river,nybron,silver+tree,sweden,uppsala,winter","S2CellId":"4796c85000000000","result":3753,"accuracy":0.09211845,"title":"Silvertrees_04"}
{"id":2341234065,"url":"http://farm3.staticflickr.com/2241/2341234065_daabc631a7.jpg","path":"b71/b3f/b71b3fd0f2f928dd6a7c16e8441c8a.jpg","date":"2008-03-16","year":2008,"month":3,"lon":17.522463,"lat":59.382336,"tags":"stoccolma,stockholm,svezia","S2CellId":"89b9400000000000","result":8914,"accuracy":0.050173674,"title":"P1070694.JPG"}
{"id":334378009,"url":"http://farm1.staticflickr.com/134/334378009_bfb76a60d7.jpg","path":"d85/a24/d85a240a15ac352f54af3eaa0ef3a.jpg","date":"2006-12-26","year":2006,"month":12,"lon":17.682966,"lat":59.94721,"tags":"christmas+trees","S2CellId":"468df00000000000","result":2973,"accuracy":0.041840807,"title":"IMG_5263.JPG"}
{"id":8360119635,"url":"http://farm9.staticflickr.com/8507/8360119635_0c49bb5a65.jpg","path":"e56/ca0/e56ca07aa26911fdd942e23a39e7aa6.jpg","date":"2012-10-04","year":2012,"month":10,"lon":17.964638,"lat":59.44223,"tags":"belgium,ghent","S2CellId":"47e66e0c00000000","result":4586,"accuracy":0.139537,"title":"ghent+october+2012"}
{"id":8831093566,"url":"http://farm6.staticflickr.com/5345/8831093566_083ae65f53.jpg","path":"c35/4bf/c354bff9696860511a48f353e8eeb96b.jpg","date":"2013-05-25","year":2013,"month":5,"lon":17.627434,"lat":59.85167,"tags":"botaniska+tr%C3%A4dg%C3%A5rden,kulturernas+karneval,red,sweden,uppsala,uppsala+botanical+garden,white","S2CellId":"4651000000000000","result":2842,"accuracy":0.0041752863,"title":"Red+cloth"}
{"id":336617267,"url":"http://farm1.staticflickr.com/133/336617267_8fe01ff0bf.jpg","path":"ce3/3a0/ce33a034e74b1805924aec8fc06467.jpg","date":"2006-12-24","year":2006,"month":12,"lon":17.937069,"lat":59.422726,"tags":"christmas,graham,sarah,stockholm,sweden","S2CellId":"89acf40000000000","result":8793,"accuracy":0.3194135,"title":"Daisy"}
{"id":4250789360,"url":"http://farm3.staticflickr.com/2752/4250789360_9f861799ef.jpg","path":"24d/ddc/24dddca2aa7360f6906f67a037221a75.jpg","date":"2009-10-18","year":2009,"month":10,"lon":17.069193,"lat":59.61922,"tags":"enk%C3%B6ping","S2CellId":"47e7c00000000000","result":4691,"accuracy":0.0104786595,"title":"PA188430"}
{"id":6177448560,"url":"http://farm7.staticflickr.com/6156/6177448560_86b0633ff5.jpg","path":"3c5/76d/3c576db86dc33decbc3b154ccb3d998f.jpg","date":"2011-09-24","year":2011,"month":9,"lon":17.462769,"lat":59.41041,"tags":"jetty,lake,landscape,nature,water","S2CellId":"52b7000000000000","result":5997,"accuracy":0.032801934,"title":"Jetty","description":"Created+from+5+exposures+made+by+my+Nikon+Coolpix+7000"}
{"id":6155142207,"url":"http://farm7.staticflickr.com/6195/6155142207_344650214d.jpg","path":"701/ae0/701ae0f122d5bad3749d713b48e21d7.jpg","date":"2011-09-17","year":2011,"month":9,"lon":17.775738,"lat":59.81734,"tags":"hammarby,linn%C3%A9,linn%C3%A9s,triller,uppsala","S2CellId":"487c940000000000","result":5615,"accuracy":0.0036763093,"title":"Linn%C3%A9s+Hammarby"}
{"id":7365093226,"url":"http://farm8.staticflickr.com/7228/7365093226_f00e192c35.jpg","path":"75b/441/75b4411e4a498acff99347912f90dc.jpg","date":"2012-06-12","year":2012,"month":6,"lon":17.886984,"lat":59.352962,"tags":"earlybird,instagram+app,iphoneography,square,square+format","S2CellId":"876f000000000000","result":7903,"accuracy":0.005191837,"title":"B"}
{"id":5808714363,"url":"http://farm3.staticflickr.com/2557/5808714363_deb56cc327.jpg","path":"f68/b3c/f68b3c296e46a949a35eb2321be4d83.jpg","date":"2011-06-03","year":2011,"month":6,"lon":17.943806,"lat":59.403183,"tags":"stockholm,sweden","S2CellId":"3442acc000000000","result":2083,"accuracy":0.018541692,"title":"Opera+Tickets"}
{"id":7864619748,"url":"http://farm9.staticflickr.com/8298/7864619748_3a0d3ddeca.jpg","path":"2a8/065/2a8065a18bf5bfea67895a5eeaeecea.jpg","date":"2012-08-17","year":2012,"month":8,"lon":17.634836,"lat":59.86228,"tags":"chimney,cold+frame,linn%C3%A9tr%C3%A4dg%C3%A5rden,roof,solarium,sweden,the+linnaeus+garden,uppsala","S2CellId":"46524c0000000000","result":2849,"accuracy":0.0221314,"title":"The+Linnaeus+Garden_07"}
{"id":548133632,"url":"http://farm2.staticflickr.com/1322/548133632_e8c372d237.jpg","path":"7fe/6ac/7fe6ac5d9202b4569b8c0c86c5cc7b2.jpg","date":"2007-06-09","year":2007,"month":6,"lon":17.929688,"lat":59.445076,"tags":"stockholm,sweden","S2CellId":"47ab400000000000","result":3956,"accuracy":0.051956203,"title":"Stockholm"}
{"id":4854180371,"url":"http://farm5.staticflickr.com/4141/4854180371_1b1b4c8b73.jpg","path":"3b7/55e/3b755ec452b4ee3323f4b6f31634fda.jpg","date":"2010-07-31","year":2010,"month":7,"lon":17.929667,"lat":59.618332,"tags":"aquafun,moblog","S2CellId":"87f6700000000000","result":8059,"accuracy":0.018335924,"title":"Fun"}
{"id":5582026704,"url":"http://farm6.staticflickr.com/5266/5582026704_71e60e4a4c.jpg","path":"f26/25b/f2625b96369519a679d56a5592ec888.jpg","date":"2011-04-02","year":2011,"month":4,"lon":17.943249,"lat":59.404297,"tags":"%D8%A8%D8%A7%D8%B1%D8%A7%D9%86,%D9%86%D8%B4%D8%B1,baran+f%C3%B6rlag,nashre+baran,www.baran.se","S2CellId":"5495a0b000000000","result":6261,"accuracy":0.004421408,"title":"t_Yek%2520baghalroz%2520baraaye%2520asbe%2520kahar"}
{"id":7065103491,"url":"http://farm6.staticflickr.com/5347/7065103491_4a59b775b8.jpg","path":"64a/3d5/64a3d51db51ee4382197395e7164.jpg","date":"2012-03-30","year":2012,"month":3,"lon":17.635496,"lat":59.86258,"tags":"2012,2012-03-30-717,architecture,building,cameraphone,carl+zeiss,eriksberg,hugovk,hvk,kev%C3%A4t,march,n8,n8-00,nokia,nokia+n8,nokia+n8-00,spring,sverige,sweden,uppsala","S2CellId":"4645400000000000","result":2809,"accuracy":0.0976515,"title":"Uppsala"}
{"id":5008821788,"url":"http://farm5.staticflickr.com/4092/5008821788_6e13824b6b.jpg","path":"d89/c76/d89c769ef2c1c7effad56c92809a3b41.jpg","date":"2010-09-20","year":2010,"month":9,"lon":17.96565,"lat":59.36257,"tags":"365,black+and+white,bw,pucko,reflection,stockholm,sundbyberg,sweden","S2CellId":"3f90000000000000","result":2633,"accuracy":0.0031503702,"title":"Dagens+foto+-+176"}
{"id":5734286561,"url":"http://farm4.staticflickr.com/3626/5734286561_cc0b362beb.jpg","path":"de3/f93/de3f9358ef6ec90fe80bd81e56a2.jpg","date":"2011-05-18","year":2011,"month":5,"lon":17.7706,"lat":59.218307,"tags":"church,cross,crosses,s%C3%B6dermanland,salem,sweden,wood,wooden","S2CellId":"465d000000000000","result":2890,"accuracy":0.013997129,"title":"Wooden+crosses"}
{"id":9240632977,"url":"http://farm3.staticflickr.com/2837/9240632977_48d06d8dd8.jpg","path":"6ef/474/6ef474074b3a4e7e985265245594b5.jpg","date":"2012-12-25","year":2012,"month":12,"lon":17.63074,"lat":59.89264,"tags":"agfa,apx,autumn,black+and+white,fa,fall,nikon,retro,rollei,shadows,sweden,uppsala","S2CellId":"48cd000000000000","result":5785,"accuracy":0.03142266,"title":"Once+upon+a+time+in+Uppsala+V","description":"Continuing+the+little+photo+series+about+Uppsala.+The+photos+show+the+burial+mounds+of+%3Ca+href%3D%22http%3A%2F%2Fen.wikipedia.org%2Fwiki%2FGamla_Uppsala%22+rel%3D%22nofollow%22%3EGamla+Uppsala%3C%2Fa%3E%2C+north+of+Uppsala%2C+built+some+1500+years+ago.%0A%0ASeptember+2012"}
{"id":438918792,"url":"http://farm1.staticflickr.com/188/438918792_c2c0b82915.jpg","path":"f97/53f/f9753f65da1e269fb1dd179b7d34ed8e.jpg","date":"2007-03-26","year":2007,"month":3,"lon":17.894743,"lat":59.408787,"tags":"2007,eyes,head,sheep","S2CellId":"88d0a631cabb5071","result":8563,"accuracy":0.028558748,"title":"_MG_0023"}
{"id":6005865558,"url":"http://farm7.staticflickr.com/6146/6005865558_70a09a57ff.jpg","path":"3f5/92e/3f592e8b5f2951e8ad3da3f43914e6ce.jpg","date":"2011-07-31","year":2011,"month":7,"lon":17.059402,"lat":59.831936,"tags":"fj%C3%A4rdhundra,skattmans%C3%B6%C3%A5dalen,skattmans%C3%B6stugan,skidbacke,uppland","S2CellId":"88d9b6c000000000","result":8600,"accuracy":0.018282874,"title":"Skattmans%C3%B6%C3%A5dalen"}
{"id":3594699763,"url":"http://farm4.staticflickr.com/3653/3594699763_9d94c4cc8c.jpg","path":"999/5bb/9995bbea7521ef32e6ce77845ef3c047.jpg","date":"2008-07-25","year":2008,"month":7,"lon":17.628078,"lat":59.85196,"tags":"nordeuropa,onrails08,reise,schweden,skandinavien,sverige,uppsala","S2CellId":"4cce044000000000","result":5915,"accuracy":0.003938899,"title":"Slogan+von+Uppsala","description":"%C3%BCbersetzt+auf+Deutsch%3A+%3Cem%3EUppsala.+Linn%C3%A9s+Stadt.+Jeden+Tag+seit+1728.%3C%2Fem%3E"}
{"id":8827214970,"url":"http://farm3.staticflickr.com/2889/8827214970_e692563f42.jpg","path":"6bc/055/6bc055c8ab37359dc64f7aef8b1947c0.jpg","date":"2013-05-25","year":2013,"month":5,"lon":17.9795,"lat":59.4035,"tags":"instagram+app,iphoneography,lord+kelvin,square,square+format","S2CellId":"4794d00000000000","result":3734,"accuracy":0.007611475,"title":"V%C3%A4ntar+p%C3%A5+Melissa+p%C3%A5+skolans+kaffet+%2F+Esperando+a+Melissa+en+cafeter%C3%ADa+de+la+escuela"}
{"id":4547779863,"url":"http://farm5.staticflickr.com/4038/4547779863_5eaf50a497.jpg","path":"e81/037/e81037287b30e8fc561cfaf4d3833499.jpg","date":"2010-04-24","year":2010,"month":4,"lon":17.914988,"lat":59.3511,"tags":"april,bl%C3%A5sipor","S2CellId":"6b9c000000000000","result":6776,"accuracy":0.010415799,"title":"Bl%C3%A5sippor","description":"Kyrksj%C3%B6n"}
{"id":8706842789,"url":"http://farm9.staticflickr.com/8118/8706842789_d25564d653.jpg","path":"9c8/e1f/9c8e1f33429dbd0b5189c2cba8dabf0.jpg","date":"2013-05-05","year":2013,"month":5,"lon":17.996452,"lat":59.343815,"tags":"bird,gull,seagull","S2CellId":"88d0a631cabb5071","result":8563,"accuracy":0.008542189,"title":"Black+headed+gull"}
{"id":264158286,"url":"http://farm1.staticflickr.com/99/264158286_b76ef0eab6.jpg","path":"233/e76/233e768ba728df5f59217629299d6ab4.jpg","date":"2006-10-08","year":2006,"month":10,"lon":17.946596,"lat":59.40813,"tags":"allevag,kista,nenyaki,stockholm,sweden","S2CellId":"465253c000000000","result":2863,"accuracy":0.011478791,"title":"To+dwmatio+mou%21"}
{"id":2931708265,"url":"http://farm4.staticflickr.com/3220/2931708265_6c6b41f93b.jpg","path":"af2/765/af2765b7124013a41df24e1f89293d67.jpg","date":"2008-10-11","year":2008,"month":10,"lon":17.944504,"lat":59.452667,"tags":"c902+phone,shozu","S2CellId":"47add00000000000","result":3963,"accuracy":0.1066338,"title":"Axel+gungar+mera","description":"-+Camera+phone+upload+powered+by+%3Ca+href%3D%22http%3A%2F%2Fwww.shozu.com%2F%3Futm_source%3Dupload%26utm_medium%3Dgraphic%26utm_campaign%3Dupload_graphic%2F%22+target%3D%22_newwindow%22%3EShoZu%3C%2Fa%3E"}
{"id":3314039467,"url":"http://farm4.staticflickr.com/3604/3314039467_f114d779bf.jpg","path":"a64/242/a64242eb4877e09941d6e21d78454c2.jpg","date":"2009-02-22","year":2009,"month":2,"lon":17.924044,"lat":59.28931,"tags":"boll,cotton,snow,winter","S2CellId":"4715400000000000","result":3203,"accuracy":0.028885927,"title":"Snowboll"}
{"id":6869673675,"url":"http://farm8.staticflickr.com/7039/6869673675_84f6d8dc5d.jpg","path":"c94/42d/c9442df0dd22ce369ccf4efc5bebdc2c.jpg","date":"2012-02-13","year":2012,"month":2,"lon":17.938013,"lat":59.4838,"tags":"%40ei200,analog,b%26w,bessa-r,d76+1%2B1,film,jupiter-8,kodak,rangefinder,stockholm,t-max,tmax100","S2CellId":"45d4000000000000","result":2755,"accuracy":0.06119275,"title":"Sea+of+white","description":"I+think+this+might%27ve+looked+better+on+medium+format.%0A%0ABessa-R%2C+Jupiter-8%2C+TMAX100+%40EI200%2C+D76+1%2B1%0A%3Ca+href%3D%22http%3A%2F%2Ffilmdev.org%2Frecipe%2Fshow%2F8053%22+rel%3D%22nofollow%22%3EDevelopment+details+on+FilmDev%3C%2Fa%3E"}
{"id":7433353818,"url":"http://farm6.staticflickr.com/5080/7433353818_a69363a22c.jpg","path":"ceb/78c/ceb78cdee779c488b55e638612a0d98e.jpg","date":"2012-06-22","year":2012,"month":6,"lon":17.828588,"lat":59.220825,"tags":"h%C3%A5gelby,midsommar,midsummer,park","S2CellId":"8084c00000000000","result":6909,"accuracy":0.042674053,"title":"Midsummer+in+H%C3%A5gelby+park"}
{"id":471586730,"url":"http://farm1.staticflickr.com/167/471586730_970da906e2.jpg","path":"2de/cbe/2decbe179fb58a2b0ad63c73498d76.jpg","date":"2007-04-18","year":2007,"month":4,"lon":17.95225,"lat":59.402832,"tags":"interactiveinstitute","S2CellId":"89e370b000000000","result":9319,"accuracy":0.003869645,"title":"IMG_6057.JPG","description":"Light+switches+that+want+to+be+turned+off.+The+left+one+is+a+dimmer%2C+the+right+one+a+regular+switch."}
{"id":4992767734,"url":"http://farm5.staticflickr.com/4086/4992767734_353910e205.jpg","path":"e15/e86/e15e8629966bace58be9db9e99d6cf6f.jpg","date":"2010-09-15","year":2010,"month":9,"lon":17.92664,"lat":59.6789,"tags":"a380,arlanda,landing,stockholm","S2CellId":"4691000000000000","result":2978,"accuracy":0.10859029}
{"id":5270830139,"url":"http://farm6.staticflickr.com/5084/5270830139_6838893fbc.jpg","path":"b2e/b88/b2eb889c4e1131c8728fc776f3c1b1e.jpg","date":"2010-12-18","year":2010,"month":12,"lon":17.826519,"lat":59.021584,"tags":"aegithalos+caudatus,bird,f%C3%A5gel,longtailed+tit,pentaxk5,sorunda,stj%C3%A4rtmes,sweden,talgboll","S2CellId":"88d0a631cabb5071","result":8563,"accuracy":0.012393997,"title":"Stj%C3%A4rtmes%2F+Longtailed+tit+%28Aegithalos+caudatus%29","description":"Skulle+passa+bra+som+julgransprydnad.%0A%0AAlmost+a+Christmastree+decoration."}
{"id":5473302923,"url":"http://farm6.staticflickr.com/5299/5473302923_8723e13d43.jpg","path":"a3b/3b7/a3b3b7e6cebc1fd29af5be538e1d347.jpg","date":"2011-02-24","year":2011,"month":2,"lon":17.9415,"lat":59.30033,"tags":"instagram,iphoneography,olle,screensaverimage,square,square+format","S2CellId":"88e7d00000000000","result":8692,"accuracy":0.2632056,"title":"Hall%C3%A5%3F"}
{"id":5670028273,"url":"http://farm6.staticflickr.com/5184/5670028273_429cb0af41.jpg","path":"812/ed7/812ed75f78ed5a2c831c5dad2a5270.jpg","date":"2011-04-29","year":2011,"month":4,"lon":17.63382,"lat":59.85934,"tags":"sweden,uppsala","S2CellId":"4796c85000000000","result":3753,"accuracy":0.15866548,"title":"Nice+Lunch"}
{"id":13794984653,"url":"http://farm4.staticflickr.com/3790/13794984653_f226647e2a.jpg","path":"527/06b/52706b2b347094ecc3ecd70df22e03e.jpg","date":"2013-10-12","year":2013,"month":10,"lon":17.62212,"lat":59.702847,"tags":"skokloster","S2CellId":"88d0a631cabb5071","result":8563,"accuracy":0.013178077,"title":"skoklostertur"}
{"id":3476354287,"url":"http://farm4.staticflickr.com/3379/3476354287_d10d9d9f17.jpg","path":"6fd/183/6fd1833782d8ec1f9a8acefca71624a.jpg","date":"2009-04-26","year":2009,"month":4,"lon":17.898401,"lat":59.35822,"tags":"%C3%A4ngby,%C3%A4ppelg%C3%A5rden,%C3%A4ppellunden,beckomberga,beckombergabildspel,bostad,bostadsr%C3%A4tt,bostadsr%C3%A4ttsf%C3%B6rening,bromma,sim-+och+idrottshall,veidekke","S2CellId":"6d318a3000000000","result":6816,"accuracy":0.75040686,"title":"Veidekke+Beckomberga+%E2%80%93+Sim-+och+Idrottshall","description":"Projekt%3A+Brf+%C3%84ppelg%C3%A5rden%2C+Bromma%0A%3Ca+href%3D%22http%3A%2F%2Fveidekkebostad.se%2Fappelgarden%2F%22%3Eveidekkebostad.se%2Fappelgarden%2F%3C%2Fa%3E%0A%0AProjekt%3A+%C3%84ppellunden%2C+Bromma+-+radhus%0A%3Ca+href%3D%22http%3A%2F%2Fveidekkebostad.se%2Fappellunden%2F%22%3Eveidekkebostad.se%2Fappellunden%2F%3C%2Fa%3E%0A%0AFoto%3A+Gitta+Wil%C3%A9n%2C+Veidekke+Bostad."}
{"id":4453514474,"url":"http://farm5.staticflickr.com/4060/4453514474_a8751930b0.jpg","path":"fe5/143/fe5143e6ddc70d7137a5f2ce6dd9ec.jpg","date":"2010-03-22","year":2010,"month":3,"lon":17.908545,"lat":59.529484,"tags":"hipstamatic","S2CellId":"6b13400000000000","result":6709,"accuracy":0.0037495394,"title":"Poo","description":"We+were+doing+faces+for+random+emotions+on+the+commuter+train%2C+this+one+depicts+%22poo%22."}
{"id":6458574833,"url":"http://farm8.staticflickr.com/7014/6458574833_c26123b212.jpg","path":"885/d8e/885d8e3aba2a0ed30712b6d4b89067.jpg","date":"2011-11-21","year":2011,"month":11,"lon":17.83832,"lat":59.617966,"tags":"brombergs,destination,kulturum,litteraturkv%C3%A4ll,m%C3%A4rsta,sigtuna","S2CellId":"54906ab300000000","result":6212,"accuracy":0.005359687,"title":"Sigtuna+Litteraturkv%C3%A4ll","description":"Bilder+fr%C3%A5n+Sigtuna+Litteraturkv%C3%A4ll+den+21%2F11-11"}
{"id":5664345059,"url":"http://farm6.staticflickr.com/5063/5664345059_239f9741d1.jpg","path":"465/b83/465b838edac1bfb82d930e5ee6f75a.jpg","date":"2011-04-28","year":2011,"month":4,"lon":17.927166,"lat":59.6445,"tags":"airport,arlanda,camera%2B,cameraphone,gate+63a,iphone,iphone4,mobile,sweden,terminal+2","S2CellId":"31da3cc000000000","result":1877,"accuracy":0.053971145,"title":"Terminal+2+-+Gate+63A"}
{"id":1525365486,"url":"http://farm3.staticflickr.com/2102/1525365486_69d92c1c4e.jpg","path":"693/8bd/6938bd1394b64c26c55937f031f82369.jpg","date":"2007-07-30","year":2007,"month":7,"lon":17.219158,"lat":59.256184,"tags":"2007,abigfave,curtain,f%C3%B6nster,gardin,gripsholm+castle,gripsholms+slott,juli,july,mariefred,sweden,window","S2CellId":"12a4a2ec00000000","result":727,"accuracy":0.0039873575,"title":"Gripsholm"}
{"id":2951279106,"url":"http://farm4.staticflickr.com/3250/2951279106_2ef5640bd1.jpg","path":"dbc/b29/dbcb29c4e639a7e245f9e8751eeaac4.jpg","date":"2008-09-28","year":2008,"month":9,"lon":17.884325,"lat":59.425175,"tags":"cow","S2CellId":"89b9400000000000","result":8914,"accuracy":0.037217077,"title":"cows+encounter"}
{"id":4233688298,"url":"http://farm5.staticflickr.com/4023/4233688298_92c0eec6ee.jpg","path":"f09/43b/f0943bf09f96e1c98b8a4b1fbdd36c9.jpg","date":"2008-11-22","year":2008,"month":11,"lon":17.879992,"lat":59.348747,"tags":"att+bes%C3%B6ka+en+roman,blackeberg,john+ajvide+lindqvist,l%C3%A5t+den+r%C3%A4tte+komma+in","S2CellId":"89d5400000000000","result":9263,"accuracy":0.019239463,"title":"Blackeberg"}
{"id":2571345192,"url":"http://farm4.staticflickr.com/3275/2571345192_54475c0063.jpg","path":"a22/ab9/a22ab97f6781a5173c14b7c02272f599.jpg","date":"2008-06-10","year":2008,"month":6,"lon":17.99037,"lat":59.24777,"tags":"%C3%B6l,em2008,mat,stuvsta,v%C3%A4nner","S2CellId":"464cc00000000000","result":2821,"accuracy":0.069117166,"title":"EM-premi%C3%A4r+och+grill+i+Stuvsta","description":"Petra+och+Roger."}
{"id":4183162648,"url":"http://farm3.staticflickr.com/2517/4183162648_27f1ab6d0e.jpg","path":"93d/321/93d32180bfebeb3772cb1253e0d7e03b.jpg","date":"2009-12-13","year":2009,"month":12,"lon":17.941458,"lat":59.30022,"tags":"badrum,renovering","S2CellId":"883cae5000000000","result":8363,"accuracy":0.047253918,"title":"Nu+%C3%A4r+badrummet+klart%21"}
{"id":8236881439,"url":"http://farm9.staticflickr.com/8205/8236881439_1bae5c57d0.jpg","path":"8d6/faa/8d6faa686c1ab9c64a3699c653653c9a.jpg","date":"2012-12-01","year":2012,"month":12,"lon":17.991486,"lat":59.299107,"tags":"bouldering,climbing,competition,la+sportiva,rock+climbing,sean+mccoll,sport","S2CellId":"477f5e4000000000","result":3502,"accuracy":0.59361464,"title":"IMG_2286+copy"}
{"id":4184340699,"url":"http://farm3.staticflickr.com/2556/4184340699_f9147a15ff.jpg","path":"d4b/cf6/d4bcf650e9788c277189b277b914d7d9.jpg","date":"2010-01-11","year":2010,"month":1,"lon":17.021694,"lat":59.369595,"tags":"bostad,omr%C3%A5det,str%C3%A4ngn%C3%A4s,veidekke","S2CellId":"470c400000000000","result":3179,"accuracy":0.029287146,"title":"Str%C3%A4ngn%C3%A4s%2C+utsikt+fr%C3%A5n+Vallbyv%C3%A4gen","description":"Projekt%3A+Sagoskogen%2C+Str%C3%A4ngn%C3%A4s.%0A%3Ca+href%3D%22http%3A%2F%2Fveidekkebostad.se%2Fsagoskogen%2F%22+rel%3D%22nofollow%22%3Eveidekkebostad.se%2Fsagoskogen%2F%3C%2Fa%3E%0A%0AFoto%3A+Gitta+Wil%C3%A9n%2C+Veidekke+Bostad."}
{"id":882040481,"url":"http://farm2.staticflickr.com/1219/882040481_bec67cede2.jpg","path":"8a1/62c/8a162c64a3db46a277a9f70c413ec16.jpg","date":"2007-07-22","year":2007,"month":7,"lon":17.618925,"lat":59.859966,"tags":"bike,karamanis,parking,signs,sverige,sweden,tree,uppsala","S2CellId":"54c1400000000000","result":6303,"accuracy":0.0025033106,"title":"Signs"}
{"id":7800862240,"url":"http://farm8.staticflickr.com/7277/7800862240_f776514a05.jpg","path":"4a7/b3f/4a7b3fd7d49d817292d4089386a485.jpg","date":"2012-08-17","year":2012,"month":8,"lon":17.63342,"lat":59.86142,"tags":"linn%C3%A9gatan,street,sweden,uppsala","S2CellId":"465fd00000000000","result":2932,"accuracy":0.031585034,"title":"Linn%C3%A9gatan%2C+Uppsala%2C+Sweden"}
{"id":2665081834,"url":"http://farm4.staticflickr.com/3275/2665081834_38348eea92.jpg","path":"5a7/f51/5a7f51fa131e65c787d06b4ab280af.jpg","date":"2007-05-25","year":2007,"month":5,"lon":17.959684,"lat":59.449142,"tags":"1977,blast,briefing,bunker,center,civil,cold,communications,crypto,defense,dormitories,exploring,facility,hatch,kitchen,military,mountain,nuclear,operations,shockwave,sickbay,telecommunications,ue,underground,urban,urbex,war","S2CellId":"0d56c00000000000","result":472,"accuracy":0.0030277704,"title":"Decontamination+shower","description":"For+the+guard+after+his+shift%3F+For+latecomers+who+hadn%27t+made+it+to+the+bunker+when+the+Bomb+fell%3F"}
{"id":6047348593,"url":"http://farm7.staticflickr.com/6205/6047348593_86870b1d77.jpg","path":"7e5/2ec/7e52ecd3e726629b3c899a973531a29.jpg","date":"2011-08-05","year":2011,"month":8,"lon":17.96468,"lat":59.442158,"tags":"opera,opera+house,royal+opera,stockholm,str%C3%B6mmen","S2CellId":"0d4e4fd000000000","result":419,"accuracy":0.4538152,"title":"Stockholm+walk"}
{"id":3135559868,"url":"http://farm4.staticflickr.com/3241/3135559868_6350da1a48.jpg","path":"8cc/cd3/8cccd3cbc58e1d903183e9941c39e7.jpg","date":"2008-12-12","year":2008,"month":12,"lon":17.945522,"lat":59.40222,"tags":"13,celebration,december,galleria,kista,lucia,luciadagen,luciafirande,nenyaki,sankta,stockholm,sverige,sweden","S2CellId":"54906ab500000000","result":6213,"accuracy":0.04734581,"title":"Luciat%C3%A5g+in+Kista+Galleria","description":"Celebrations+for+Santa+Lucia+in+Kista+Galleria."}
{"id":8074741555,"url":"http://farm8.staticflickr.com/7118/8074741555_acce7a308e.jpg","path":"2c2/5b8/2c25b84c996b308ca054b7ae69644a.jpg","date":"2012-10-10","year":2012,"month":10,"lon":17.633465,"lat":59.858955,"tags":"abstract,lampa,project.flickr,saluhallen,shadow,skugga,sweden,uppsala","S2CellId":"94ce59f000000000","result":9723,"accuracy":0.023197593,"title":"Lamp+Abstract+Week+41+Project+Flickr"}
{"id":282746244,"url":"http://farm1.staticflickr.com/92/282746244_622522b500.jpg","path":"bb6/923/bb6923267093d12cfa607693a9ba6ce6.jpg","date":"2006-10-29","year":2006,"month":10,"lon":17.62765,"lat":59.860504,"tags":"cathedral,church,sthlm2006,sweden,uppsala","S2CellId":"0d6a0c0000000000","result":555,"accuracy":0.0569824,"title":"cathedral+uppsala","description":"some+crappy+pictures+of+the+cathedral+from+inside.+i+usually+don%27t+dare+to+take+pictures+in+churches+and+when+i+take+them+i+want+nobody+to+see+me+with+my+cam"}
{"id":6156477555,"url":"http://farm7.staticflickr.com/6182/6156477555_d41cb3f222.jpg","path":"405/185/40518523c06d66f65b3a1bdada71f682.jpg","date":"2011-09-16","year":2011,"month":9,"lon":17.633593,"lat":59.85897,"tags":"dog,ros%C3%A9nparken,sweden,uppsala,woman","S2CellId":"4652340000000000","result":2846,"accuracy":0.011629111,"title":"Woman+and+dog"}
{"id":3426110403,"url":"http://farm4.staticflickr.com/3359/3426110403_2cd77c6d07.jpg","path":"47c/378/47c378ab6209c82d6ee33246cb359b7.jpg","date":"2009-04-09","year":2009,"month":4,"lon":17.992891,"lat":59.359257,"tags":"aif,aik,akropolis,d300,football,fotboll,sigma+70-200,soccer,sport,tomas+buchtele","S2CellId":"54907c0000000000","result":6223,"accuracy":0.16502184,"title":"Akropolis+IF+-+2009","description":"AIK+-+Akropolis+IF"}
{"id":6687943867,"url":"http://farm8.staticflickr.com/7035/6687943867_8a6c8ba3d7.jpg","path":"8f3/d65/8f3d65e875494b49436235eaadeaaa3.jpg","date":"2012-01-11","year":2012,"month":1,"lon":17.952333,"lat":59.407166,"tags":"clouds,kista,moon,night,victoria+tower","S2CellId":"89e379f000000000","result":9339,"accuracy":0.007883084,"title":"IMG_3012"}
{"id":2646618168,"url":"http://farm4.staticflickr.com/3112/2646618168_40b9a85e1e.jpg","path":"215/f3b/215f3b3ac7bd27c36390e07ca8de5ce4.jpg","date":"2008-07-06","year":2008,"month":7,"lon":17.721634,"lat":59.615944,"tags":"malaren,sigtuna,svezia,sweden","S2CellId":"89e3777000000000","result":9331,"accuracy":0.022440378,"title":"Sigtuna"}
{"id":3615237504,"url":"http://farm3.staticflickr.com/2483/3615237504_b532ffffc8.jpg","path":"8a1/12d/8a112d6c4fcbf0f414d41b73c9634b.jpg","date":"2009-06-10","year":2009,"month":6,"lon":17.62603,"lat":59.89687,"tags":"gamla+uppsala,gravh%C3%B6gar,kungsh%C3%B6garna,sverige,sweden,uppsala","S2CellId":"89c9b00000000000","result":9209,"accuracy":0.07667499,"title":"Uppsala+gravh%C3%B6gar","description":"Kungsh%C3%B6garna+vid+Gamla+Uppsala.%0AThe+kings+mounds+in+Old+Uppsala."}
{"id":7433394258,"url":"http://farm6.staticflickr.com/5468/7433394258_7c736696b5.jpg","path":"19f/721/19f721bfbb478ca721e42cba7b556e6a.jpg","date":"2012-06-22","year":2012,"month":6,"lon":17.828588,"lat":59.220825,"tags":"h%C3%A5gelby,midsommar,midsummer,park","S2CellId":"880e900000000000","result":8144,"accuracy":0.08569102,"title":"Midsummer+in+H%C3%A5gelby+park"}
{"id":5036869472,"url":"http://farm5.staticflickr.com/4147/5036869472_6531f5ce95.jpg","path":"368/6ca/3686cadd393710c034e366a1b11092bd.jpg","date":"2010-09-29","year":2010,"month":9,"lon":17.643957,"lat":59.84087,"tags":"autumn,e-420,erasmus,eva,eva+garmendia,garmendia,olympus,oto%C3%B1o,suecia,sweden,uppsala","S2CellId":"4871740000000000","result":5039,"accuracy":0.003324407,"title":"Colors","description":"Uppsala%2C+Sweden."}
{"id":7433324864,"url":"http://farm8.staticflickr.com/7117/7433324864_55a754a181.jpg","path":"d0c/cdf/d0ccdfdb4df29c724df759d9132094a3.jpg","date":"2012-06-22","year":2012,"month":6,"lon":17.828588,"lat":59.220825,"tags":"h%C3%A5gelby,midsommar,midsummer,park","S2CellId":"3468f00000000000","result":2167,"accuracy":0.017458433,"title":"Midsummer+in+H%C3%A5gelby+park"}
{"id":7468376404,"url":"http://farm8.staticflickr.com/7117/7468376404_9f811e79b5.jpg","path":"234/a7e/234a7e9353a9b3e5b3e563d74dca9ae4.jpg","date":"2011-08-08","year":2011,"month":8,"lon":17.879755,"lat":59.317974,"tags":"arbol,arbre,drottningholm,eu,europa,europe,garde,parc,parco,park,parque,stockholm,su%C3%A8de,suecia,sverige,sweden,tente,tente+tartare,tree,ue,xviiie","S2CellId":"8621400000000000","result":7528,"accuracy":0.021462888,"title":"Parc+du+ch%C3%A2teau+royal+de+Drottningholm%2C+Stockholm%2C+Su%C3%A8de.","description":"Vaktt%C3%A4ltet%2C+Tente+de+Garde+du+pavillon+chinois+construite+pour+loger+les+dragons+de+Gustave+III+en+1777."}
{"id":10034469765,"url":"http://farm4.staticflickr.com/3768/10034469765_9a6fbd136b.jpg","path":"81b/956/81b95611ed375b9fef281522199bca.jpg","date":"2013-10-01","year":2013,"month":10,"lon":17.968822,"lat":59.365135,"tags":"instagram+app,iphoneography,square,square+format,valencia","S2CellId":"5490130000000000","result":6181,"accuracy":0.013059054,"title":"Is+it+a+beaver%3F+No%2C+it%27s+%23valpr+the+%23frenchbulldog+%21+%23frenchie"}
{"id":8741913654,"url":"http://farm8.staticflickr.com/7284/8741913654_0dfea17a13.jpg","path":"e6d/284/e6d284e197b3177527cb9ad66352a639.jpg","date":"2013-05-15","year":2013,"month":5,"lon":17.55319,"lat":59.884586,"tags":"anemone,anemone+nemorosa,h%C3%A4sselby+hage,spring,uppsala,v%C3%A5r,vitsippor","S2CellId":"48738c0000000000","result":5085,"accuracy":0.12269309,"title":"H%C3%A4sselby+hage"}
{"id":4300545621,"url":"http://farm5.staticflickr.com/4004/4300545621_f897a101e9.jpg","path":"924/a38/924a38519eef9d85b4a5446d8c90a515.jpg","date":"2010-01-24","year":2010,"month":1,"lon":17.923166,"lat":59.632668,"tags":"v%C3%A5fflor","S2CellId":"80c2b10000000000","result":7156,"accuracy":0.0049759224,"title":"V%C3%A5fflor"}
{"id":5117040457,"url":"http://farm2.staticflickr.com/1393/5117040457_2fba0a9792.jpg","path":"841/5cd/8415cd54b9e98ed4794e1cfadcdff7e6.jpg","date":"2009-09-02","year":2009,"month":9,"lon":17.561646,"lat":59.87929,"tags":"east,gamla,scandinavia,sunset,sweden,uppsala","S2CellId":"479e764000000000","result":3857,"accuracy":0.029517217,"title":".gamla+uppsala.a+must+see+large+on+black.","description":"quite+surreal+sunset.+september+2009.%0Adid+not+do+too+much+post+processing+-+just+enhanced+the+vibrance%2C+the+clarity+and+the+exposure.+the+dreamy+aspect+of+the+grass+is+the+original.+no+orton+or+other+effects+were+used+%3A%29"}
{"id":6893677477,"url":"http://farm8.staticflickr.com/7185/6893677477_26a35c10fa.jpg","path":"715/afd/715afd4f9fb62f56a97813dae7e913a.jpg","date":"2012-02-12","year":2012,"month":2,"lon":17.904057,"lat":59.32646,"tags":"kodak+bw400cn,minolta+dynax+5,scanned,shot+on+film","S2CellId":"5f70000000000000","result":6358,"accuracy":0.010525077,"title":"Minolta_005_31"}
{"id":8712394054,"url":"http://farm9.staticflickr.com/8279/8712394054_bb948f5f4c.jpg","path":"e44/774/e447741e80a567fc415f6b7fd9edb76.jpg","date":"2013-05-04","year":2013,"month":5,"lon":17.709618,"lat":59.118706,"tags":"ingalill","S2CellId":"52b7000000000000","result":5997,"accuracy":0.021681393,"title":"Morgonstund+med+Ingalill"}
{"id":5987769353,"url":"http://farm7.staticflickr.com/6001/5987769353_135bbdfc23.jpg","path":"2ca/1fe/2ca1fe115b43dd2d695f6668a1d79a2.jpg","date":"2011-07-29","year":2011,"month":7,"lon":17.635674,"lat":59.858524,"tags":"chimneys,sweden,uppland,uppsala","S2CellId":"46920b9000000000","result":2990,"accuracy":0.23237044,"title":"Chimneys"}
{"id":8483737182,"url":"http://farm9.staticflickr.com/8523/8483737182_e444eb158c.jpg","path":"e3e/753/e3e753d6a5e3eaefcce9473fff76b07c.jpg","date":"2013-02-17","year":2013,"month":2,"lon":17.855795,"lat":59.25948,"tags":"f43","S2CellId":"4876710000000000","result":5367,"accuracy":0.006172432}
{"id":10438116954,"url":"http://farm3.staticflickr.com/2830/10438116954_e4d5f7326a.jpg","path":"f84/86b/f8486b77054b63dae550a2371a76a6.jpg","date":"2013-10-23","year":2013,"month":10,"lon":17.966604,"lat":59.36544,"tags":"brannan,instagram+app,iphoneography,square,square+format","S2CellId":"3f90000000000000","result":2633,"accuracy":0.010243691,"title":"It%27s+bow+tie+Wednesday%21+%23fashion+%23bowtie+%23paisley"}
{"id":8609460984,"url":"http://farm9.staticflickr.com/8545/8609460984_f1b5668fb5.jpg","path":"23a/14f/23a14fd1683efa7cbf824ba74fcb7179.jpg","date":"2012-11-29","year":2012,"month":11,"lon":17.639,"lat":59.856167,"tags":"heart","S2CellId":"4cb29d0000000000","result":5845,"accuracy":0.0077893045,"title":"Sign+of+heart"}
{"id":3705838765,"url":"http://farm3.staticflickr.com/2437/3705838765_fa0e842714.jpg","path":"82c/6c1/82c6c13ba480a5c8c532d25db2ad093.jpg","date":"2009-07-09","year":2009,"month":7,"lon":17.215834,"lat":59.258423,"tags":"gauge,mariefred,narrow,rail,railroad,sweden,track,train","S2CellId":"8807400000000000","result":8099,"accuracy":0.016155846,"title":"Mariefred+narrow+gauge+railroad","description":"Sweden"}
{"id":7588957718,"url":"http://farm8.staticflickr.com/7271/7588957718_65565ee8f4.jpg","path":"3c9/787/3c97878dee4d9fd432fe8e767ad969e.jpg","date":"2012-07-15","year":2012,"month":7,"lon":17.629751,"lat":59.900925,"tags":"disag%C3%A5rden,gamla+uppsala,sweden,uppland,uppsala","S2CellId":"4651000000000000","result":2842,"accuracy":0.059696328,"title":"Mare+and+foal"}
{"id":82049174,"url":"http://farm1.staticflickr.com/42/82049174_892b812f6e.jpg","path":"6c4/533/6c453388a47e93eb3f6c43c9ec1b6193.jpg","date":"2006-01-03","year":2006,"month":1,"lon":17.63046,"lat":59.856712,"tags":"beer,fandom,january2006,uppsala,williams","S2CellId":"46416e7c00000000","result":2799,"accuracy":0.020395499,"title":"IMG_2860.JPG"}
{"id":6005866892,"url":"http://farm7.staticflickr.com/6136/6005866892_a38ba24f65.jpg","path":"665/44d/66544dc94a519663a4a9b9afa6e1b136.jpg","date":"2011-07-31","year":2011,"month":7,"lon":17.059402,"lat":59.831936,"tags":"fj%C3%A4rdhundra,skattmans%C3%B6%C3%A5dalen,skattmans%C3%B6stugan,skidbacke,uppland","S2CellId":"4687000000000000","result":2953,"accuracy":0.1586512,"title":"Skattmans%C3%B6%C3%A5dalen"}
{"id":6613222441,"url":"http://farm8.staticflickr.com/7172/6613222441_077d41b74b.jpg","path":"8d1/a1f/8d1a1f4638d1ac388e4d098c7a1c363.jpg","date":"2012-01-01","year":2012,"month":1,"lon":17.597994,"lat":59.85959,"tags":"new+years+day+2012,stabby,sweden,uppsala,winter","S2CellId":"12b3000000000000","result":802,"accuracy":0.01434286,"title":"Snowy_05","description":"New+Year%27s+Day+2012"}
{"id":471610549,"url":"http://farm1.staticflickr.com/220/471610549_d8b2115c2f.jpg","path":"c4b/b99/c4bb99e7e8eac6f9731b24bf33dfe28a.jpg","date":"2007-04-18","year":2007,"month":4,"lon":17.95225,"lat":59.402832,"tags":"interactiveinstitute","S2CellId":"6ad6690000000000","result":6649,"accuracy":0.15867683,"title":"IMG_6062.JPG","description":"Jin+Moen+showing+off+BodyBug+%28http%3A%2F%2Fwww.bodybug.se%2F%29"}
{"id":5801357787,"url":"http://farm3.staticflickr.com/2024/5801357787_5fe35aaeaf.jpg","path":"d18/bee/d18bee765fc6a290c8b886fc34b9da5c.jpg","date":"2011-05-30","year":2011,"month":5,"lon":17.96449,"lat":59.44254,"tags":"60,86,numbers,rutat","S2CellId":"808fcc9000000000","result":7071,"accuracy":0.04610346,"title":"calculations"}
{"id":87705553,"url":"http://farm1.staticflickr.com/39/87705553_432031e79d.jpg","path":"1c7/05f/1c705f3c75a8b12889ccc2863a48c3c5.jpg","date":"2006-01-15","year":2006,"month":1,"lon":17.598381,"lat":59.64567,"tags":"ice,m%C3%A4laren,nordic+skating,skating,winter","S2CellId":"4cad000000000000","result":5833,"accuracy":0.06708632,"title":"Ice+hike+15+Jan+2006+-+11%29+Back+on+ice","description":"Late+again.+Well%2C+they+are+waiting."}
{"id":4845496299,"url":"http://farm5.staticflickr.com/4108/4845496299_34bc5f6d63.jpg","path":"1a7/e30/1a7e30db3d4990851c432089f6233cc4.jpg","date":"2010-07-30","year":2010,"month":7,"lon":17.031168,"lat":59.440174,"tags":"2010,hornudden,hornuddens,jul,str%C3%A4ngn%C3%A4s,tr%C3%A4dg%C3%A5rd","S2CellId":"88d9b6c000000000","result":8600,"accuracy":0.014067289,"title":"Hornuddens+tr%C3%A4dg%C3%A5rd"}
{"id":6974093561,"url":"http://farm8.staticflickr.com/7065/6974093561_b3c66b44da.jpg","path":"e69/22a/e6922a7a3a915cbe557856f71418ebb.jpg","date":"2012-03-11","year":2012,"month":3,"lon":17.990112,"lat":59.333187,"tags":"stockholm,sweden","S2CellId":"8835400000000000","result":8317,"accuracy":0.0060216803,"title":"Stockholm"}
{"id":3022531895,"url":"http://farm4.staticflickr.com/3176/3022531895_1935b4cd45.jpg","path":"ae3/693/ae36931329bd94e4aebeb47c79930a9.jpg","date":"2007-02-06","year":2007,"month":2,"lon":17.960886,"lat":59.449036,"tags":"civilf%C3%B6rsvar,elefanten,nostalgi","S2CellId":"88f5039000000000","result":8709,"accuracy":0.02162552,"title":"Elefanten"}
{"id":2520399427,"url":"http://farm3.staticflickr.com/2075/2520399427_1aa135f7c9.jpg","path":"f3e/26f/f3e26ff221c03afb8de68037bc2f54a7.jpg","date":"2008-05-25","year":2008,"month":5,"lon":17.99168,"lat":59.09684,"tags":"brick,haninge,house,hus,skogstorp,stora+v%C3%A4dersj%C3%B6n,sverige,sweden,tegelhus,tr%C3%A4d,tree,tungelsta","S2CellId":"47e0c00000000000","result":4528,"accuracy":0.04499353,"title":"Stora+v%C3%A4dersj%C3%B6n","description":"V%C3%A4dersj%C3%B6v%C3%A4gen+slutar+vid+en+nittio+graders++sv%C3%A4ng%2C+d%C3%A4r+efter+s%C3%A5+heter+v%C3%A4gen+%22Stora+v%C3%A4dersj%C3%B6+gatan%22.+En+liten+bit+ifr%C3%A5n+denna+nittio+graders+sv%C3%A4ng+stod+detta+lilla+fina+tegelhus%2C+detta+ser+inte+ut+som+ett+bostads+hus+och+det+har+tv%C3%A5+ventiler+p%C3%A5+var+sida+om+det+nedre+f%C3%B6nstret.+Men+trots+det+tycker+jag+det+%C3%A4r+fint+och+det+ligger+s%C3%A5+vackert+d%C3%A4r+vid+tr%C3%A4det+och+med+en+vildvuxen+gr%C3%A4smatta."}
{"id":6012124661,"url":"http://farm7.staticflickr.com/6133/6012124661_bba3da1a40.jpg","path":"e6c/aa7/e6caa736c871ce17d1d8cd93f8191753.jpg","date":"2010-08-04","year":2010,"month":8,"lon":17.22027,"lat":59.258045,"tags":"bostad,mariefred,veidekke","S2CellId":"46eecfd000000000","result":3104,"accuracy":0.03869614,"title":"Mariefred","description":"Foto%3A+Gitta+Wil%C3%A9n%2C+Veidekke+Bostad."}
{"id":224008028,"url":"http://farm1.staticflickr.com/85/224008028_bd487a08a1.jpg","path":"716/d65/716d65496fcf7670f195dc2f118ed3e.jpg","date":"2006-08-24","year":2006,"month":8,"lon":17.612457,"lat":59.860764,"tags":"door","S2CellId":"47e66e1d00000000","result":4590,"accuracy":0.0028770238,"title":"Door"}
{"id":9499654695,"url":"http://farm6.staticflickr.com/5540/9499654695_c20b8a3257.jpg","path":"fd9/51d/fd951dc6314e37929c2bf89ff3fc1214.jpg","date":"2013-08-13","year":2013,"month":8,"lon":17.9435,"lat":59.219,"tags":"h%C3%B6gskola,s%C3%B6dert%C3%B6rn,sept2012","S2CellId":"80c8c47000000000","result":7244,"accuracy":0.0040390226,"title":"IMG_3682"}
{"id":5627655822,"url":"http://farm6.staticflickr.com/5264/5627655822_36dd9ba5f8.jpg","path":"ae2/d94/ae2d945eb0eb98c9fd5afc074bf9c9.jpg","date":"2011-04-07","year":2011,"month":4,"lon":17.974491,"lat":59.336517,"tags":"alberi,albero,tree,trees,vento,ventoso,wind,windy","S2CellId":"6b13400000000000","result":6709,"accuracy":0.0036378985,"title":"Wind"}
{"id":473779945,"url":"http://farm1.staticflickr.com/219/473779945_168523c9df.jpg","path":"a56/fae/a56fae6bf2fe5b6703120dd68a85a43.jpg","date":"2007-04-26","year":2007,"month":4,"lon":17.527023,"lat":59.565205,"tags":"b%C3%A5lsta,car,emo,letters,license+plate,numbers,volvo","S2CellId":"47fcc00000000000","result":4736,"accuracy":0.026590534,"title":"Emo+is...","description":"...an+old+Volvo."}
{"id":5385025979,"url":"http://farm6.staticflickr.com/5211/5385025979_d18269d032.jpg","path":"788/98b/78898bc4f89e135c6385f6e4d95736a3.jpg","date":"2011-01-16","year":2011,"month":1,"lon":17.997334,"lat":59.250668,"tags":"moblog","S2CellId":"5485500000000000","result":6101,"accuracy":0.016685687,"title":"Vovve"}
{"id":5990703339,"url":"http://farm7.staticflickr.com/6138/5990703339_73f98a054c.jpg","path":"7f6/ced/7f6ceda3b0d51df11a2b152e13ee1dd.jpg","date":"2011-07-30","year":2011,"month":7,"lon":17.074333,"lat":59.72689,"tags":"h%C3%A4rnevi","S2CellId":"89d5400000000000","result":9263,"accuracy":0.033887375,"title":"H%C3%A4rnevi"}
{"id":6687463125,"url":"http://farm8.staticflickr.com/7149/6687463125_a94f488575.jpg","path":"2f7/cc3/2f7cc34566897fcf18699a6d6d4b32.jpg","date":"2011-12-20","year":2011,"month":12,"lon":17.945232,"lat":59.40772,"tags":"lights,night,snow,winter","S2CellId":"809f000000000000","result":7130,"accuracy":0.0124801425,"title":"IMG_2891"}
{"id":3716808497,"url":"http://farm4.staticflickr.com/3516/3716808497_52b4358978.jpg","path":"598/bfa/598bfa423564c9d89422158150f7e81e.jpg","date":"2009-07-13","year":2009,"month":7,"lon":17.61729,"lat":59.191395,"tags":"bostad,humlan,kvarteret,linder%C3%B6kor,s%C3%B6dert%C3%A4lje,torek%C3%A4llberget,veidekke","S2CellId":"4724000000000000","result":3252,"accuracy":0.018430958,"title":"Veidekke+S%C3%B6dert%C3%A4lje+%E2%80%93+Torek%C3%A4llberget","description":"Linder%C3%B6kor%0A%0AProjekt%3A+Kvarteret+Humlan%2C+S%C3%B6dert%C3%A4lje.%0A%3Ca+href%3D%22http%3A%2F%2Fveidekkebostad.se%2Fkvhumlan%2F%22+rel%3D%22nofollow%22%3Eveidekkebostad.se%2Fkvhumlan%2F%3C%2Fa%3E%0A%0AFoto%3A+Gitta+Wil%C3%A9n%2C+Veidekke+Bostad."}
{"id":6882128365,"url":"http://farm8.staticflickr.com/7052/6882128365_da16f315bd.jpg","path":"3d0/84a/3d084a073e217675dc5f69f7a9e72c1.jpg","date":"2012-02-12","year":2012,"month":2,"lon":17.615911,"lat":59.86091,"tags":"sweden,uppsala,winter","S2CellId":"46524c0000000000","result":2849,"accuracy":0.051682618,"title":"Afternoon+shadows_01"}
{"id":101836397,"url":"http://farm1.staticflickr.com/26/101836397_395fa2e401.jpg","path":"36a/61f/36a61f17347b91c3f56fac1e4e2cac.jpg","date":"2006-02-19","year":2006,"month":2,"lon":17.632883,"lat":59.855534,"tags":"slottsbacken,snowdog,uppsala","S2CellId":"4ec0000000000000","result":5959,"accuracy":0.018298436,"title":"Snowdog+%236"}
{"id":3690761936,"url":"http://farm4.staticflickr.com/3631/3690761936_dd31cf638d.jpg","path":"8db/99a/8db99a01322c6349277f9144ea47f39.jpg","date":"2009-07-04","year":2009,"month":7,"lon":17.65417,"lat":59.29964,"tags":"agriculture,country,countryside,eker%C3%B6,ekero,essence,farm,farming,farmland,july,landscape,scandinavia,scandinavian,soul,soul+of+stockholm,spirit,spirit+of+stockholm,sthm,stkhm,stockholm,summer,sweden,swedish","S2CellId":"5f0d000000000000","result":6352,"accuracy":0.047229733,"title":"Eker%C3%B6+countryside","description":"Eker%C3%B6%2C+Sweden."}
{"id":8236903309,"url":"http://farm9.staticflickr.com/8197/8236903309_d8e14c64bb.jpg","path":"f2f/958/f2f958475d841f9385513987a7dc1251.jpg","date":"2012-12-01","year":2012,"month":12,"lon":17.991486,"lat":59.299107,"tags":"bouldering,climbing,competition,la+sportiva,rock+climbing,sean+mccoll,sport","S2CellId":"477f5e4000000000","result":3502,"accuracy":0.8650163,"title":"IMG_1777+copy"}
{"id":379992345,"url":"http://farm1.staticflickr.com/165/379992345_4fa283a4e4.jpg","path":"b4e/7d2/b4e7d2fddb93085dec63ca7ebc2884.jpg","date":"2007-02-03","year":2007,"month":2,"lon":17.945051,"lat":59.425957,"tags":"bedhead,eventful,homeofchrome,irinaslutsky,stockholm,sweden,trito,veraslutsky","S2CellId":"48760e4000000000","result":5284,"accuracy":0.008732638,"title":"Slutsky+sisters"}
{"id":5796620657,"url":"http://farm6.staticflickr.com/5221/5796620657_b47de46666.jpg","path":"6e3/66e/6e366eaa6474f8d4959b33992372a741.jpg","date":"2011-05-28","year":2011,"month":5,"lon":17.890608,"lat":59.584095,"tags":"gunga,iphone+3gs,lekpark,plastic+bullet,playground,rosersberg,sweden,swing,uppland","S2CellId":"472c000000000000","result":3253,"accuracy":0.0047362754,"title":"20110528-I","description":"%2312%3A+Lekpark+%28playground%29."}
{"id":184765120,"url":"http://farm1.staticflickr.com/70/184765120_e6a06e50c8.jpg","path":"8fc/a4e/8fca4e66b1d7bfa1e62c81e6a784c23.jpg","date":"2006-07-08","year":2006,"month":7,"lon":17.562931,"lat":59.771263,"tags":"2006,fika,hammarskog,july,kaffe,kolakaka,vetebulle","S2CellId":"88d9b6c000000000","result":8600,"accuracy":0.010682147,"title":"Vetefika"}
{"id":11035381474,"url":"http://farm8.staticflickr.com/7363/11035381474_c822518d92.jpg","path":"cad/f35/cadf352c71c7a34baff7ce83202bab2c.jpg","date":"2013-11-23","year":2013,"month":11,"lon":17.906181,"lat":59.378178,"tags":"f%C3%A4rgfabrik,fotoplats,graffiti,heml%C3%B6sa,industri,klotter,nedlagd,trasigt,uteliggare","S2CellId":"47a8900000000000","result":3948,"accuracy":0.043545328,"title":"F%C3%A4rgfabriken"}
{"id":2242274715,"url":"http://farm3.staticflickr.com/2124/2242274715_9f6c5833c4.jpg","path":"8bc/db6/8bcdb612caa1fa19c9c8ac3e15b5383e.jpg","date":"2008-01-25","year":2008,"month":1,"lon":17.841797,"lat":59.355595,"tags":"stockholm,sweden","S2CellId":"465f9d7000000000","result":2928,"accuracy":0.24028902,"title":"sun+down"}
{"id":4208551870,"url":"http://farm5.staticflickr.com/4005/4208551870_c041d73fc9.jpg","path":"518/f9d/518f9de7cfbf3c7cf2361ed2defb95.jpg","date":"2009-04-10","year":2009,"month":4,"lon":17.910461,"lat":59.408382,"tags":"kista,stockholm","S2CellId":"4715400000000000","result":3203,"accuracy":0.03453584,"title":"IMG_0023"}
{"id":6155698180,"url":"http://farm7.staticflickr.com/6087/6155698180_10f869a6f0.jpg","path":"b16/595/b165953ac42432cc146de889bb32a6.jpg","date":"2011-09-17","year":2011,"month":9,"lon":17.775738,"lat":59.81734,"tags":"hammarby,linn%C3%A9,linn%C3%A9s,triller,uppsala","S2CellId":"465f840000000000","result":2912,"accuracy":0.10308963,"title":"Linn%C3%A9s+Hammarby"}
{"id":8017084480,"url":"http://farm9.staticflickr.com/8171/8017084480_86e365963f.jpg","path":"5dc/9fb/5dc9fb9039652ca693521dc782f5988.jpg","date":"2012-09-21","year":2012,"month":9,"lon":17.633142,"lat":59.859028,"tags":"bricks,saluhallen,sweden,uppsala","S2CellId":"47c4100000000000","result":4245,"accuracy":0.039115913,"title":"Bricks"}
{"id":559960959,"url":"http://farm2.staticflickr.com/1320/559960959_4c3a3fc7a5.jpg","path":"844/46f/84446f6ce9ee879d5825d65cdb37c92.jpg","date":"2007-06-16","year":2007,"month":6,"lon":17.719316,"lat":59.61521,"tags":"m%C3%A4laren,sigtuna","S2CellId":"880f900000000000","result":8152,"accuracy":0.047997084,"title":"Sparks"}
{"id":282583582,"url":"http://farm1.staticflickr.com/104/282583582_b0502ce1f8.jpg","path":"513/8aa/5138aaaf690648fed76a8b3686be8ab.jpg","date":"2006-10-28","year":2006,"month":10,"lon":17.627735,"lat":59.900475,"tags":"gamla+uppsala,grave+hill,grave+hills,mount,mounts,sthlm2006,sweden,uppsala,viking,viking+age,vikings","S2CellId":"4790300000000000","result":3707,"accuracy":0.071859464,"title":"mounts"}
{"id":415506879,"url":"http://farm1.staticflickr.com/160/415506879_5b6a7a0aec.jpg","path":"b5c/5f6/b5c5f6c80e835557b5ee269079b7b.jpg","date":"2007-02-12","year":2007,"month":2,"lon":17.612457,"lat":59.860764,"tags":"appartment,design,flat,home,l%C3%A4genhet,styling,uppsala","S2CellId":"4791bb0000000000","result":3723,"accuracy":0.012468829,"title":"IMG_1321.JPG"}
{"id":3614861768,"url":"http://farm4.staticflickr.com/3327/3614861768_25a62fb1dd.jpg","path":"ed9/7c2/ed97c2374b10d91cba375d23be353a.jpg","date":"2009-06-07","year":2009,"month":6,"lon":17.880163,"lat":59.162533,"tags":"cykelta%3Fvling,lida+loop","S2CellId":"4844b00000000000","result":4814,"accuracy":0.17434765,"title":"DSC_0142"}
{"id":47394873,"url":"http://farm1.staticflickr.com/30/47394873_0e1fed783c.jpg","path":"a8d/fbe/a8dfbe97523ccaac6bb36dc1a80698a.jpg","date":"2005-09-24","year":2005,"month":9,"lon":17.62207,"lat":59.86964,"tags":"candles,church,europe,f10,fuji,gothic,interior,scandinavia,sweden,uppsala","S2CellId":"80c2bf2400000000","result":7178,"accuracy":0.025752824,"title":"upside+down+tree"}
{"id":5649797543,"url":"http://farm6.staticflickr.com/5229/5649797543_befacce7f0.jpg","path":"9fb/988/9fb988564ebd147ee929b17ef32cdb7.jpg","date":"2011-04-21","year":2011,"month":4,"lon":17.623142,"lat":59.783077,"tags":"fotos%C3%B6ndag,fotosondag,fs110424,rund,skarholmen,sweden,uppsala,water","S2CellId":"6b0d000000000000","result":6662,"accuracy":0.0030820519,"title":"Rund_02"}
{"id":283805520,"url":"http://farm1.staticflickr.com/101/283805520_1252acef42.jpg","path":"726/ef1/726ef11ec763a5872f747c1f1f3b28b.jpg","date":"2006-10-28","year":2006,"month":10,"lon":17.8845,"lat":59.644165,"tags":"dop,lisa","S2CellId":"464c300000000000","result":2818,"accuracy":0.016237458,"title":"Fwd%3A"}
{"id":4341776857,"url":"http://farm3.staticflickr.com/2700/4341776857_5d085abcdf.jpg","path":"e99/7cf/e997cf18558b5cb6d476156a634c88c.jpg","date":"2009-11-24","year":2009,"month":11,"lon":17.9415,"lat":59.30033,"tags":"hall,renovering+n85+vinter+2009-2010","S2CellId":"357bc00000000000","result":2299,"accuracy":0.052546367,"title":"Renovering+av+hallen+09%2F10"}
{"id":5380278123,"url":"http://farm6.staticflickr.com/5010/5380278123_bf70d2e0af.jpg","path":"ef8/0cb/ef80cbc5662e1b9892ab482faa74eec5.jpg","date":"2011-01-23","year":2011,"month":1,"lon":17.874454,"lat":59.352905,"tags":"%C3%A4nder,ducks,ice,is,r%C3%A5cksta,v%C3%A4llingby,water","S2CellId":"463a400000000000","result":2769,"accuracy":0.008304244,"title":"R%C3%A5cksta+tr%C3%A4sk"}
{"id":4266243061,"url":"http://farm5.staticflickr.com/4050/4266243061_cd18bccf53.jpg","path":"515/b55/515b55b930a8cb61a053bbb8b55c83d.jpg","date":"2009-08-15","year":2009,"month":8,"lon":17.56937,"lat":59.317295,"tags":"2009,agost,agosto,august,estocolm,estocolmo,stockholm,su%C3%A8cia,suecia,sverige,sweden","S2CellId":"47b2240000000000","result":4010,"accuracy":0.035791185,"title":"P1030891"}
{"id":8049869254,"url":"http://farm9.staticflickr.com/8453/8049869254_30dea46cb9.jpg","path":"ecd/e57/ecde573cd732f14eb6ca3e85bd8c2c5.jpg","date":"2012-10-03","year":2012,"month":10,"lon":17.96759,"lat":59.36535,"tags":"instagram+app,iphoneography,square,square+format,x-pro+ii","S2CellId":"48761a4000000000","result":5302,"accuracy":0.009308056,"title":"H%C3%B6sttr%C3%A4d"}
{"id":3691215434,"url":"http://farm3.staticflickr.com/2043/3691215434_f19d997d9b.jpg","path":"8da/5e1/8da5e14a054215bf8d55d7b14168743.jpg","date":"2009-07-05","year":2009,"month":7,"lon":17.939259,"lat":59.456215,"tags":"c902+phone,norrviken,shozu","S2CellId":"4691000000000000","result":2978,"accuracy":0.03318848,"title":"Kv%C3%A4llsbad+vid+Norrviken","description":"-+uploaded+by+%3Ca+href%3D%22http%3A%2F%2Fwww.shozu.com%2F%3Futm_source%3Dupload%26utm_medium%3Dgraphic%26utm_campaign%3Dupload_graphic%2F%22+target%3D%22_newwindow%22+rel%3D%22nofollow%22%3EShoZu%3C%2Fa%3E"}
{"id":6907588592,"url":"http://farm6.staticflickr.com/5112/6907588592_b917d8b307.jpg","path":"658/5b7/6585b7d2665ad622d7bd1d3819f8b36.jpg","date":"2012-04-04","year":2012,"month":4,"lon":17.964552,"lat":59.442207,"tags":"japan,japankorea2012,kyoto,sanjusangen,temple","S2CellId":"6018450000000000","result":6446,"accuracy":0.020922208,"title":"Sanjusangen-do"}
{"id":428313818,"url":"http://farm1.staticflickr.com/158/428313818_9da818c2c8.jpg","path":"178/0ca/1780ca442a4da95b024a5d942bf1620.jpg","date":"2007-03-16","year":2007,"month":3,"lon":17.943764,"lat":59.219475,"tags":"campus,flemingsberg,s%C3%B6dert%C3%B6rn,s%C3%B6dert%C3%B6rnsh%C3%B6gskola,spring,stockholm,sweden","S2CellId":"47d8f40000000000","result":4466,"accuracy":0.082072325,"title":"S%C3%B6dert%C3%B6rns+H%C3%B6gskola"}
{"id":4771357089,"url":"http://farm5.staticflickr.com/4118/4771357089_eb03c0033d.jpg","path":"fc5/953/fc59537fd9da985794b3929f19576.jpg","date":"2010-07-07","year":2010,"month":7,"lon":17.979717,"lat":59.308506,"tags":"moblog","S2CellId":"4ccd400000000000","result":5911,"accuracy":0.014269283,"title":"Bad+p%C3%A5+v%C3%A4g+hem+fr%C3%A5n+jobbet"}
{"id":3431261121,"url":"http://farm4.staticflickr.com/3552/3431261121_1b27eb18ed.jpg","path":"70f/212/70f212b8c754cfa6a88edc3a87e7cb1.jpg","date":"2009-04-11","year":2009,"month":4,"lon":17.989628,"lat":59.24925,"tags":"moblog","S2CellId":"88fd000000000000","result":8754,"accuracy":0.0075655645,"title":"Bubbel"}
{"id":3614852050,"url":"http://farm4.staticflickr.com/3390/3614852050_59a2f92f24.jpg","path":"dd7/7f5/dd77f59fb9d4eb371fd08d9c49123d6.jpg","date":"2009-06-07","year":2009,"month":6,"lon":17.880163,"lat":59.162533,"tags":"cykelta%3Fvling,lida+loop","S2CellId":"4844b00000000000","result":4814,"accuracy":0.034536824,"title":"DSC_0043"}
{"id":5542430288,"url":"http://farm6.staticflickr.com/5171/5542430288_f794c0f26c.jpg","path":"63a/c7c/63ac7c3a1faf6077a2ae2eeafef3c57c.jpg","date":"2004-07-15","year":2004,"month":7,"lon":17.604197,"lat":59.80153,"tags":"2004,brunom%C3%A4ss,drachenwald,nordmark,sca","S2CellId":"89e4d00000000000","result":9371,"accuracy":0.021313643,"title":"brunomass2004_01","description":"Bengt+laying+out+tent+canvas"}
{"id":2430693451,"url":"http://farm3.staticflickr.com/2195/2430693451_e5d4ef955f.jpg","path":"fbd/4b3/fbd4b3cb25aca05a2831ff3e9e6f15cc.jpg","date":"2008-04-21","year":2008,"month":4,"lon":17.94571,"lat":59.53152,"tags":"lucia,me,sweden","S2CellId":"8831100000000000","result":8295,"accuracy":0.10948565,"title":"Lucia","description":"Map+it%3A+%3Ca+href%3D%22http%3A%2F%2Fwww.robogeo.com%2FFlickr2Map%2F%22%3EGoogle+Earth%3C%2Fa%3E+%7C+%3Ca+href%3D%22http%3A%2F%2Fwww.robogeo.com%2FFlickr2Map%2F%3Ftype%3Dmap%26view%3Dhybrid%22+target%3D%22_blank%22%3EGoogle+Map%3C%2Fa%3E"}
{"id":8707236779,"url":"http://farm9.staticflickr.com/8279/8707236779_d7c966d82d.jpg","path":"d46/396/d46396e68f98107aa397b22c61707e8e.jpg","date":"2013-05-04","year":2013,"month":5,"lon":17.964617,"lat":59.44231,"tags":"bbq,macro,marinade,soja,soya","S2CellId":"3755b00000000000","result":2431,"accuracy":0.0028965096,"title":"macro"}
{"id":11025080073,"url":"http://farm4.staticflickr.com/3823/11025080073_cc16a7e906.jpg","path":"bd9/5fe/bd95fe73a3d2c877b2c59237a7c7f19.jpg","date":"2012-11-04","year":2012,"month":11,"lon":17.683144,"lat":59.86276,"tags":"autumn,canon+ef+50+mm+f%2F1.2+l+usm,canon+eos+5d+mark+iii,dimma,fog,h%C3%B6st,l%C3%B6pare,mist,runner,sverige,sweden,tr%C3%A4d,tree,uppsala,uppsala+l%C3%A4n","S2CellId":"4786bc0000000000","result":3583,"accuracy":0.013538802,"title":"Running+in+mist+%282012%29","description":"13243"}
{"id":2426862817,"url":"http://farm3.staticflickr.com/2202/2426862817_2db3514e60.jpg","path":"52d/f34/52df34d32e1aa5ecb91c465229d393c.jpg","date":"2005-01-10","year":2005,"month":1,"lon":17.926983,"lat":59.329357,"tags":"abstracts+of+nature,norden,nordic+leisure,nordic+sky,snow,snow+pattern,stockholm,sweden,the+north,up+in+the+north","S2CellId":"4652c00000000000","result":2868,"accuracy":0.005110632,"title":"2008-03-27+121.2"}
{"id":8831862916,"url":"http://farm8.staticflickr.com/7301/8831862916_288d22067b.jpg","path":"cb6/68e/cb668eae581ce4fb4fadd565c0b33a4.jpg","date":"2013-05-25","year":2013,"month":5,"lon":17.893,"lat":59.323833,"tags":"ingalill","S2CellId":"89e3775000000000","result":9330,"accuracy":0.040689677,"title":"Upp+med+flytv%C3%A4sten+s%C3%A5+den+skyddar+huvudet"}
{"id":5065098578,"url":"http://farm5.staticflickr.com/4092/5065098578_41dc5fd96f.jpg","path":"288/7f6/2887f674b282f285807680916e434635.jpg","date":"2010-10-09","year":2010,"month":10,"lon":17.911667,"lat":59.335335,"tags":"%C3%A5keshov,autunno,natura,parchi,stoccolma,stockholm,svezia","S2CellId":"0d50400000000000","result":429,"accuracy":0.022449728,"title":"%C3%85keshov"}
{"id":3542691996,"url":"http://farm3.staticflickr.com/2416/3542691996_eac3ca1857.jpg","path":"aef/4c1/aef4c11bbb5df8c36a7d6ea279dd4ab9.jpg","date":"2009-05-18","year":2009,"month":5,"lon":17.973234,"lat":59.292305,"tags":"bosadsr%C3%A4ttsf%C3%B6rening,brf+sn%C3%B6kristallen,klimatsmart,koldioxid,s%C3%A4ljstart,sn%C3%B6kristallenbildspel,tellhus,veidekke+bostad","S2CellId":"80dc070000000000","result":7326,"accuracy":0.018126978,"title":"Veidekke+Brf+Sn%C3%B6kristallen+%E2%80%93+S%C3%A4ljstart.+Husmodell","description":"%3Ca+href%3D%22http%3A%2F%2Fveidekkebostad.se%2Fsnokristallen%2F2009%2F05%2F18%2Fsaljstart-pa-klimatsmarta-bostader-i-vastertorp%2F%22+rel%3D%22nofollow%22%3Eveidekkebostad.se%2Fsnokristallen%2F2009%2F05%2F18%2Fsaljstart-pa-k...%3C%2Fa%3E%0A%0AProjekt%3A+Brf+Sn%C3%B6kristallen%2C+V%C3%A4stertorp.%0A%3Ca+href%3D%22http%3A%2F%2Fveidekkebostad.se%2Fsnokristallen%2F%22+rel%3D%22nofollow%22%3Eveidekkebostad.se%2Fsnokristallen%2F%3C%2Fa%3E%0A%0AFoto%3A+Gitta+Wil%C3%A9n%2C+Veidekke+Bostad."}
{"id":5891854530,"url":"http://farm6.staticflickr.com/5305/5891854530_4f5a0428b6.jpg","path":"239/5f7/2395f71ee12b1ead414ec389cc7527.jpg","date":"2011-07-01","year":2011,"month":7,"lon":17.108374,"lat":59.2582,"tags":"%C3%A5kers+styckebruk,grejer,lx3,objects,panasonic,panasonic+lumix+lx3,prylar,saker,seen,sett,stuff,things,views,vyer","S2CellId":"4844940000000000","result":4812,"accuracy":0.007924676,"title":"%C3%85kers+styckebruk++6","description":"Don%27t+understand+swedish%3F%3A+%3Ca+href%3D%22http%3A%2F%2Ftranslate.google.com%2F%23sv%7Cen%7C%22+target%3D%22_blank%22+rel%3D%22nofollow%22%3EGoogle+Translate%3C%2Fa%3E."}
{"id":225569584,"url":"http://farm1.staticflickr.com/49/225569584_0cc249bfe9.jpg","path":"ecb/7f3/ecb7f3b34d39d1c28bb0e1e256d651b0.jpg","date":"2006-08-26","year":2006,"month":8,"lon":17.645674,"lat":59.85305,"tags":"boat,fyris%C3%A5n,house,uppsala","S2CellId":"47c9cc0000000000","result":4399,"accuracy":0.016999703,"title":"Still+floating"}
{"id":243770339,"url":"http://farm1.staticflickr.com/93/243770339_22bd5ba296.jpg","path":"c47/bf4/c47bf47bdf657cdb968d8aba1feefd.jpg","date":"2006-06-16","year":2006,"month":6,"lon":17.63031,"lat":59.904778,"tags":"funeral,gamla+uppsala,mounds,sweden,uppsala","S2CellId":"465fd00000000000","result":2932,"accuracy":0.026079519,"title":"Gamla+Uppsala+funeral+mounds"}
{"id":6975619805,"url":"http://farm8.staticflickr.com/7061/6975619805_6611ea67ac.jpg","path":"eff/3c7/eff3c7c536ae759cd25711eafb6be977.jpg","date":"2012-02-25","year":2012,"month":2,"lon":17.949533,"lat":59.428448,"tags":"leaf,mirror,self,window","S2CellId":"54906d0000000000","result":6220,"accuracy":0.004054748,"title":"self+reflection"}
{"id":4655014871,"url":"http://farm5.staticflickr.com/4049/4655014871_d1078b89c8.jpg","path":"d55/6a2/d556a28c7ec699d8273d9779d7544e.jpg","date":"2010-05-31","year":2010,"month":5,"lon":17.8995,"lat":59.35483,"tags":"moblog","S2CellId":"4696240000000000","result":3021,"accuracy":0.038317244,"title":"Det+%C3%A4r+jag+och+pension%C3%A4rerna"}
{"id":6453818637,"url":"http://farm8.staticflickr.com/7149/6453818637_7e5e0f2def.jpg","path":"a7e/df9/a7edf9703fa3906310e0b2ba5e5c47a.jpg","date":"2011-11-25","year":2011,"month":11,"lon":17.704693,"lat":59.614,"tags":"destination,frukostklubben,sigtuna,sshl","S2CellId":"89c6c62f00000000","result":9152,"accuracy":0.10596277,"title":"Frukostklubben+200"}
{"id":5380453171,"url":"http://farm6.staticflickr.com/5005/5380453171_2cfcdd4388.jpg","path":"7d2/165/7d2165927e578a9f5e3bd54a87f1ad2.jpg","date":"2011-01-23","year":2011,"month":1,"lon":17.874454,"lat":59.35236,"tags":"frost,r%C3%A5cksta,sutro,tr%C3%A4d,trees,vinter,winter","S2CellId":"89e6d00000000000","result":9384,"accuracy":0.005449556,"title":"R%C3%A5cksta+tr%C3%A4sk"}
{"id":413008321,"url":"http://farm1.staticflickr.com/178/413008321_bc408ff8eb.jpg","path":"a2e/9a9/a2e9a92cbcbf1fbaa23b936714fb1492.jpg","date":"2005-06-03","year":2005,"month":6,"lon":17.643614,"lat":59.1907,"tags":"kickoff,mkf,s%C3%B6dert%C3%A4lje","S2CellId":"5363000000000000","result":6042,"accuracy":0.013857461,"title":"DSCF0011_1.jpg"}
{"id":1354650999,"url":"http://farm2.staticflickr.com/1028/1354650999_76a2fc9bb2.jpg","path":"ac4/cba/ac4cba14b3e13ae78f1c38b287f.jpg","date":"2007-09-04","year":2007,"month":9,"lon":17.973976,"lat":59.31979,"tags":"island,stockholm","S2CellId":"465f77d000000000","result":2906,"accuracy":0.15594445,"title":"Island"}
{"id":7234714310,"url":"http://farm8.staticflickr.com/7087/7234714310_6bb5a041f1.jpg","path":"e67/567/e6756783fb68eafa663617db49abc0.jpg","date":"2012-05-20","year":2012,"month":5,"lon":17.94509,"lat":59.39714,"tags":"instagram+app,iphoneography,lo-fi,square,square+format","S2CellId":"5f0b2c0000000000","result":6349,"accuracy":0.0020769932,"title":"%C3%85rets+f%C3%B6rsta+grillning+n%C3%A4r+sv%C3%A5gern+fyller+%C3%A5r+%2F+Celebrando+a+mi+cu%C3%B1ado+con+el+primer+asado"}
{"id":414472556,"url":"http://farm1.staticflickr.com/146/414472556_ced0db9abd.jpg","path":"63f/973/63f973a737d9d8171be2ddd0c8948468.jpg","date":"2007-01-20","year":2007,"month":1,"lon":17.653833,"lat":59.859665,"tags":"animal,cat","S2CellId":"8893000000000000","result":8521,"accuracy":0.021641513,"title":"Cindy+IMG_4362-3.jpg","description":"Map+it%3A+%3Ca+href%3D%22http%3A%2F%2Fwww.robogeo.com%2FFlickr2Map%2F%22%3EGoogle+Earth%3C%2Fa%3E+%7C+%3Ca+href%3D%22http%3A%2F%2Fwww.robogeo.com%2FFlickr2Map%2F%3Ftype%3Dmap%26view%3Dhybrid%22+target%3D%22_blank%22%3EGoogle+Map%3C%2Fa%3E"}
{"id":6012113013,"url":"http://farm7.staticflickr.com/6124/6012113013_8af7df5e27.jpg","path":"4b9/c4e/4b9c4eb2573ed7fbe7a45ea290d4b84c.jpg","date":"2010-08-04","year":2010,"month":8,"lon":17.212606,"lat":59.266483,"tags":"bostad,mariefred,veidekke","S2CellId":"465fd00000000000","result":2932,"accuracy":0.008417969,"title":"Mariefred","description":"Foto%3A+Gitta+Wil%C3%A9n%2C+Veidekke+Bostad."}
{"id":2750012746,"url":"http://farm4.staticflickr.com/3214/2750012746_1724bc30d8.jpg","path":"2bd/de0/2bdde01cbfe9cfc12bb781f7c910859c.jpg","date":"2008-08-09","year":2008,"month":8,"lon":17.90926,"lat":59.328854,"tags":"allmogeb%C3%A5t,allmogeb%C3%A5tar,almond,b%C3%A5t,b%C3%A5tar,bald,barco,barcos,beautiful,beautiful+wood+boat,boat,boat+lover,bromma,deck,essence,expensive,floating,islands,koster,koster+island,koster+islands,kosterb%C3%A5t,lake,location,m%C3%A4laren,malaren,man,man+in+a+boat,mapped,mast,nice+boat,nockeby,nockebybron,on+a+map,people,people+in+boats,people+sailing,pretty,rigging,ripples,ropes,rudder,sail,sailboat,sailor,scandinavia,scandinavian,segelb%C3%A5t,shadow,shadows,shirtless,show+me+where,soul,soul+of+stockholm,spirit,spirit+of+stockholm,sthm,stkhm,stockholm,sun,sverige,sweden,taken+from+a+bridge,taken+on+a+bridge,topview,view+from+a+bridge,view+from+above,view+on+a+bridge,water,waves,wood,wooden","S2CellId":"463cfd0000000000","result":2779,"accuracy":0.022902029,"title":"Life+is+hard.","description":"Stockholm%2C+Sweden.%0A%0ATaken+from+the+Nockebybron+%28bron+means+bridge+in+Swedish%29+that+connects+Nockeby+to+K%C3%A4rs%C3%B6n%3A+it%27s+on+the+road+from+Alvik+to+Drottningholm.%0A%0AThese+sailboats+are+from+the+west+coast+of+Sweden.+It+goes+by+several+names+in+Swedish%3A+koster%2C+kosterb%C3%A5t+or+allmogeb%C3%A5t.+There+are+two+islands+in+western+Sweden+called+the+Koster+islands.+I+assume+the+name+comes+from+there%3A+%3Ca+href%3D%22http%3A%2F%2Fen.wikipedia.org%2Fwiki%2FKoster_Islands%22+rel%3D%22nofollow%22%3Een.wikipedia.org%2Fwiki%2FKoster_Islands%3C%2Fa%3E.+The+sea+on+the+west+coast+of+Sweden+is+rougher+than+elsewhere+so+the+extra+width+of+these+boats+makes+them+more+stable+in+rough+seas.%0A%0AThe+Swedish+description+is+here%3A+%3Ca+href%3D%22http%3A%2F%2Fsv.wikipedia.org%2Fwiki%2FKosterb%25c3%25a5t%22+rel%3D%22nofollow%22%3Esv.wikipedia.org%2Fwiki%2FKosterb%25c3%25a5t%3C%2Fa%3E.%0A%0AIf+you+like+this+photo%2C+you+may+also+like+%3Ca+href%3D%22http%3A%2F%2Fflickr.com%2Fphotos%2Fquestion_everything%2F1428123058%2Fin%2Fset-72157602293548284%2F%22%3Eflickr.com%2Fphotos%2Fquestion_everything%2F1428123058%2Fin%2Fset-7...%3C%2Fa%3E."}
{"id":3614046701,"url":"http://farm3.staticflickr.com/2482/3614046701_0f64c3acbe.jpg","path":"d8d/710/d8d7106f76e13dfad449292d45a57535.jpg","date":"2009-06-07","year":2009,"month":6,"lon":17.880163,"lat":59.162533,"tags":"cykelta%3Fvling,lida+loop","S2CellId":"0d36d00000000000","result":317,"accuracy":0.2989074,"title":"DSC_0182"}
{"id":5400307171,"url":"http://farm6.staticflickr.com/5056/5400307171_8b70f2d177.jpg","path":"2e6/971/2e6971aa6594251eca49b95fd99b54eb.jpg","date":"2011-01-30","year":2011,"month":1,"lon":17.91707,"lat":59.407997,"tags":"instagram+app,iphoneography,square,square+format","S2CellId":"47e6734000000000","result":4672,"accuracy":0.006019577,"title":"Rune+stone"}
