{"id":11342144664,"url":"http://farm4.staticflickr.com/3817/11342144664_d6d1d13030.jpg","path":"2ec/e2f/2ece2f51205e709a8cff711fef91a44.jpg","date":"2013-12-12","year":2013,"month":12,"lon":8.952269,"lat":56.11855,"tags":"emk,emk2013,europeanshortcourse,euroswim,euroswim2013,herning,len,sporteventdenmark","S2CellId":"12a4a27400000000","result":715,"accuracy":0.105546385,"title":"IMG_5169"}
{"id":11367654003,"url":"http://farm4.staticflickr.com/3781/11367654003_192671b91b.jpg","path":"853/ca1/853ca153d0fdf7fcd2654de92454c88b.jpg","date":"2013-12-13","year":2013,"month":12,"lon":8.952269,"lat":56.11855,"tags":"emk,emk2013,europeanshortcourse,euroswim,euroswim2013,herning,jyskebankboxen,len,swimming","S2CellId":"89c6c63400000000","result":9153,"accuracy":0.042741362,"title":"IMG_1257"}
{"id":4421707925,"url":"http://farm5.staticflickr.com/4067/4421707925_20bce387e6.jpg","path":"f4e/938/f4e938f096cfd81655dc269cdad528.jpg","date":"2004-05-23","year":2004,"month":5,"lon":8.419647,"lat":56.263996,"tags":"brand,cc,commons,creative,denmark,fire,hede,heden,skovdistrekt,ulfborg,vosborg","S2CellId":"7953d00000000000","result":6866,"accuracy":0.2484749,"title":"IMG_2752"}
{"id":6290677659,"url":"http://farm7.staticflickr.com/6219/6290677659_8219fe1380.jpg","path":"a52/d3a/a52d3af12a5e78b82d99985221f7cee1.jpg","date":"2011-10-28","year":2011,"month":10,"lon":8.412716,"lat":56.75484,"tags":"0-2,9-8,after,button,definite,end,even,exiting,fairly,final,first,fodbold,football,fortuna,four,game,give,goals,had,hallen,however,hurup,lady,like,looked,managed,match.,minutes,next,now,old,penalty,pressed,school,score,scored,shootout,should,side,skolefodbold,soccer,sport,svenstrup,sventrup,their,they,trailing,two,visited,winner.,won,wouldn%27t","S2CellId":"4877630000000000","result":5430,"accuracy":0.39531907,"title":"IMG_9127"}
{"id":8342743815,"url":"http://farm9.staticflickr.com/8223/8342743815_fd365356de.jpg","path":"de4/1eb/de41eb9f44b9cacb070fa35f58a092.jpg","date":"2013-01-03","year":2013,"month":1,"lon":8.620991,"lat":56.36176,"tags":"hut,lustig,mall,person","S2CellId":"487e6f0000000000","result":5638,"accuracy":0.02847155,"title":"Schatz%2C+ein+Fisch+will+mich+fressen"}
{"id":4283109315,"url":"http://farm5.staticflickr.com/4068/4283109315_2c2f8fff0d.jpg","path":"bcd/2b3/bcd2b3a2dcd55c73ec33c7aa1571c63a.jpg","date":"2010-01-18","year":2010,"month":1,"lon":8.367762,"lat":56.959442,"tags":"beach,canon+ef+50mm+f%2F1.8+ii,d%C3%A4nemark,danmark,meer,n%C3%B8rre+vorup%C3%B8r,sea,steine,stones,strand","S2CellId":"89fb400000000000","result":9399,"accuracy":0.00838242,"title":"Barrage"}
{"id":2492425484,"url":"http://farm3.staticflickr.com/2012/2492425484_ebcf04cc54.jpg","path":"dac/b6e/dacb6ee888b81c4d2b56604197b9a42d.jpg","date":"2008-01-18","year":2008,"month":1,"lon":8.976602,"lat":56.13815,"tags":"aarhus+universitet,datalogisk+institut,future+people,it-uddannelser,it-vest,uddannelse+uden+gr%C3%A6nser,uddannelse+uden+gr%C3%A6nser+2008,uug2008+herning","S2CellId":"4870b14000000000","result":4994,"accuracy":0.051229447,"title":"DSC_0029"}
{"id":4433225142,"url":"http://farm5.staticflickr.com/4017/4433225142_96326b2100.jpg","path":"4ca/eb3/4caeb36f53f9eea38c1f7ccc867fccca.jpg","date":"2009-02-13","year":2009,"month":2,"lon":8.420033,"lat":56.251312,"tags":"cc,commons,creative,fyrtr%C3%A6er,grantr%C3%A6er,hede,is,sne,snow,vinter,winter","S2CellId":"466f000000000000","result":2947,"accuracy":0.008970309,"title":"_MG_3935"}
{"id":4635696484,"url":"http://farm5.staticflickr.com/4012/4635696484_23339fb9c6.jpg","path":"45a/646/45a646a1e76b3c2141a47e9df2ab2cc.jpg","date":"2010-05-23","year":2010,"month":5,"lon":8.240776,"lat":56.08784,"tags":"denmark,ringk%C3%B8bing","S2CellId":"48785c0000000000","result":5454,"accuracy":0.06915625,"title":"Ringk%C3%B8bing+Harbour"}
{"id":6272332208,"url":"http://farm7.staticflickr.com/6092/6272332208_10f7ec223e.jpg","path":"98a/66f/98a66f0f92d8ed1f041327e72df3b21.jpg","date":"2011-10-22","year":2011,"month":10,"lon":8.836612,"lat":56.785225,"tags":"amerikansk,brewers,danmark,denmark,fodbold,football,gymnasium,imod,jutland,jylland,mgy,mod,mors,mors%C3%B8,pigeons,thisted,thy,versus,vs.","S2CellId":"4877fc0000000000","result":5448,"accuracy":0.13011496,"title":"IMG_8808"}
{"id":4432522687,"url":"http://farm5.staticflickr.com/4059/4432522687_14c8ed01b6.jpg","path":"984/b7d/984b7d6d8a8675b6dc36e44145aa94.jpg","date":"2009-06-07","year":2009,"month":6,"lon":8.128681,"lat":56.27031,"tags":"aftensol,cc,commons,creative,havet,husby,klit,klitter,solnedgang,sunset,ulfborg,vesterhavet","S2CellId":"88c3100000000000","result":8541,"accuracy":0.035126872,"title":"_MG_5813"}
{"id":1776356329,"url":"http://farm3.staticflickr.com/2068/1776356329_922409dbdb.jpg","path":"24b/36d/24b36dba1bdb6eebdcedab758f2d9.jpg","date":"2007-10-25","year":2007,"month":10,"lon":8.950424,"lat":56.121944,"tags":"alle,biler,biler+for+alle,cars,for,herning,touareg,volkswagen","S2CellId":"89b6440000000000","result":8829,"accuracy":0.058740832,"title":"Volkswagen+Touareg+at+40%25"}
{"id":12456053975,"url":"http://farm4.staticflickr.com/3673/12456053975_afc21e015f.jpg","path":"9bd/727/9bd727be2fc59f09ada7e8b431d71be.jpg","date":"2014-02-11","year":2014,"month":2,"lon":8.390383,"lat":56.242493,"tags":"globetrotter,gps,hverdag,lokalkendskab,lokation,mark%C3%B8r,oplevelse,pil,skoleblogs,skoletube,stedsans","S2CellId":"46e5000000000000","result":3089,"accuracy":0.022374691,"title":"Globetrotter","description":"Disse+billeder+er+en+del+af+reklamen+for+temaet+Globetrotter+p%C3%A5+Skoleblogs.+Det+handler+om+at+s%C3%A6tte+fokus+p%C3%A5+sin+verden..."}
{"id":255508474,"url":"http://farm1.staticflickr.com/109/255508474_4eac3451ed.jpg","path":"051/eb8/051eb8f3bb92ceb75cfa53d1be9ca23.jpg","date":"2006-07-12","year":2006,"month":7,"lon":8.37141,"lat":56.948437,"tags":"denmark,fisherboat","S2CellId":"47ddc00000000000","result":4500,"accuracy":0.12272023,"title":"Small+fisherboats+in+Denmark","description":"Small+boats+in+Vorupoer%2C+Denmark%2C"}
{"id":8496767715,"url":"http://farm9.staticflickr.com/8229/8496767715_4e4e8ea85c.jpg","path":"7c9/479/7c9479792a99241ebacdee5e8595a82.jpg","date":"2012-06-11","year":2012,"month":6,"lon":8.618313,"lat":56.368057,"tags":"arbejdsplads,danish+crown,fabrik,forladt,hdr,hdr+footage,hdr+samples,holstebro,industri,k%C3%B8d,lukket,produktion,slagte,slagteriet,slukket,tom,tomt","S2CellId":"883cae5000000000","result":8363,"accuracy":0.022482028,"title":"HDR+Slagteriet","description":"Disse+billeder+er+taget+i+s%C3%A6t+af+tre.+De+er+optaget+s%C3%A5dan+at+de+er+velegnede+til+at+arbejde+med+HDR.+%0AAlle+billederne+stammer+fra+slagteriet+i+Holstebro%2C+tidligere+Dansih+Crown%2C+der+nu+er+lukket+ned."}
{"id":2187361417,"url":"http://farm3.staticflickr.com/2149/2187361417_db84edd271.jpg","path":"4dc/f79/4dcf79e9ae6ddeb6a1fa72be46f329.jpg","date":"2007-08-09","year":2007,"month":8,"lon":8.117973,"lat":56.513645,"tags":"bovbjerg,bovbjerg+fyr,ferring,fyr,fyrt%C3%A5rn,lighthouse,vestjylland,vestkysten","S2CellId":"464a400000000000","result":2813,"accuracy":0.31094855,"title":"Bovbjerg+Fyr","description":"Bovbjerg+Fyr%0A--------------------------------------------------------------------------------%0AHvis+du+bruger+mine+billeder+i+henhold+til+min+creative+commons-licens%2C+s%C3%A5+kredit%C3%A9r+mig+venligst+med+link+til+min+hjemmeside%3A%0AChristian+Johannesen+-+%3Ca+href%3D%22http%3A%2F%2Fchristian.johannesen.dk%22+rel%3D%22nofollow%22%3Echristian.johannesen.dk%3C%2Fa%3E%0A--------------------------------------------------------------------------------%0AIf+you+use+my+pictures+according+to+the+creative+commons+license%2C+please+credit+me+with+a+link+to+my+website%3A%0AChristian+Johannesen+-+%3Ca+href%3D%22http%3A%2F%2Fchristian.johannesen.dk%22+rel%3D%22nofollow%22%3Echristian.johannesen.dk%3C%2Fa%3E%0A--------------------------------------------------------------------------------"}
{"id":8497719140,"url":"http://farm9.staticflickr.com/8228/8497719140_2e7912a4cb.jpg","path":"687/2e1/6872e1c8b8c5f4cdb341512cfc53413b.jpg","date":"2012-08-25","year":2012,"month":8,"lon":8.422479,"lat":56.286213,"tags":"danmark,efter%C3%A5r,heath,hede,holstebro,lyng,lyngt%C3%A6ppe,natur,steppe,str%C3%A5s%C3%B8,turist,ulfborg,vestjylland","S2CellId":"46f7000000000000","result":3114,"accuracy":0.009617158,"title":"Heden","description":"Billeder+fra+Str%C3%A5s%C3%B8+Plantage+v%2F+Mergelvej+og+Pottemagervej.%0AHer+ligger+et+af+de+smukkeste+og+mest+uber%C3%B8rte+lyndomr%C3%A5der."}
{"id":4028986508,"url":"http://farm3.staticflickr.com/2602/4028986508_d9fcec6417.jpg","path":"d8b/ccb/d8bccbef14e642836da1703705cbf69.jpg","date":"2004-02-25","year":2004,"month":2,"lon":8.214426,"lat":56.70375,"tags":"2004,danmark,public+school,school,thybor%C3%B8n","S2CellId":"6d69000000000000","result":6848,"accuracy":0.023564208,"title":"P2250653","description":"thybor%C3%B8n+public+school%0A2%2F25%2F2004"}
{"id":7602487594,"url":"http://farm9.staticflickr.com/8157/7602487594_20d128dd28.jpg","path":"6ab/dff/6abdff94ac2624fdf1ce7bc4f26c26.jpg","date":"2012-07-19","year":2012,"month":7,"lon":8.966505,"lat":56.826637,"tags":"bw,clouds,fur,sea,water","S2CellId":"548ff00000000000","result":6177,"accuracy":0.053214468,"title":"Smooth+Water","description":"Experiments+with+ND+filters+%28ND4%2BND64%29"}
{"id":4615961275,"url":"http://farm4.staticflickr.com/3416/4615961275_689d99e639.jpg","path":"89d/db2/89ddb281666590d6fd9ac04cefd97fed.jpg","date":"2010-05-02","year":2010,"month":5,"lon":8.41999,"lat":56.246212,"tags":"anemone,anemoner,april,danmark,for%C3%A5r,for%C3%A5rsblomst,maj,marts,natur,skov,skovbund,solskin","S2CellId":"4692f00000000000","result":3016,"accuracy":0.011956445,"title":"Anemoner","description":"Anemone+er+en+af+de+sk%C3%B8nne+blomster+som+faktisk+findes+p%C3%A5+hele+jorden+undtagen+antarktis...se+selv+p%C3%A5+%3Ca+href%3D%22http%3A%2F%2Fda.wikipedia.org%2Fwiki%2FAnemone%22+rel%3D%22nofollow%22%3Eda.wikipedia.org%2Fwiki%2FAnemone%3C%2Fa%3E"}
{"id":4534615464,"url":"http://farm5.staticflickr.com/4032/4534615464_82082ec329.jpg","path":"719/4f8/7194f8d661e481ff4efc57466b1b9.jpg","date":"2005-12-19","year":2005,"month":12,"lon":8.125677,"lat":56.292297,"tags":"beach,coast,danmark,denmark,hav,havet,klit,klitter,marehalm,s%C3%B8m%C3%A6rke,sand,sommer,strand,sunset,veders%C3%B8+klit,vesterhavet,vestkysten","S2CellId":"4865900000000000","result":4877,"accuracy":0.042893127,"title":"350d-+003"}
{"id":6995636588,"url":"http://farm9.staticflickr.com/8002/6995636588_de21563cdb.jpg","path":"7a2/d8f/7a2d8fee71618a5ba9665248b111f65.jpg","date":"2012-05-04","year":2012,"month":5,"lon":8.974993,"lat":56.13657,"tags":"2012+giro+d%E2%80%99italia,cycling,garmin-barracuda,peter+stetina,ramunas+navardauskas,tyler+farrar","S2CellId":"485d400000000000","result":4830,"accuracy":0.39977008,"title":"2012+Giro+d%E2%80%99Italia+%E2%80%93+TT+training","description":"A+car+ran+straight+into+Peter+Stetina+while+Garmin-Barracuda+were+out+training.+Fortunately%2C+Stetina+was+okay%2C+albeit+pretty++shaken+up."}
{"id":9327652301,"url":"http://farm8.staticflickr.com/7420/9327652301_015da8773a.jpg","path":"f23/462/f234621c7b3a1aed1cd99bb735b8b03b.jpg","date":"2013-07-20","year":2013,"month":7,"lon":8.110555,"lat":56.00454,"tags":"2013,denmark,summer,tanska,travel","S2CellId":"89b8b00000000000","result":8911,"accuracy":0.062347956,"title":"image"}
{"id":4517097339,"url":"http://farm3.staticflickr.com/2706/4517097339_8fd2f90025.jpg","path":"221/8b0/2218b031d1103219e6abea5fcd85797.jpg","date":"2004-08-04","year":2004,"month":8,"lon":8.456511,"lat":56.21732,"tags":"cc,commons,creative,danmark,denmark,dis,diset,morgendis,natur,t%C3%A5ge","S2CellId":"5494c00000000000","result":6235,"accuracy":0.051980067,"title":"taage+040"}
{"id":6235423080,"url":"http://farm7.staticflickr.com/6226/6235423080_0044d68189.jpg","path":"8ef/d16/8efd161743311db8bb5eebc6b14d9e2b.jpg","date":"2011-09-25","year":2011,"month":9,"lon":8.119444,"lat":56.51343,"tags":"bovbjerg+fyr,d%C3%A4nemark,denmark,lighthouse","S2CellId":"464a400000000000","result":2813,"accuracy":0.29719993,"title":"Bovbjerg+Fyr"}
{"id":6236788641,"url":"http://farm7.staticflickr.com/6227/6236788641_19f92d6a49.jpg","path":"2f3/c3b/2f3c3b73edd5671dcd56a3d8aab45162.jpg","date":"2011-10-08","year":2011,"month":10,"lon":8.625984,"lat":56.883083,"tags":"bridge,danmark,denmark,fra,from,jutland,jylland,nature,set,side,siden,taken,the,thy,vildsund,vildsundbroen,vilsund","S2CellId":"6d318a3000000000","result":6816,"accuracy":0.06520575,"title":"The+Vildsund+bridge+taken+from+the+Thy+side+-+Vildsundbroen+set+fra+Thy+siden"}
{"id":3887902346,"url":"http://farm4.staticflickr.com/3480/3887902346_6b26fc24d1.jpg","path":"7bf/565/7bf565289f2e76d4bf46a3675d329d9.jpg","date":"2009-08-31","year":2009,"month":8,"lon":8.10494,"lat":56.04997,"tags":"2009,cycle+touring,denmark,north+sea+cycle+route,vestkystruten","S2CellId":"3d00000000000000","result":2580,"accuracy":0.056236517,"title":"Looking+down"}
{"id":4125156588,"url":"http://farm3.staticflickr.com/2778/4125156588_e6d73270e2.jpg","path":"b8c/5bf/b8c5bf48ca8d9256d31255d2fc7ea.jpg","date":"2009-11-22","year":2009,"month":11,"lon":8.965626,"lat":56.135525,"tags":"arkitektfirmaet+c.+f.+m%C3%B8ller,codan-huset,denmark,herning","S2CellId":"89c258f100000000","result":8982,"accuracy":0.013738345,"title":"80%27s+decay","description":"Codan-huset%2C+Herning%2C+Denmark.+Novemmber+2009.%0A%0A%3Ca+href%3D%22http%3A%2F%2Fbighugelabs.com%2Fonblack.php%3Fid%3D4125156588%26size%3Dlarge%22+rel%3D%22nofollow%22%3EView+Large+On+Black%3C%2Fa%3E"}
{"id":4850158721,"url":"http://farm5.staticflickr.com/4097/4850158721_1e72ab425c.jpg","path":"129/bc7/129bc7ed5b445c3d896ea581c7a85a.jpg","date":"2010-07-23","year":2010,"month":7,"lon":8.616907,"lat":56.358273,"tags":"atempo.dk,holstebro,linneberg,street","S2CellId":"398c000000000000","result":2482,"accuracy":0.43767506,"title":"Scuba+diving","description":"..+when+your+mom+gave+you+scuba+equipment+at+the+toy+store+it%2C+why+wait+testing+it+to+you+get+to+the+sea.."}
{"id":11337342636,"url":"http://farm3.staticflickr.com/2817/11337342636_2c59003525.jpg","path":"db0/8e8/db08e8f83ac75fd5178e5b69124a092.jpg","date":"2013-12-12","year":2013,"month":12,"lon":8.952269,"lat":56.11855,"tags":"emk,emk2013,europeanshortcourse,euroswim,euroswim2013,herning,len,sporteventdenmark,swimming","S2CellId":"47b1300000000000","result":3975,"accuracy":0.10630852,"title":"IMG_4564"}
{"id":4615277917,"url":"http://farm5.staticflickr.com/4025/4615277917_3fa114a6bd.jpg","path":"365/a99/365a9946d7f66ee8ab94220df39e4.jpg","date":"2010-05-14","year":2010,"month":5,"lon":8.420848,"lat":56.24812,"tags":"birk,birketr%C3%A6","S2CellId":"6ad642a400000000","result":6620,"accuracy":0.0076667652,"title":"Birk+i+maj"}
{"id":2688678120,"url":"http://farm4.staticflickr.com/3164/2688678120_fdc6888848.jpg","path":"977/fb8/977fb8ee85638fb34e7b412be4f62fb6.jpg","date":"2008-04-15","year":2008,"month":4,"lon":8.240975,"lat":56.08759,"tags":"d%C3%A4nemark,dk,eur,himmel,mond,public,rating3,ringkobing,stilleben","S2CellId":"88d0a631cabb5071","result":8563,"accuracy":0.0041016764,"title":"Am+Hafen+von+Ringkobing","description":"Der+Mond+%28Taken+with%3A+Canon+EOS+40D+-+1%2F640+s%2C+f%2F9.9%2C+300+mm%2C+ISO+400%29"}
{"id":6240401481,"url":"http://farm7.staticflickr.com/6218/6240401481_6c8567c3f3.jpg","path":"2d4/ef1/2d4ef119ca2be3cb56943f9336c17f67.jpg","date":"2011-10-13","year":2011,"month":10,"lon":8.529295,"lat":56.890163,"tags":"ekstrabladet,fodboldturnering,fs,midtthy,nibe,piger,skole,skolefodbold,snedsted,stadion,vs.","S2CellId":"7c006d9000000000","result":6886,"accuracy":0.19586734,"title":"Skolefodbold+Piger+-+Snedsted+Skole+vs.+Nibe+Skole","description":"D.+13.+oktober+m%C3%B8dte+Snedsted+centralskole+p%C3%A5+hjemmebane+Nibe+Skole.+Kampen+blev+spillet+i+solskin+fra+en+skyfri+himmel+og+med+temperature+omkring+12-14+grader.+Kampen+endte+0-3+til+Nibe."}
{"id":11046981635,"url":"http://farm6.staticflickr.com/5498/11046981635_79e78dfe88.jpg","path":"a77/a18/a77a182f5b9decc49e2b05d40e51ca9.jpg","date":"2013-11-24","year":2013,"month":11,"lon":8.332313,"lat":56.473373,"tags":"central+denmark+region,danmark,denmark,facebook,fb,flickr,klosterheden,lemvig,lightroom,poul-werner+dam,project,projekt,risb%C3%A6k","S2CellId":"4440000000000000","result":2748,"accuracy":0.08452979,"title":"First+Frost","description":"Risb%C3%A6k+-+Klosterheden"}
{"id":2690111727,"url":"http://farm4.staticflickr.com/3240/2690111727_805431ca91.jpg","path":"ebf/923/ebf923463f885c4cfe2b51c885735eb.jpg","date":"2008-04-15","year":2008,"month":4,"lon":8.109097,"lat":56.118843,"tags":"d%C3%A4nemark,dk,eur,landschaft,public,rating3,sondervig","S2CellId":"0c6bc00000000000","result":159,"accuracy":0.050678544,"title":"Ein+Abend+in+Sondervig","description":"Die+Sonne+neigt+sich+dem+Horizont+entgegen+%28Taken+with%3A+Canon+EOS+40D+-+1%2F3200+s%2C+f%2F5.7%2C+168+mm%2C+ISO+400%29"}
{"id":4463322896,"url":"http://farm5.staticflickr.com/4007/4463322896_262d9f2a3b.jpg","path":"828/8eb/8288ebfa75a6b8c637b92285db24984.jpg","date":"2006-04-10","year":2006,"month":4,"lon":8.118038,"lat":56.16228,"tags":"aften,aftensol,cc,commons,creative,fiskekutter,fisker,g3,havet,leth,nords%C3%B8en,peter,solnedgang,sommeraften,vesterhavet","S2CellId":"54c1c00000000000","result":6304,"accuracy":0.0457993,"title":"g3-april+104"}
{"id":4852948061,"url":"http://farm5.staticflickr.com/4137/4852948061_731da7a26a.jpg","path":"db8/7a4/db87a4b2995c7c48bff180ec86bb1ad3.jpg","date":"2010-07-23","year":2010,"month":7,"lon":8.118896,"lat":56.51343,"tags":"atempo.dk,bovbjerg,danmark,denmark,fyrt%C3%A5rn,klezmer,klezmerduo,lighthouse,linneberg,music,red,twop","S2CellId":"464a400000000000","result":2813,"accuracy":0.26361293,"title":"Klezmer+music","description":"This+is+from+a+very+nice+outdoor+concert+at+Bovbjerg+lighthouse+with+the+danish+Klezmerduo.%0ARead+more+about+the+duo+on+%3Ca+href%3D%22http%3A%2F%2Fwww.klezmerduo.dk%22+rel%3D%22nofollow%22%3Ewww.klezmerduo.dk%3C%2Fa%3E"}
{"id":4537017909,"url":"http://farm5.staticflickr.com/4067/4537017909_c53e88d4ef.jpg","path":"02a/cf3/02acf346328aa29c3c5f8817b5b53e.jpg","date":"2006-09-04","year":2006,"month":9,"lon":8.419389,"lat":56.252552,"tags":"blomstrende+lyng,commons,creative,danmark,denmark,hede,heden,lilla,lyng,natur,peter+leth,ulfborg,vestjylland","S2CellId":"8620af4000000000","result":7522,"accuracy":0.020486547,"title":"Blomstrende+lyng"}
{"id":8497856690,"url":"http://farm9.staticflickr.com/8103/8497856690_0719366a32.jpg","path":"213/8d0/2138d09ab8a77d06395bbf5dbd06525.jpg","date":"2012-06-11","year":2012,"month":6,"lon":8.618313,"lat":56.368057,"tags":"arbejdsplads,danish+crown,fabrik,forladt,hdr,hdr+footage,hdr+samples,holstebro,industri,k%C3%B8d,lukket,produktion,slagte,slagteriet,slukket,tom,tomt","S2CellId":"548ff00000000000","result":6177,"accuracy":0.006465812,"title":"HDR+Slagteriet","description":"Disse+billeder+er+taget+i+s%C3%A6t+af+tre.+De+er+optaget+s%C3%A5dan+at+de+er+velegnede+til+at+arbejde+med+HDR.+%0AAlle+billederne+stammer+fra+slagteriet+i+Holstebro%2C+tidligere+Dansih+Crown%2C+der+nu+er+lukket+ned."}
{"id":11342117675,"url":"http://farm8.staticflickr.com/7363/11342117675_8f12177ef9.jpg","path":"6b7/d77/6b7d773b57e0f568e0c6b63d395b5c32.jpg","date":"2013-12-12","year":2013,"month":12,"lon":8.952269,"lat":56.11855,"tags":"emk,emk2013,eurepeanshortcourse,euroswim,euroswim2013,herning,len,sportseventdenmark,swimming","S2CellId":"89c25fc000000000","result":9084,"accuracy":0.010881894,"title":"IMG_0933"}
{"id":4462550193,"url":"http://farm5.staticflickr.com/4012/4462550193_9a8186abc4.jpg","path":"cff/486/cff486fc584905aa817598915c9a23e.jpg","date":"2006-04-10","year":2006,"month":4,"lon":8.118038,"lat":56.16228,"tags":"aften,aftensol,cc,commons,creative,fiskekutter,fisker,g3,havet,leth,nords%C3%B8en,peter,solnedgang,sommeraften,vesterhavet","S2CellId":"0d0c400000000000","result":164,"accuracy":0.039305374,"title":"g3-april+123"}
{"id":2626427440,"url":"http://farm4.staticflickr.com/3275/2626427440_93206253fa.jpg","path":"6e9/4aa/6e94aa199cd6d4fbc929c03327f1d86e.jpg","date":"2008-06-14","year":2008,"month":6,"lon":8.116486,"lat":56.375935,"tags":"2008,beach,kitesurf,kitesurfing,north+sea,preparations,thorsminde,waves","S2CellId":"464f400000000000","result":2826,"accuracy":0.059509996,"title":"The+wave+session","description":"Step+zero%3A+rigging+the+kite+and+stuff..."}
{"id":11169972803,"url":"http://farm6.staticflickr.com/5471/11169972803_090192fb69.jpg","path":"9e4/0af/9e40af3efd2864473ea8df518c72c.jpg","date":"2013-07-08","year":2013,"month":7,"lon":8.583927,"lat":56.435925,"tags":"danmark,denmark,familie,family,flickr,jonathan+bragh+hansen,kent+bragh+hansen,legeplads,lightroom,midtjylland,play+ground,poul-werner+dam,project,projekt,struer,vejrum,vejrum+fritidscenter","S2CellId":"47bf230000000000","result":4117,"accuracy":0.060652263,"title":"Catching+up","description":"On+the+local+playground"}
{"id":4615951897,"url":"http://farm5.staticflickr.com/4025/4615951897_ac6a5a3148.jpg","path":"8db/aff/8dbaff7b1a286cb896679f7f79be72c3.jpg","date":"2010-05-02","year":2010,"month":5,"lon":8.41999,"lat":56.246212,"tags":"anemone,anemoner,april,danmark,for%C3%A5r,for%C3%A5rsblomst,maj,marts,natur,skov,skovbund,solskin","S2CellId":"479d900000000000","result":3821,"accuracy":0.014981845,"title":"Anemoner","description":"Anemone+er+en+af+de+sk%C3%B8nne+blomster+som+faktisk+findes+p%C3%A5+hele+jorden+undtagen+antarktis...se+selv+p%C3%A5+%3Ca+href%3D%22http%3A%2F%2Fda.wikipedia.org%2Fwiki%2FAnemone%22+rel%3D%22nofollow%22%3Eda.wikipedia.org%2Fwiki%2FAnemone%3C%2Fa%3E"}
{"id":5657222063,"url":"http://farm6.staticflickr.com/5186/5657222063_158b957b1b.jpg","path":"668/7e1/6687e119613b117860564075861420c9.jpg","date":"2011-04-10","year":2011,"month":4,"lon":8.120098,"lat":56.08765,"tags":"d%C3%A4nemark,dk,klegod","S2CellId":"80e83c0000000000","result":7396,"accuracy":0.026160011,"title":"DK_Klegod-7","description":"%28c%29+Milena+Kopetz%2C+evo.one_%0AKontakt%3A+mk+%28a%29+evoone.de"}
{"id":2698618562,"url":"http://farm4.staticflickr.com/3228/2698618562_15d0fd625c.jpg","path":"662/a51/662a51a29143fadcbd768d5435fbd33.jpg","date":"2008-07-14","year":2008,"month":7,"lon":8.1586,"lat":56.2746,"tags":"battery%3D5,city%3Dulfborg-vemb,cloudy,cond%3Dcloudy,country%3Ddenmark,coverage%3Dhigh,dayhour%3D16,dayphase%3Dday,denmark,dew%3Dcomfortable,dir%3Dwest_southwest,distance%3D2608,duration%3D127,feel%3Dnormal,fmax%3Dnormal,fmin%3Dnormal,force%3Dgentle_breeze,height%3D2773,height%3D548,height%3D670,humidity%3Dhigh,iyouit,iyouit%3Apostprocessed,meteo%3Dsummer,moonlight%3Dfalse,moonstate%3Dwaxing_gibbous,nstep%3D28,pchange%3Dsteady,phone%3Dgeneral,precip%3Dnone,pressure%3Dmoderate,rain%3Dnone,realfeel%3Dnormal,ringk%C3%B8bing+amt,signal%3D4,snow%3Dnone,source%3Dcell,speed%3D74,subdivision%3Dringk%C3%B8bingamt,temp%3Dnormal,temperature%3Dnormal,tmax%3Dnormal,tmin%3Dnormal,tstorm%3Dlow,type%3Dfewclouds,type%3Dovercast,type%3Dscatteredclouds,ulfborg-vemb,uv%3Dlow,uvmax%3Dmoderate,visibility%3Dhigh,weekday%3D2","S2CellId":"88fd000000000000","result":8754,"accuracy":0.032918435,"title":"Sea+waves+in+Ulfborg-Vemb","description":"This+photo+was+taken+in+Ulfborg-Vemb%2C+in+subdivision+Ringk%C3%B8bing+Amt.++It+was+cloudy+when+I+made+this+photo.+The+prognosis+is+considerable+cloudiness.+I+was+walking+around.+This+photo+is+context-tagged+with+%3Ca+href%3D%22http%3A%2F%2Fwww.iyouit.eu%22%3EIYOUIT%3C%2Fa%3E."}
{"id":2578303557,"url":"http://farm4.staticflickr.com/3040/2578303557_6fc57d9004.jpg","path":"e12/c53/e12c53424639c8c577d5e62269e4460.jpg","date":"2008-06-10","year":2008,"month":6,"lon":8.243342,"lat":56.089355,"tags":"2008,denemarken,denmark,havde,havenstad,ringkobing,zomervakantie","S2CellId":"46f7000000000000","result":3114,"accuracy":0.0435412,"title":"Ringk%C3%B8bing+tolhuisje","description":"bezoek+aan+de+havenstad+Ringkobing%0Amiddeleeuws+tolhuisje."}
{"id":4635684058,"url":"http://farm5.staticflickr.com/4017/4635684058_5619a93be1.jpg","path":"568/4ff/5684ffabde37b47eb138fe5154fe6.jpg","date":"2010-05-23","year":2010,"month":5,"lon":8.240776,"lat":56.08784,"tags":"denmark,ringk%C3%B8bing,spring,streets","S2CellId":"4652c00000000000","result":2868,"accuracy":0.2070514,"title":"Ringk%C3%B8bing%3A+Street"}
{"id":4542299845,"url":"http://farm5.staticflickr.com/4050/4542299845_2729bc38ff.jpg","path":"264/5d7/2645d78e4b72cf4d85b8371f7b7fc9fb.jpg","date":"2006-06-15","year":2006,"month":6,"lon":8.384027,"lat":56.245495,"tags":"danmark,f%C3%A5r,f%C3%A5rehold,gr%C3%A6sning,hede,heden,hyrde,hyrdehund,lam,sheep,sheeps,ulfborg,vestjylland","S2CellId":"398c000000000000","result":2482,"accuracy":0.02878189,"title":"Lystb%C3%A6kg%C3%A5rd+060612+106"}
{"id":7416309822,"url":"http://farm9.staticflickr.com/8161/7416309822_b7058b7289.jpg","path":"288/b29/288b29917ab95f9371636da6378b415.jpg","date":"2012-06-21","year":2012,"month":6,"lon":8.12712,"lat":56.01556,"tags":"d%C3%A4nemark,denmark,jimdo,jimdo.com,kite,kite+surfing,kiten,ozone,training","S2CellId":"8810c00000000000","result":8173,"accuracy":0.010126485,"title":"Training","description":"Hvide+Sande%2C+Denmark"}
{"id":4537294026,"url":"http://farm5.staticflickr.com/4030/4537294026_3da5ebbc69.jpg","path":"d89/5d9/d895d91fefdd7bb06838958623e32657.jpg","date":"2004-08-28","year":2004,"month":8,"lon":8.125677,"lat":56.292297,"tags":"b%C3%B8lge,b%C3%B8lger,beach,cc,commons,creative,ferie,g3,gr%C3%A6m,husby,klitter,peter+leth,ringk%C3%B8bing,skumspr%C3%B8jt,sky,skyer,strand,vesterhavet,vestjylland,wawes","S2CellId":"5493000000000000","result":6233,"accuracy":0.0181407,"title":"strand+040829+156","description":"Sommerbilleder+fra+Vesterhavet+fotograferet+midt+p%C3%A5+dagen+i+august+m%C3%A5ned."}
{"id":11337978476,"url":"http://farm4.staticflickr.com/3756/11337978476_1d985bc15d.jpg","path":"976/4a4/9764a4c586e2809e41387a5922412d7.jpg","date":"2013-12-12","year":2013,"month":12,"lon":8.952269,"lat":56.11855,"tags":"emk,emk2013,europeanshortcourse,euroswim,euroswim2013,herning,len,sporteventdenmark,swimming","S2CellId":"48761d7000000000","result":5354,"accuracy":0.06372068,"title":"IMG_0430"}
{"id":7611275924,"url":"http://farm9.staticflickr.com/8166/7611275924_987629a67d.jpg","path":"7ec/16b/7ec16b975562464d494398573b73cbd.jpg","date":"2012-07-20","year":2012,"month":7,"lon":8.991713,"lat":56.833466,"tags":"central+denmark+region,denmark,fur,grafisk,mudder,nature","S2CellId":"80c7000000000000","result":7223,"accuracy":0.007149325,"title":"Hvad+er+mon+dette%3F"}
{"id":4504284843,"url":"http://farm5.staticflickr.com/4007/4504284843_8cc122fb3b.jpg","path":"dd8/252/dd82525fbada3f44dd237c62141bc2e5.jpg","date":"2008-02-02","year":2008,"month":2,"lon":8.12499,"lat":56.47503,"tags":"b%C3%B8lger,cc,commons,creative,fjaltring,havet,nordsee,north,ocean,sea,skumspr%C3%B8jt,solnedgang,spr%C3%B8jt,vesterhavet,vestjylland","S2CellId":"48d60ac000000000","result":5792,"accuracy":0.02096082,"title":"Vesterhavet"}
{"id":4545091851,"url":"http://farm5.staticflickr.com/4065/4545091851_fdb3a5509e.jpg","path":"18b/238/18b238cee3d4e6baa781a307c81ae.jpg","date":"2009-08-02","year":2009,"month":8,"lon":8.420848,"lat":56.24812,"tags":"%C3%B8rn,danmark,dansk+rovfugl,falk,h%C3%B8g,musv%C3%A5ge,musv%C3%A5geunge,rovfugl","S2CellId":"88d0a631cabb5071","result":8563,"accuracy":0.032537803,"title":"Musv%C3%A5geunge","description":"Musv%C3%A5geunge+sidder+knap+10+m+fra+huset.+%0ADe+meget+lyse+fjer+skyldes+at+det+sikkert+er+en+unge.+%0ADet+kan+ogs%C3%A5+forklare+at+den+f%C3%A6rdes+s%C3%A5+t%C3%A6t+p%C3%A5+huset."}
{"id":5279243065,"url":"http://farm6.staticflickr.com/5047/5279243065_116986c0f9.jpg","path":"628/bfb/628bfb4b101d36fe1cc549fd92ea5ae.jpg","date":"2010-11-25","year":2010,"month":11,"lon":8.426084,"lat":56.25036,"tags":"danmark,dansk,denmark,is,n%C3%A5letr%C3%A6,n%C3%A5letr%C3%A6er,plantage,skov,sne,str%C3%A5s%C3%B8,tr%C3%A6,tr%C3%A6er,ulfborg,vestjylland,vinter","S2CellId":"4d54000000000000","result":5954,"accuracy":0.013372655,"title":"Vinterskov"}
{"id":11367616205,"url":"http://farm3.staticflickr.com/2839/11367616205_8362eee47c.jpg","path":"377/f3b/377f3b6e2355587ab608253aae85f4.jpg","date":"2013-12-14","year":2013,"month":12,"lon":8.952269,"lat":56.11855,"tags":"emk,emk2013,europeanshortcourse,euroswim,euroswim2013,herning,jyskebankboxen,len,sporteventdenmark,swimming","S2CellId":"12a4a27400000000","result":715,"accuracy":0.026533648,"title":"IMG_1960"}
{"id":4556700871,"url":"http://farm4.staticflickr.com/3277/4556700871_35e04e62fc.jpg","path":"fbc/e18/fbce182630b4de3e343d8a525a5e74a3.jpg","date":"2004-08-06","year":2004,"month":8,"lon":8.418188,"lat":56.245018,"tags":"afgr%C3%B8de,danmark,dyrkning,field,g%C3%A5rd,h%C3%B8st,hvede,jordbrug,kornsorten+hvede,landbrug,mark,vestjylland,wheat,wheat+field","S2CellId":"47d7500000000000","result":4407,"accuracy":0.017057668,"title":"Hvedemark","description":"Hvedemark+i+Danmark"}
{"id":11342144765,"url":"http://farm8.staticflickr.com/7425/11342144765_aeb9cc3f0b.jpg","path":"ade/a77/adea776d47f284e63ac9dc295a1591a.jpg","date":"2013-12-12","year":2013,"month":12,"lon":8.952269,"lat":56.11855,"tags":"emk,emk2013,eurepeanshortcourse,euroswim,euroswim2013,herning,len,sportseventdenmark,swimming","S2CellId":"464bc00000000000","result":2816,"accuracy":0.98258346,"title":"IMG_0946"}
{"id":11372426854,"url":"http://farm8.staticflickr.com/7321/11372426854_140143514c.jpg","path":"5b9/e3d/5b9e3d71ef5234d7eeb77339bd295a4e.jpg","date":"2013-12-14","year":2013,"month":12,"lon":8.952269,"lat":56.11855,"tags":"emk,emk2013,eurepeanshortcourse,europeanshortcourse,euroswim,euroswim2013,herning,jyskebankboxen,len,sporteventdenmark,sportseventdenmark,winner","S2CellId":"89c6700000000000","result":9138,"accuracy":0.064712435,"title":"ekmfinaledag3_44"}
{"id":7045441429,"url":"http://farm6.staticflickr.com/5192/7045441429_952c97bac9.jpg","path":"9fa/eb8/9faeb8ce9eb7ae1eef6ca91803093cc.jpg","date":"2011-10-26","year":2011,"month":10,"lon":8.117179,"lat":56.526546,"tags":"apple,berlin,cs5,d%C3%A4nemark,danmark,germany,hdr,k800i,passat,photoshop,samsung,sony,vw","S2CellId":"45d4000000000000","result":2755,"accuracy":0.049031172,"title":"VW+Passat+Variant+%5BHDR%5D","description":"VW+Passat+Variant"}
{"id":5051258526,"url":"http://farm5.staticflickr.com/4132/5051258526_5fa7b12c66.jpg","path":"a6b/eb5/a6beb54622c8199d3e4b72cc9cf3b.jpg","date":"2010-10-02","year":2010,"month":10,"lon":8.228833,"lat":56.784332,"tags":"mobilbild","S2CellId":"89e4b00000000000","result":9370,"accuracy":0.029196287,"title":"Agger+%C3%A4r+bra+idag%21","description":"%3Ca+href%3D%22http%3A%2F%2Fwww.kajak.nu%22+rel%3D%22nofollow%22%3Ewww.kajak.nu%3C%2Fa%3E"}
{"id":5889247122,"url":"http://farm6.staticflickr.com/5196/5889247122_f405ac454c.jpg","path":"d11/321/d113212276ae2fae7644ff6a52978219.jpg","date":"2011-06-30","year":2011,"month":6,"lon":8.692932,"lat":56.715622,"tags":"b%C3%B8rnesommerlejr,kfum+og+kfuk","S2CellId":"468c774000000000","result":2965,"accuracy":0.35612327,"title":"BSL+torsdag-94"}
{"id":4504921876,"url":"http://farm3.staticflickr.com/2729/4504921876_5b594cfa7a.jpg","path":"914/0c4/9140c47bbfd528deaa4811dcf1787d2c.jpg","date":"2008-02-02","year":2008,"month":2,"lon":8.12499,"lat":56.47503,"tags":"b%C3%B8lger,cc,commons,creative,fjaltring,havet,nordsee,north,ocean,sea,skumspr%C3%B8jt,solnedgang,spr%C3%B8jt,vesterhavet,vestjylland","S2CellId":"89a9c00000000000","result":8779,"accuracy":0.032848362,"title":"Vesterhavet"}
{"id":4505448455,"url":"http://farm3.staticflickr.com/2722/4505448455_0e8a873903.jpg","path":"68d/39e/68d39ecf83c177845b9a65b1ac3f5ce2.jpg","date":"2009-09-12","year":2009,"month":9,"lon":8.422286,"lat":56.252136,"tags":"bjergfyr,cc,commons,creative,ene,hede,heden,krat,lyng,revling,ulfborg,vestjylland","S2CellId":"56cd000000000000","result":6324,"accuracy":0.18232639,"title":"_MG_7905"}
{"id":4517749872,"url":"http://farm3.staticflickr.com/2706/4517749872_35b38a1456.jpg","path":"579/b98/579b9897747141fb98a3897c233d9bd5.jpg","date":"2006-02-11","year":2006,"month":2,"lon":8.476209,"lat":56.556126,"tags":"cc,commons,creative,limfjorden,remmerstrand,sand,skulpturer,strand,tr%C3%A6figur,tr%C3%A6figurer,tr%C3%A6stammer,vindsleben","S2CellId":"89e4b00000000000","result":9370,"accuracy":0.058373738,"title":"060208+025"}
{"id":6271809259,"url":"http://farm7.staticflickr.com/6053/6271809259_083e9c004e.jpg","path":"b94/b10/b94b10c0a78b84c9ddd352c370f7dd5d.jpg","date":"2011-10-22","year":2011,"month":10,"lon":8.836612,"lat":56.785225,"tags":"amerikansk,brewers,danmark,denmark,fodbold,football,gymnasium,imod,jutland,jylland,mgy,mod,mors,mors%C3%B8,pigeons,thisted,thy,versus,vs.","S2CellId":"4876bc0000000000","result":5385,"accuracy":0.36144954,"title":"IMG_8862"}
{"id":368394587,"url":"http://farm1.staticflickr.com/143/368394587_fc815efa5b.jpg","path":"d13/e64/d13e64934a88362c8e2bad30ee47d48e.jpg","date":"2007-01-24","year":2007,"month":1,"lon":8.364672,"lat":56.959892,"tags":"nr.,vorup%C3%B8r","S2CellId":"48d5000000000000","result":5789,"accuracy":0.044916943,"title":"PICT9476"}
{"id":4052870678,"url":"http://farm3.staticflickr.com/2472/4052870678_9eafbb3d92.jpg","path":"9d1/2ab/9d12abb7365a68de262170e224b4a.jpg","date":"2004-04-26","year":2004,"month":4,"lon":8.261611,"lat":56.09294,"tags":"2004,danmark,gymnasinum,kristne,ringk%C3%B8bing,vestjylland","S2CellId":"4876f00000000000","result":5401,"accuracy":0.019874256,"title":"P4265722","description":"ringk%C3%B8bing+kristine+gymnasinum%0A4%2F26%2F2004"}
{"id":7686955988,"url":"http://farm9.staticflickr.com/8028/7686955988_0fff6d26f4.jpg","path":"be1/73a/be173a3dea36b3b986512289fa06fbf.jpg","date":"2012-07-31","year":2012,"month":7,"lon":8.119068,"lat":56.513313,"tags":"architecture,blue+green,bovbjerg,classic,clouds,europe,germany,holiday,landscape,lighthouse,postcard,red,sky,summer,weather,wide+angle","S2CellId":"464a400000000000","result":2813,"accuracy":0.163457,"title":"lighthouse","description":"Bovbjerg+Fyr%2FDenmark"}
{"id":6272320332,"url":"http://farm7.staticflickr.com/6036/6272320332_ba0ef2e8ef.jpg","path":"c32/c2f/c32c2f9541ddf22babd0a1e89b.jpg","date":"2011-10-22","year":2011,"month":10,"lon":8.836612,"lat":56.785225,"tags":"amerikansk,brewers,danmark,denmark,fodbold,football,gymnasium,imod,jutland,jylland,mgy,mod,mors,mors%C3%B8,pigeons,thisted,thy,versus,vs.","S2CellId":"47d8cc0000000000","result":4458,"accuracy":0.07043288,"title":"IMG_8682"}
{"id":8115733940,"url":"http://farm9.staticflickr.com/8466/8115733940_d72be9cf5c.jpg","path":"84e/f49/84ef494aa05eab415d0dcaf9aa577d9.jpg","date":"2012-10-17","year":2012,"month":10,"lon":8.6085,"lat":56.4775,"tags":"denmark","S2CellId":"4879640000000000","result":5487,"accuracy":0.010811815,"title":"IMG_2402"}
{"id":11351484284,"url":"http://farm4.staticflickr.com/3695/11351484284_8854130c8d.jpg","path":"828/714/8287147fd8754974d4c2dca882302da7.jpg","date":"2013-12-13","year":2013,"month":12,"lon":8.952269,"lat":56.11855,"tags":"emk,emk2013,eurepeanshortcourse,europeanshortcourse,euroswim,euroswim2013,herning,len,sporteventdenmark,sportseventdenmark","S2CellId":"89c5c00000000000","result":9134,"accuracy":0.13244134,"title":"EM-Kortbane+-+indledende+-+dag+2","description":"Billeder+fra+indledende+afsnit+af+andendagen+ved+EM-Kortbane"}
{"id":4635084911,"url":"http://farm4.staticflickr.com/3407/4635084911_cac09c9d87.jpg","path":"c6d/29f/c6d29fde727edd3edb17ad14eddac3b.jpg","date":"2010-05-23","year":2010,"month":5,"lon":8.240776,"lat":56.08784,"tags":"architecture,denmark,habour,ringk%C3%B8bing","S2CellId":"47c9b00000000000","result":4397,"accuracy":0.054195587,"title":"Ringk%C3%B8bing+Harbour","description":"The+harbour+has+seen+a+number+of+development+projects+with+flats+and+offices+facing+the+water.+This+is+one."}
{"id":5143819222,"url":"http://farm2.staticflickr.com/1230/5143819222_c0d4e83941.jpg","path":"3e4/dfd/3e4dfdf9ad4e0be31e14959c4de725e.jpg","date":"2010-09-12","year":2010,"month":9,"lon":8.236227,"lat":56.800735,"tags":"agger,beach,clouds,d300,denmark,dogs,footsteps,holidays,lines,nikon,sand,sea,sky,vestervig,wideangle","S2CellId":"1c70000000000000","result":1446,"accuracy":0.09982818,"title":"Footsteps+on+the+beach...","description":"Two+dogs+were+walking+here%21+%3A%29%0A%0APicture+taken+during+my+holidays+in+Denmark."}
{"id":4540127013,"url":"http://farm5.staticflickr.com/4070/4540127013_4af449a5c9.jpg","path":"916/32b/91632b19f7b6dcbb0b892a172ef3e4c.jpg","date":"2006-08-06","year":2006,"month":8,"lon":8.415269,"lat":56.24106,"tags":"%C3%B8kologisk,afgr%C3%B8de,danmark,denmark,dyrke,dyrkning,h%C3%B8st,havre,korn,landbrug,mark,marker,vestjylland","S2CellId":"6ad642a400000000","result":6620,"accuracy":0.014669324,"title":"060806+mark+korn+blomst+143"}
