{"id":3688469318,"url":"http://farm3.staticflickr.com/2469/3688469318_6418523fbb.jpg","path":"90c/05f/90c05f8ac0fcce8a9d6630e7049278.jpg","date":"2008-10-29","year":2008,"month":10,"lon":31.045303,"lat":-17.82934,"tags":"harare,new+words+media,project+einstein,zimbabwe","S2CellId":"88e6c00000000000","result":8660,"accuracy":0.023918903,"title":"IMG_0132"}
{"id":8326827080,"url":"http://farm9.staticflickr.com/8082/8326827080_fbdd46d580.jpg","path":"3cd/1bb/3cd1bb1ebac17c9f6b35ea391327482d.jpg","date":"2012-12-27","year":2012,"month":12,"lon":31.088713,"lat":-17.83795,"tags":"aepyceros,aepyceros+melampus,animalia,artiodactyla,black-faced+impala,bovidae,chordata,common+impala,harare,impala,mammalia,mukuvisi+woodlands,zimbabwe","S2CellId":"182d000000000000","result":1421,"accuracy":0.15647554,"title":"Impala"}
{"id":10656564733,"url":"http://farm4.staticflickr.com/3709/10656564733_afa792f075.jpg","path":"83e/e67/83ee6728dc259b987d28f5cb269f854.jpg","date":"2013-10-26","year":2013,"month":10,"lon":31.064314,"lat":-17.77472,"tags":"bmx,sport","S2CellId":"4782700000000000","result":3543,"accuracy":0.07443832,"title":"_DSC5982"}
{"id":6825742398,"url":"http://farm8.staticflickr.com/7053/6825742398_87041dd53f.jpg","path":"8c8/987/8c89877b4fcbe5d267b298e1cfa5e8.jpg","date":"2012-02-13","year":2012,"month":2,"lon":31.044102,"lat":-17.819464,"tags":"scarlett+jade","S2CellId":"0d25900000000000","result":272,"accuracy":0.0057706507,"title":"wet+geranium"}
{"id":8326827586,"url":"http://farm9.staticflickr.com/8503/8326827586_6069e9aeaa.jpg","path":"47c/f13/47cf13b7bba69465f20743529fbb252.jpg","date":"2012-12-27","year":2012,"month":12,"lon":31.088713,"lat":-17.83795,"tags":"animalia,aves,blue-breasted+cordonbleu,chordata,estrildidae,harare,mukuvisi+woodlands,passeriformes,uraeginthus,uraeginthus+angolensis,zimbabwe","S2CellId":"88d0a631cabb5071","result":8563,"accuracy":0.15917285,"title":"Blue+waxwing"}
{"id":10645815355,"url":"http://farm8.staticflickr.com/7385/10645815355_1cf936585a.jpg","path":"211/2b1/2112b185d49d8e4aca8104240ae81f0.jpg","date":"2013-10-26","year":2013,"month":10,"lon":31.064314,"lat":-17.77472,"tags":"bmx,sport","S2CellId":"89b110c000000000","result":8802,"accuracy":0.78999776,"title":"_DSC5285"}
{"id":6037754873,"url":"http://farm7.staticflickr.com/6195/6037754873_0c7d2ced83.jpg","path":"ca5/3a5/ca53a5dccdf1dd92db5cabf6d146b5f.jpg","date":"2005-01-12","year":2005,"month":1,"lon":31.14332,"lat":-17.838093,"tags":"africa,malvaceae,waltheria,waltheria+indica,zimbabwe","S2CellId":"8814d00000000000","result":8186,"accuracy":0.022620743,"title":"Waltheria+indica"}
{"id":10656169096,"url":"http://farm8.staticflickr.com/7406/10656169096_b873ed5e3a.jpg","path":"c1d/ba7/c1dba783196b97e7326752a31297e7.jpg","date":"2013-10-26","year":2013,"month":10,"lon":31.064314,"lat":-17.77472,"tags":"bmx,sport","S2CellId":"1930000000000000","result":1434,"accuracy":0.06620491,"title":"_DSC5745"}
