{"id":3572247525,"url":"http://farm4.staticflickr.com/3651/3572247525_47e7364e1f.jpg","path":"e6e/94a/e6e94ad7456e45167bc789b36a931fc.jpg","date":"2009-05-22","year":2009,"month":5,"lon":131.03256,"lat":-25.339062,"tags":"australie,uluru","S2CellId":"3054c00000000000","result":1613,"accuracy":0.015856694,"title":"P1040702"}
{"id":5029208886,"url":"http://farm5.staticflickr.com/4154/5029208886_d1fbb4ff05.jpg","path":"40f/254/40f254ec563bf3971b942214e7cdf0.jpg","date":"2010-08-29","year":2010,"month":8,"lon":131.04222,"lat":-25.329828,"tags":"australia,heading+bush+expedition,heading+bush+expedition+day+7,kata+tjuta,northern+territory,sunset,uluru","S2CellId":"2b40000000000000","result":1520,"accuracy":0.4797856,"title":"kata+tjuta+sunset+%232","description":"Day+7+of+the+Heading+Bush+Adelaide-to-Alice+Springs+expedition.++Watching+Kata+Tjuta+at+sunset."}
{"id":3373514417,"url":"http://farm4.staticflickr.com/3629/3373514417_3e884fc398.jpg","path":"dff/ce9/dffce9a461231c1515cb2dae93853.jpg","date":"2009-01-25","year":2009,"month":1,"lon":131.03287,"lat":-25.348213,"tags":"australia,ayer%27s+rock,sunrise,uluru","S2CellId":"2b40000000000000","result":1520,"accuracy":0.98107725,"title":"Sunrise+at+Uluru"}
{"id":488325253,"url":"http://farm1.staticflickr.com/211/488325253_6961818e05.jpg","path":"e92/3f5/e923f5fd616fa9afadf1bc1fbc2d92e.jpg","date":"2007-03-09","year":2007,"month":3,"lon":131.02484,"lat":-25.34038,"tags":"australia,ayers+rock,kata+tjuta,mum+and+dad+07,northern+territory,uluru","S2CellId":"2b40000000000000","result":1520,"accuracy":0.9312361,"title":"Tiny+Tree","description":"Big+Rock."}
{"id":2109561111,"url":"http://farm3.staticflickr.com/2036/2109561111_b27d35658c.jpg","path":"e95/45f/e9545f8c4d2ca7c8ca2c7915893fb8bd.jpg","date":"2007-06-28","year":2007,"month":6,"lon":131.04196,"lat":-25.341816,"tags":"australia,cave,nt,red+centre+june+29+2007+scenic,rock+painting,uluru,yularra","S2CellId":"47e66e2b00000000","result":4611,"accuracy":0.1081306,"title":"Aboriginal+Rock+Painting+-+Uluru"}
{"id":258301413,"url":"http://farm1.staticflickr.com/79/258301413_eb81a4db5b.jpg","path":"9a2/43c/9a243ce780d851fc52f941f874ea4d.jpg","date":"2006-05-18","year":2006,"month":5,"lon":131.03479,"lat":-25.344103,"tags":"australia,ayer%27s+rock,ayers,kata+tjuta,rock,sunrise,uluru,valley+of+the+winds","S2CellId":"2b40000000000000","result":1520,"accuracy":0.03760035,"title":"IMG_4656"}
{"id":2909049999,"url":"http://farm4.staticflickr.com/3262/2909049999_c18d518a08.jpg","path":"fd6/459/fd64597aefc5f2eae47692906b66cf0.jpg","date":"2008-09-21","year":2008,"month":9,"lon":131.01817,"lat":-25.356445,"tags":"annemarie,australia,cycling,redcentre,uluru","S2CellId":"2b40000000000000","result":1520,"accuracy":0.89611936,"title":"Cycling+at+Uluru","description":"Annemarie+cycled+all+the+way+from+Germany+to+Australia.+Here+she+is%2C+next+to+Uluru%2C+happy+as+if+she+had+cycled+only+a+couple+of+kilometres.%0A%3Ci%3EUploaded+with+the+%3Ca+href%3D%22http%3A%2F%2Fwww.flock.com%2F%22%3EFlock+Browser%3C%2Fa%3E%3C%2Fi%3E"}
{"id":134364837,"url":"http://farm1.staticflickr.com/47/134364837_4050938a0d.jpg","path":"7a6/49c/7a649c0fa370461e30125d5a0c577.jpg","date":"2004-10-30","year":2004,"month":10,"lon":131.03633,"lat":-25.344336,"tags":"australia,australien,ayers+rock,outback,uluru","S2CellId":"2b40000000000000","result":1520,"accuracy":0.59354734,"title":"australien+630"}
{"id":4570667412,"url":"http://farm4.staticflickr.com/3473/4570667412_b88ed8e470.jpg","path":"bb4/188/bb4188744b1f20ae372ed91849ffc411.jpg","date":"2010-04-20","year":2010,"month":4,"lon":131.04698,"lat":-25.334019,"tags":"alicesprings,australia,lizard,northern+territory,uluru","S2CellId":"9aab000000000000","result":9926,"accuracy":0.02569069,"title":"Some+kind+of+Monitor+Lizard%3F"}
{"id":8058155380,"url":"http://farm9.staticflickr.com/8454/8058155380_edf0db85ce.jpg","path":"fb7/668/fb7668a1ea214c9229f51864a8aa998.jpg","date":"2012-09-22","year":2012,"month":9,"lon":131.75624,"lat":-25.31435,"tags":"australia,conner,curtin,mt,northern,springs,sunset,territory,wildlife","S2CellId":"2b40000000000000","result":1520,"accuracy":0.21325222,"title":"Sunset+behind+more+clouds"}
{"id":4114976002,"url":"http://farm3.staticflickr.com/2706/4114976002_91cf296b9b.jpg","path":"d55/858/d5585834c64a18be9c0b2110a52e98.jpg","date":"2009-11-12","year":2009,"month":11,"lon":131.02516,"lat":-25.340961,"tags":"australia,ayers+rock,northern+territory,uluru","S2CellId":"2b40000000000000","result":1520,"accuracy":0.97706455,"title":"Gentle+Gradient","description":"The+climb+to+the+top+runs+roughly+along+the+top+of+the+ridge+shown+here."}
{"id":5254211918,"url":"http://farm6.staticflickr.com/5202/5254211918_47da7ecee0.jpg","path":"ac3/9ae/ac39ae3499792568607878a3461ee1c4.jpg","date":"2010-12-10","year":2010,"month":12,"lon":131.03943,"lat":-25.343948,"tags":"australia,northern,nt,red,rock,territory,uluru","S2CellId":"2b40000000000000","result":1520,"accuracy":0.960883,"title":"IMG_1466"}
{"id":5660463014,"url":"http://farm6.staticflickr.com/5225/5660463014_d65462c77a.jpg","path":"ee1/b69/ee1b691c6fe52ffc9db19c1d6ce58e.jpg","date":"2011-02-27","year":2011,"month":2,"lon":131.004,"lat":-25.3345,"tags":"2011,acrossweirdish,australia,awws,uluru","S2CellId":"2b40000000000000","result":1520,"accuracy":0.027852092,"title":"IMG_1013","description":"Final+sunset+on+Uluru.+Yulara%2C+NT+Australia."}
{"id":130539891,"url":"http://farm1.staticflickr.com/45/130539891_7bf472d384.jpg","path":"0e7/a31/0e7a3149b62c36f82e622e79393a34f.jpg","date":"2006-03-30","year":2006,"month":3,"lon":131.5,"lat":-25.23,"tags":"australia,ayers,ayers+rock,beautiful,chain,climb,rock,sunrise,uluru","S2CellId":"2b40000000000000","result":1520,"accuracy":0.864383,"title":"Uluru+-+Sunrise+%26+Climb+033"}
{"id":2722514828,"url":"http://farm4.staticflickr.com/3246/2722514828_97a9f5c771.jpg","path":"eb2/c6c/eb2c6c1542189d735aa8d06ebc185e88.jpg","date":"2008-07-21","year":2008,"month":7,"lon":131.03394,"lat":-25.341543,"tags":"australia,central,d80,kata,national,nikkor,nikon,northern,park,territory,tjuta,uluru","S2CellId":"2b40000000000000","result":1520,"accuracy":0.84810984,"title":"Uluru"}
{"id":2715637533,"url":"http://farm4.staticflickr.com/3250/2715637533_cb6ceebdb0.jpg","path":"aa3/4f7/aa34f7d6ad4dd3b21454e2fe08f84d1.jpg","date":"2008-03-05","year":2008,"month":3,"lon":131.02844,"lat":-25.339062,"tags":"australia,ayer%27s+rock,kata-tjuta,monolith,northern+territory,olgas,outback,uluru","S2CellId":"2b40000000000000","result":1520,"accuracy":0.5978269,"title":"Uluru"}
{"id":229773952,"url":"http://farm1.staticflickr.com/62/229773952_b5d99b6e50.jpg","path":"cdf/5f3/cdf5f37ed11d7413f3bd664f07fac44.jpg","date":"2006-08-29","year":2006,"month":8,"lon":131.93636,"lat":-25.30927,"tags":"14-45+mm+f%2F3.5-5.6,14-45mm,2006,alice+springs+trip,australia,cyron,flickrimportr,landscape,mt+connor,northern+territory,photo,zd,zuiko","S2CellId":"2b40000000000000","result":1520,"accuracy":0.94332963,"title":"Worlds+Biggest+Toothbrush","description":"Mt+Connor%2C+Northern+Territory+of+Australia%0A%0A%3Ca+href%3D%22http%3A%2F%2Fmaps.yuan.cc%2F%22%3EGeotagged%3C%2Fa%3E"}
{"id":3578266572,"url":"http://farm4.staticflickr.com/3348/3578266572_a591e9ca97.jpg","path":"5ed/97e/5ed97edd9fc77cfddf9b1ab959b01e.jpg","date":"2009-05-23","year":2009,"month":5,"lon":131.03256,"lat":-25.339062,"tags":"australie,uluru","S2CellId":"6b9c000000000000","result":6776,"accuracy":0.04147904,"title":"P1040897"}
{"id":5256436034,"url":"http://farm6.staticflickr.com/5169/5256436034_78ae3d8aea.jpg","path":"a2a/fbe/a2afbeb2eb77e62bb4f78d5a9466f484.jpg","date":"2010-12-10","year":2010,"month":12,"lon":131.03943,"lat":-25.343948,"tags":"aboriginal,australia,ayers+rock,kata,national,northern+territory,nt,park,red,reserve,rock,tjuta,uluru","S2CellId":"2b40000000000000","result":1520,"accuracy":0.545508,"title":"DSCN4490"}
{"id":5505604382,"url":"http://farm6.staticflickr.com/5140/5505604382_2f7f538dde.jpg","path":"8fb/ced/8fbced7ddec8f0dd458ccc5e37d2c65.jpg","date":"2011-02-06","year":2011,"month":2,"lon":131.05716,"lat":-25.338667,"tags":"australia,vacation","S2CellId":"2b40000000000000","result":1520,"accuracy":0.72167766,"title":"Australia+58"}
{"id":5376786608,"url":"http://farm6.staticflickr.com/5207/5376786608_a391cfbe6f.jpg","path":"7ac/37e/7ac37e27c69af03ad298f35a388219b4.jpg","date":"2010-12-25","year":2010,"month":12,"lon":131.03427,"lat":-25.34581,"tags":"australia,ayers+rock,dawn,northern+territory,panorama,uluru","S2CellId":"30cc000000000000","result":1621,"accuracy":0.11754638,"title":"Another+Uluru+Photo+but+this+time+a+panorama","description":"A+panorama+shot+of+Uluru+%28Ayers+Rock%29+taken+at+dawn."}
{"id":12853527004,"url":"http://farm4.staticflickr.com/3742/12853527004_311a347862.jpg","path":"9cc/6b0/9cc6b092692e709962daa8c6349529a0.jpg","date":"2014-02-17","year":2014,"month":2,"lon":131.06406,"lat":-25.367462,"tags":"gaa","S2CellId":"2b40000000000000","result":1520,"accuracy":0.981428,"title":"The+Red+Centre","description":"Photos+from+our+time+in+and+around+Uluru"}
{"id":3671770247,"url":"http://farm4.staticflickr.com/3552/3671770247_2d07dde72c.jpg","path":"4ab/a16/4aba16cd7c9597a1717c27d5da439a16.jpg","date":"2008-01-27","year":2008,"month":1,"lon":131.00836,"lat":-25.350697,"tags":"2002,australia,ayers+rock,northern+territory,nt,outback+australia,trip,uluru","S2CellId":"2b40000000000000","result":1520,"accuracy":0.94076884,"title":"Ulurua","description":"Also+known+as+Ayers+Rock"}
{"id":3539560584,"url":"http://farm3.staticflickr.com/2094/3539560584_d33b73fa5f.jpg","path":"953/54d/95354da980c7fc03bcd6ad8b58a2a3.jpg","date":"2009-01-23","year":2009,"month":1,"lon":131.00716,"lat":-25.344336,"tags":"australia,ayers+rock,filmcamera,fishaye,fishaye.co.uk,fisheye,outback,uluru","S2CellId":"00b9000000000000","result":65,"accuracy":0.009241576,"title":"Uluru"}
{"id":2807747400,"url":"http://farm4.staticflickr.com/3149/2807747400_c836c9cdba.jpg","path":"047/fe5/047fe53a4d3aeb6846fc799f73fd842.jpg","date":"2008-08-23","year":2008,"month":8,"lon":131.03574,"lat":-25.34515,"tags":"australia,canong9,desert,landscapes,monolit,outback,travelling,uluru,unesco","S2CellId":"2b40000000000000","result":1520,"accuracy":0.99228644,"title":"Uluru","description":"sunrise"}
{"id":8068143634,"url":"http://farm9.staticflickr.com/8457/8068143634_bcfe23620f.jpg","path":"694/236/6942361ac59b4b882b5cb578c392be4f.jpg","date":"2012-07-05","year":2012,"month":7,"lon":131.02629,"lat":-25.35155,"tags":"australia,bird,bush,red+centre","S2CellId":"88fb990000000000","result":8747,"accuracy":0.0057075913,"title":"Bird+in+the+bush+at+Uluru","description":"Better+a+bird+in+the+bush+than+a+dozen+in+hand%2C+no..%3F"}
{"id":2869364999,"url":"http://farm4.staticflickr.com/3057/2869364999_d671f651d6.jpg","path":"8cd/eed/8cdeed67eb5fde67b93c78716b4cfb3.jpg","date":"2008-05-16","year":2008,"month":5,"lon":131.03384,"lat":-25.353598,"tags":"afternoon,australia,bloodwoodtree,nationalpark,northernterritory,uluru","S2CellId":"2b40000000000000","result":1520,"accuracy":0.93470633,"title":"Uluru+limit"}
{"id":3574858701,"url":"http://farm3.staticflickr.com/2444/3574858701_b783674944.jpg","path":"c98/ba7/c98ba78d8e142f83f5c9f78548a52.jpg","date":"2009-05-23","year":2009,"month":5,"lon":131.03256,"lat":-25.339062,"tags":"australie,uluru","S2CellId":"2b40000000000000","result":1520,"accuracy":0.9864879,"title":"P1040775"}
{"id":3710671489,"url":"http://farm3.staticflickr.com/2565/3710671489_0f73350951.jpg","path":"b3c/62c/b3c62c57a6ad14f5ee7aaefda13377d7.jpg","date":"2009-05-17","year":2009,"month":5,"lon":131.03917,"lat":-25.346334,"tags":"australia,ayers+rock,working+holiday","S2CellId":"2b40000000000000","result":1520,"accuracy":0.83071434,"title":"R0011353.JPG"}
{"id":5660403104,"url":"http://farm6.staticflickr.com/5266/5660403104_acee91e282.jpg","path":"fe4/075/fe407514c9926eb4176ec6e3937e91.jpg","date":"2011-02-27","year":2011,"month":2,"lon":131.06383,"lat":-25.366167,"tags":"2011,acrossweirdish,australia,awws,uluru","S2CellId":"2b40000000000000","result":1520,"accuracy":0.7229137,"title":"IMG_0940","description":"Sunrise+on+Uluru.+Yulara%2C+NT.+Australia."}
{"id":3139064361,"url":"http://farm4.staticflickr.com/3243/3139064361_2346437e17.jpg","path":"838/b91/838b916c8eb530b0f584408f72901c62.jpg","date":"2008-07-05","year":2008,"month":7,"lon":131.03806,"lat":-25.35535,"tags":"australia,ayers+rock+panorama,ayersrock,northernterritory,nt,outback,panorama,uluru,ulurudawn,ulurukatatjuta,ulurupanorama,ulutukatatjutanationalpark","S2CellId":"2b40000000000000","result":1520,"accuracy":0.79883176,"title":"Dawn+at+Uluru","description":"This+is+Uluru+from+the+dawn+lookout.+Pretty+busy+place%2C+hard+to+take+pics+without+people+around."}
{"id":9634631231,"url":"http://farm4.staticflickr.com/3809/9634631231_a0e86ac201.jpg","path":"e71/865/e71865b0119e23816be832f57d89a1d.jpg","date":"2013-08-28","year":2013,"month":8,"lon":131.04817,"lat":-25.350061,"tags":"australia,ayers+rock,central+australia,northern+territory,uluru,uluru-kata+tjuta+national+park","S2CellId":"2b40000000000000","result":1520,"accuracy":0.9921067,"title":"Uluru+%28Ayers+Rock%29","description":"Central+Australia%2C+Northern+Territory%2C+Australia%0A26-30+August+2013%0A%0AUluru+%28Ayers+Rock%29%2C+Uluru-Kata+Tjuta+National+Park"}
{"id":3009133179,"url":"http://farm4.staticflickr.com/3206/3009133179_f5658dac63.jpg","path":"8ef/f6d/8eff6daeedc932e01d417a582a9bab2.jpg","date":"2008-10-09","year":2008,"month":10,"lon":131.03552,"lat":-25.344297,"tags":"aboriginal,aboriginalart,art,australia,ayersrock,cave,desert,ho,holiday,kaptainkobold,northernterritory,nt,painting,redcentre,roadtrip,sky,uluru,wolrdheritage","S2CellId":"2cb0000000000000","result":1530,"accuracy":0.024610844,"title":"Aboriginal+Art","description":"Uluru%2C+Northern+Territory"}
{"id":4127646085,"url":"http://farm3.staticflickr.com/2519/4127646085_7d8fa4c537.jpg","path":"e97/943/e9794386a53fb57118f94dea9e8e80.jpg","date":"2009-11-12","year":2009,"month":11,"lon":131.04814,"lat":-25.332855,"tags":"australia,ayers+rock,northern+territory,uluru","S2CellId":"2b40000000000000","result":1520,"accuracy":0.93199074,"title":"Onset+of+Colour"}
{"id":5660451458,"url":"http://farm6.staticflickr.com/5142/5660451458_2387a136c7.jpg","path":"e1f/01e/e1f01e224027dff54cd7d4dc17ffe658.jpg","date":"2011-02-27","year":2011,"month":2,"lon":131.03383,"lat":-25.352667,"tags":"2011,acrossweirdish,australia,awws,uluru","S2CellId":"2b40000000000000","result":1520,"accuracy":0.960562,"title":"IMG_1002","description":"Walking+around+the+whole+of+Uluru%2C+Yulara%2C+NT+Australia."}
{"id":3710730359,"url":"http://farm3.staticflickr.com/2529/3710730359_c5e98c1cf7.jpg","path":"387/97a/38797a2ac2a328429e1be25ea94f4c.jpg","date":"2009-05-18","year":2009,"month":5,"lon":131.0392,"lat":-25.3464,"tags":"australia,ayers+rock,working+holiday","S2CellId":"2b40000000000000","result":1520,"accuracy":0.9486298,"title":"R0011481.JPG"}
{"id":3531140988,"url":"http://farm3.staticflickr.com/2223/3531140988_abe9c09e12.jpg","path":"460/ab7/460ab7e3aa59e91f451fd195afb6aab.jpg","date":"2008-07-18","year":2008,"month":7,"lon":131.04732,"lat":-25.335842,"tags":"australia,ayers+rock,landscape,lensflare,sun,sunrise,uluru","S2CellId":"2b40000000000000","result":1520,"accuracy":0.68105054,"title":"Ayer%27s+Rock+%2F+Uluru+4"}
{"id":8625402878,"url":"http://farm9.staticflickr.com/8109/8625402878_666904cd0f.jpg","path":"2aa/e70/2aae7026f1308a696a654d7a1424bce3.jpg","date":"2010-11-15","year":2010,"month":11,"lon":131.00647,"lat":-25.378773,"tags":"australia,australie,oz2k10","S2CellId":"86d5000000000000","result":7692,"accuracy":0.23065387,"title":"Les+monts+Olgas%2C+a%CC%80+co%CC%82te%CC%81+d%27Uluru%2C+moins+connu+mais+tout+aussi+impressionants+..."}
