{"id":9049352002,"url":"http://farm4.staticflickr.com/3731/9049352002_bbe617c47a.jpg","path":"755/8a4/7558a431b1db385bfe8e17c9efb9d.jpg","date":"2013-06-15","year":2013,"month":6,"lon":82.96497,"lat":55.462894,"tags":"birds,birds+of+siberia,birdwatching,common+grasshopper+warbler,locustella+naevia,novosibirsk,russia,siberia,western+siberia,wild+life,wild+nature","S2CellId":"88d0a631cabb5071","result":8563,"accuracy":0.24755765,"title":"Common+Grasshopper+Warbler+%28Locustella+naevia%29","description":"15.06.2013.+Novosibirskaya+Oblast%2C+Western+Siberia%2C+Russia."}
{"id":8050166858,"url":"http://farm9.staticflickr.com/8460/8050166858_15af5b8909.jpg","path":"447/2e3/4472e3ac30144f32a9f6b3cc8cffc61e.jpg","date":"2012-05-20","year":2012,"month":5,"lon":82.705765,"lat":55.569805,"tags":"animal+planet,birds,birds+of+siberia,birdwatching,great+gray+owl,novosibirsk,russia,siberia,strix+nebulosa,western+siberia,wild+life,wild+nature","S2CellId":"883cae5000000000","result":8363,"accuracy":0.07380823,"title":"Great+Gray+Owl+%28Strix+nebulosa%29","description":"20%2F05%2F2012.+Novosibirskaya+Oblast%2C+Western+Siberia%2C+Russia."}
{"id":4751742135,"url":"http://farm5.staticflickr.com/4137/4751742135_79fc05c65d.jpg","path":"ace/33b/ace33beb87c92bbdf95cb13ce2f7fd.jpg","date":"2010-06-23","year":2010,"month":6,"lon":82.93444,"lat":55.04111,"tags":"apiarists,apiary,bee,bee+keeper,bee+keeping,beehive,dacha,hive,honey,honey+bee,honeycomb,russia,russian,siberia,siberian","S2CellId":"4872500000000000","result":5080,"accuracy":0.013500652,"title":"%D0%A1%D0%B8%D0%B1%D0%B8%D1%80%D1%8C+035","description":"Entrance"}
{"id":8463048278,"url":"http://farm9.staticflickr.com/8366/8463048278_18a9361eb1.jpg","path":"496/318/49631871c5881958a51be6abb71a58a.jpg","date":"2012-11-04","year":2012,"month":11,"lon":82.88162,"lat":55.057602,"tags":"animals,eurasian+red+squirrel,novosibirsk,russia,sciurus+vulgaris,siberia,western+siberia","S2CellId":"883cae5000000000","result":8363,"accuracy":0.476957,"title":"Eurasian+red+squirrel+%28Sciurus+vulgaris%29","description":"04.11.2012.+Novosibirsk%2C+West+Siberia%2C+Russia."}
{"id":6679018149,"url":"http://farm8.staticflickr.com/7164/6679018149_a39612e4a6.jpg","path":"70e/779/70e7791e95ebf12494e22d83165360.jpg","date":"2012-01-11","year":2012,"month":1,"lon":82.89206,"lat":55.01994,"tags":"2011,city,film,novosibirsk,sky,snow,urban,winter,yashica+taf","S2CellId":"5e50000000000000","result":6342,"accuracy":0.023169683,"title":"75030013"}
{"id":3807092168,"url":"http://farm3.staticflickr.com/2586/3807092168_01ee158899.jpg","path":"885/4ed/8854ed5b5788733b96f2accc8cf7d9ee.jpg","date":"2009-08-10","year":2009,"month":8,"lon":82.929955,"lat":55.040443,"tags":"14-42,countryside,digital,e-420,landscape,olympus,zuiko","S2CellId":"472c000000000000","result":3253,"accuracy":0.010311529}
{"id":8059903340,"url":"http://farm9.staticflickr.com/8453/8059903340_bc6f070269.jpg","path":"7a7/ce6/7a7ce68c7849cf915ee9b8e1e2539746.jpg","date":"2012-05-20","year":2012,"month":5,"lon":82.72499,"lat":55.87223,"tags":"aquila+clanga,birds,birds+of+siberia,birdwatching,greater+spotted+eagle,novosibirsk,russia,siberia,western+siberia,wild+life,wild+nature","S2CellId":"88d0a631cabb5071","result":8563,"accuracy":0.16065177,"title":"Greater+Spotted+Eagle+%28Aquila+clanga%29","description":"20%2F05%2F2012.+Novosibirskaya+Oblast%2C+Western+Siberia%2C+Russia."}
{"id":2206041357,"url":"http://farm3.staticflickr.com/2030/2206041357_62a54dc7df.jpg","path":"5b9/edd/5b9eddc5648c5c3f3e7ea5fa49ee19.jpg","date":"2007-01-14","year":2007,"month":1,"lon":82.91957,"lat":55.028057,"tags":"novosibirsk,sculpture,snow","S2CellId":"89e36c0000000000","result":9310,"accuracy":0.057383128,"title":"%D0%A0%D0%BE%D0%B6%D0%B4%D0%B5%D1%81%D1%82%D0%B2%D0%BE","description":"%D0%9C%D0%BE%D1%81%D0%BA%D0%B2%D0%B0"}
{"id":2617938188,"url":"http://farm4.staticflickr.com/3276/2617938188_e40cc8a6c0.jpg","path":"b71/f47/b71f47966c040d0d6f8df7453c4349.jpg","date":"2008-06-25","year":2008,"month":6,"lon":82.92772,"lat":55.03358,"tags":"russland,sibirien","S2CellId":"40d4ce4000000000","result":2701,"accuracy":0.099319056,"title":"IMG_2099","description":"Gibts+eigentlich+irgendeine+Tageszeit%2C+zu+der+in+Novosibirsk+kein+Stau+ist%3F"}
{"id":282264098,"url":"http://farm1.staticflickr.com/122/282264098_144d2e0266.jpg","path":"6ef/959/6ef959a766558d9e44d5e2ac2bf2dba4.jpg","date":"2006-10-27","year":2006,"month":10,"lon":82.91872,"lat":55.034298,"tags":"%D0%BD%D0%BE%D0%B2%D0%BE%D1%81%D0%B8%D0%B1%D0%B8%D1%80%D1%81%D0%BA,%D1%80%D0%BE%D1%81%D1%81%D0%B8%D1%8F,novosibirsk,russia","S2CellId":"89c259b400000000","result":9036,"accuracy":0.01565115,"title":"Novosibirsk%27s+Nightlife","description":"Rock+City+club%0A%0A%3Ca+href%3D%22http%3A%2F%2Floc.alize.us%2F%23%2Fflickr%3A282264098%22%3ESee+where+this+picture+was+taken.%3C%2Fa%3E+%3Ca+href%3D%22http%3A%2F%2Fwww.flickr.com%2Fgroups%2Fgeotagging%2Fdiscuss%2F72157594165549916%2F%22%3E%5B%3F%5D%3C%2Fa%3E"}
{"id":3737480971,"url":"http://farm3.staticflickr.com/2574/3737480971_d649c43687.jpg","path":"5a6/4f5/5a64f59e04149dccf9d60fa994f2f79.jpg","date":"2009-07-20","year":2009,"month":7,"lon":82.929955,"lat":55.040443,"tags":"14-42,countryside,digital,e-420,landscape,olympus,zuiko","S2CellId":"478e700000000000","result":3681,"accuracy":0.008646578}
{"id":4496635183,"url":"http://farm5.staticflickr.com/4026/4496635183_944fa1d75c.jpg","path":"6cc/cf2/6cccf24b31685fcbb3d1fcad55439f38.jpg","date":"2010-04-06","year":2010,"month":4,"lon":82.90978,"lat":55.014885,"tags":"kodak,novosibirsk,pigeon,russia,siberia,spring,street","S2CellId":"47e66e20858771d3","result":4594,"accuracy":0.009865847,"title":"Pigeons","description":"Pigeons"}
{"id":2822479342,"url":"http://farm4.staticflickr.com/3092/2822479342_ebe5f31701.jpg","path":"8c3/18a/8c318a68a55b9af7ff1ad987605d84fb.jpg","date":"2008-09-03","year":2008,"month":9,"lon":82.940994,"lat":55.026333,"tags":"city,novosibirsk,roofs,travelogue,village","S2CellId":"42c0000000000000","result":2742,"accuracy":0.17900582,"title":"Summer+In+The+City"}
{"id":2296088402,"url":"http://farm4.staticflickr.com/3198/2296088402_2b23fc93f6.jpg","path":"a64/45f/a6445f93ad26bbf8d85951b2f85052ed.jpg","date":"2006-04-21","year":2006,"month":4,"lon":82.94279,"lat":55.003098,"tags":"novosibirsk,russia","S2CellId":"46b3000000000000","result":3046,"accuracy":0.05526296,"title":"Novosibirsk+0205","description":"Novosibirsk"}
