{"id":170082885,"url":"http://farm1.staticflickr.com/49/170082885_99f4cfc1ec.jpg","path":"5d4/ea9/5d4ea9b6ed743348c5c82e1a43eacef4.jpg","date":"2006-06-18","year":2006,"month":6,"lon":-107.97552,"lat":36.06506,"tags":"archaeology,chaco+canyon,new+mexico,southwest","S2CellId":"872f000000000000","result":7782,"accuracy":0.23371781,"title":"Kin+Bineola+-+002"}
{"id":2529284830,"url":"http://farm3.staticflickr.com/2165/2529284830_fd999f634d.jpg","path":"252/627/252627f27ea4e0f0a01a6db486779e8d.jpg","date":"2006-01-19","year":2006,"month":1,"lon":-107.99827,"lat":36.83555,"tags":"american,aztec,liminae,mexico,native,new,peregrinatus,usa","S2CellId":"873d000000000000","result":7804,"accuracy":0.82630867,"title":"USA_New_Mexico_Astech_0149"}
{"id":3059374270,"url":"http://farm4.staticflickr.com/3289/3059374270_7f035e9a39.jpg","path":"234/5b9/2345b9662190b5c9a0d83ed5b1b07b8.jpg","date":"2007-05-31","year":2007,"month":5,"lon":-107.95998,"lat":36.054985,"tags":"%E5%A4%95%E7%84%BC%E3%81%91,chaco,chaco+canyon,high+desert,new+mexico,sky,southwest,sunset","S2CellId":"8748400000000000","result":7819,"accuracy":0.14401329,"title":"chacoan+landscape+5"}
{"id":6872691752,"url":"http://farm8.staticflickr.com/7131/6872691752_ece173ef78.jpg","path":"6b6/279/6b6279f568df7cb687e446d932588a.jpg","date":"2012-03-24","year":2012,"month":3,"lon":-107.623955,"lat":36.812996,"tags":"dam,fly+fishing,navajo,new+mexico,rainbow+lodge,steve+gill,texas+hole","S2CellId":"54bec00000000000","result":6298,"accuracy":0.028143384,"title":"New+Mexico+Fishing+Trip+2012","description":"Photography+by+Andrea+Wagnon"}
{"id":7018771225,"url":"http://farm8.staticflickr.com/7129/7018771225_f61ee751ff.jpg","path":"af2/947/af29470e623ff27a88b65217cea7ad2.jpg","date":"2012-03-23","year":2012,"month":3,"lon":-107.623955,"lat":36.812996,"tags":"dam,fly+fishing,navajo,new+mexico,rainbow+lodge,steve+gill,texas+hole","S2CellId":"54b9000000000000","result":6294,"accuracy":0.039603576,"title":"New+Mexico+Fishing+Trip+2012","description":"Photography+by+Andrea+Wagnon"}
{"id":163822816,"url":"http://farm1.staticflickr.com/47/163822816_0941683119.jpg","path":"a87/682/a87682d194f85243f7a378374cca84b4.jpg","date":"2006-03-10","year":2006,"month":3,"lon":-107.97552,"lat":36.06506,"tags":"archaeology,chaco+canyon,new+mexico,pueblo,southwest","S2CellId":"14a8400000000000","result":1267,"accuracy":0.05502671,"title":"Kin+Bineola_1657"}
{"id":8893532813,"url":"http://farm9.staticflickr.com/8129/8893532813_ab7f712147.jpg","path":"3a4/64b/3a464b382694d6a3cc8e3433aadb43f.jpg","date":"2013-05-17","year":2013,"month":5,"lon":-107.27925,"lat":36.152397,"tags":"artemisia+tridentata+wyomingensis,asteraceae,atriplex+canescens,bloomfield,hilaria+jamesii,james%27+galleta,native,new+mexico,perennial,pleuraphis+jamesii,sarcobatus+vermiculatus,shrub,wyoming+big+sagebrush","S2CellId":"2b40000000000000","result":1520,"accuracy":0.22014414,"title":"Sagebrush+steppe%2C+San+Juan+County%2C+NM","description":"Along+hwy+550+between+Cuba+and+Bloomfield%2C+sagebrush+steppe+is+common+and+in+a+few+places+seems+to+be+little+disturbed+physically+%28Sarcobatus%2C+Atriplex%2C+and+Hilaria+are+common%29.+Bromus+tectorum+is+somewhat+common+roadside+but+absent+on+the+flats+among+the+shrubs+regardless+of+the+degree+of+physical+distrubance."}
{"id":7792579708,"url":"http://farm9.staticflickr.com/8286/7792579708_2c4888e245.jpg","path":"197/02d/19702d6fd6909b6114526876b56732.jpg","date":"2012-08-07","year":2012,"month":8,"lon":-107.196434,"lat":36.67341,"tags":"aec,atomic,atomic+energy+commission,el+paso+natural+gas,farmington,farmington+new+mexico,fracking,gasbuggy,mining,new+mexico,nuclear,nuclear+blast,project+gasbuggy","S2CellId":"5491100000000000","result":6228,"accuracy":0.025057632,"title":"Project+Gasbuggy+Nuclear+Test+Site"}
{"id":2248359160,"url":"http://farm3.staticflickr.com/2033/2248359160_d0f513c237.jpg","path":"61c/e92/61ce92f0bc374030421a955583f1e9fb.jpg","date":"2008-01-09","year":2008,"month":1,"lon":-107.967964,"lat":36.065136,"tags":"butte,chaco+canyon,chaco+culture+national+historic+park,chacoan,cliff,national+park+service,new+mexico,pueblo,pueblo+bonito,ruins,snow","S2CellId":"8748400000000000","result":7819,"accuracy":0.26663962,"title":"Pueblo+Bonito+Overlook","description":"This+view+is+looking+east+to+Pueblo+Bonito+instead+of+west+to+%3Ca+href%3D%22http%3A%2F%2Fwww.flickr.com%2Fphotos%2Fbaggis%2F2240943005%2Fin%2Fphotostream%2F%22%3EKin+Klesto%3C%2Fa%3E+along+the+north+slope+of+the+Chaco+Canyon+butte.%0A%0AThe+extent+of+the+Pueblo+Bonito+complex+seems+to+be+pretty+large."}
{"id":6845163614,"url":"http://farm8.staticflickr.com/7060/6845163614_0992d1b0dc.jpg","path":"e7c/c4c/e7cc4c7effb49cb75dff3d6125a30e6.jpg","date":"2012-03-17","year":2012,"month":3,"lon":-107.95286,"lat":36.05701,"tags":"chaco,mexico,navajo,new,newmexico","S2CellId":"872f000000000000","result":7782,"accuracy":0.3097506,"title":"Chaco_2012053"}
{"id":8894158630,"url":"http://farm9.staticflickr.com/8420/8894158630_1e5983f4af.jpg","path":"b45/ec9/b45ec9bdcf15c4466b9ae649c4f0779e.jpg","date":"2013-05-17","year":2013,"month":5,"lon":-107.27937,"lat":36.15235,"tags":"artemisia+tridentata+wyomingensis,asteraceae,atriplex+canescens,bloomfield,hilaria+jamesii,james%27+galleta,native,new+mexico,perennial,pleuraphis+jamesii,sarcobatus+vermiculatus,shrub,wyoming+big+sagebrush","S2CellId":"86dc000000000000","result":7706,"accuracy":0.06770731,"title":"Sagebrush+steppe%2C+San+Juan+County%2C+NM","description":"Along+hwy+550+between+Cuba+and+Bloomfield%2C+sagebrush+steppe+is+common+and+in+a+few+places+seems+to+be+little+disturbed+physically+%28Sarcobatus%2C+Atriplex%2C+and+Hilaria+are+common%29.+Bromus+tectorum+is+somewhat+common+roadside+but+absent+on+the+flats+among+the+shrubs+regardless+of+the+degree+of+physical+distrubance."}
{"id":7018769915,"url":"http://farm7.staticflickr.com/6054/7018769915_52a83a6510.jpg","path":"8f4/bb7/8f4bb7f6b1239beedf9fc4242970da65.jpg","date":"2012-03-23","year":2012,"month":3,"lon":-107.623955,"lat":36.812996,"tags":"dam,fly+fishing,navajo,new+mexico,rainbow+lodge,steve+gill,texas+hole","S2CellId":"873d000000000000","result":7804,"accuracy":0.09219549,"title":"New+Mexico+Fishing+Trip+2012","description":"Photography+by+Andrea+Wagnon"}
{"id":8692166654,"url":"http://farm9.staticflickr.com/8257/8692166654_f6e42e4a92.jpg","path":"c12/c4d/c12c4df2475da84dfff3997414adc077.jpg","date":"2013-04-28","year":2013,"month":4,"lon":-107.96169,"lat":36.06047,"tags":"american+indian,american+southwest,anasazi,ancestral+pueblo,ancient+people,ancient+ruins,archaeology,chaco+canyon,native+american,native+culture,new+mexico,southwest","S2CellId":"1325f40000000000","result":999,"accuracy":0.110152386,"title":"Main+Kiva+at+Pueblo+Bonito"}
{"id":1309974941,"url":"http://farm2.staticflickr.com/1194/1309974941_b1e690307d.jpg","path":"509/c48/509c482ea510641bd14f3af9c79e115d.jpg","date":"2007-09-01","year":2007,"month":9,"lon":-107.62175,"lat":36.81003,"tags":"clouds,new+mexico,san+juan+river,sky","S2CellId":"88d0a631cabb5071","result":8563,"accuracy":0.04426893,"title":"Dark+Cloud"}
{"id":6872566744,"url":"http://farm8.staticflickr.com/7066/6872566744_0074f9ceff.jpg","path":"fb2/25f/fb225f87fc4c315e1ae2c3d2e089b9.jpg","date":"2012-03-23","year":2012,"month":3,"lon":-107.623955,"lat":36.812996,"tags":"dam,fly+fishing,navajo,new+mexico,rainbow+lodge,steve+gill,texas+hole","S2CellId":"8741c00000000000","result":7812,"accuracy":0.04972823,"title":"New+Mexico+Fishing+Trip+2012","description":"Photography+by+Andrea+Wagnon"}
{"id":6991297229,"url":"http://farm8.staticflickr.com/7065/6991297229_28653eeb1f.jpg","path":"d4e/3fa/d4e3fadbb1bf1ec7a45712b2c91fbe31.jpg","date":"2012-03-17","year":2012,"month":3,"lon":-107.95286,"lat":36.05701,"tags":"chaco,mexico,navajo,new,newmexico","S2CellId":"8717000000000000","result":7728,"accuracy":0.013153569,"title":"Chaco_2012088"}
{"id":6273495356,"url":"http://farm7.staticflickr.com/6230/6273495356_837b4bd405.jpg","path":"b35/ba5/b35ba5f7d9b8452cea7426fdfe9d03.jpg","date":"2011-10-13","year":2011,"month":10,"lon":-107.96883,"lat":36.058884,"tags":"anasazi,ancient,ancient+pueblos+peoples,archaeological+site,canyon,chaco+canyon,chaco+culture+national+historical+park,colorado+plateau,four+corners,historical,hopi,house,mckinley+county%2C+new+mexico,nageezi%2C+new+mexico,national+park,navajo,pueblo,pueblo+bonito,rock,ruins,sacred,san+juan+basin,san+juan+county%2C+new+mexico,sandstone,southwest,stone,unesco+world+heritage+site","S2CellId":"8737000000000000","result":7801,"accuracy":0.16779484,"title":"Pueblo+Bonito"}
{"id":169892653,"url":"http://farm1.staticflickr.com/62/169892653_e67ce8c252.jpg","path":"245/92d/24592d82dada4794fa35d985b89156a2.jpg","date":"2006-06-18","year":2006,"month":6,"lon":-107.99874,"lat":36.835686,"tags":"archaeology,aztec+ruins,new+mexico,pueblo,southwest","S2CellId":"873d000000000000","result":7804,"accuracy":0.8628491,"title":"Aztec+Ruins+-+005"}
{"id":4823143418,"url":"http://farm5.staticflickr.com/4142/4823143418_0f9af8ebe2.jpg","path":"ecc/127/ecc1274bc2254f4a4480a4e0b5c014.jpg","date":"2010-07-11","year":2010,"month":7,"lon":-107.99955,"lat":36.83507,"tags":"azru,aztec+ruins+national+monument,national+parks,new+mexico","S2CellId":"870c000000000000","result":7715,"accuracy":0.08278644,"title":"kiva+and+ruins"}
