{"id":6131030946,"url":"http://farm7.staticflickr.com/6061/6131030946_2e7a31675e.jpg","path":"872/816/8728166da0d02fbb93d6e885ac3180aa.jpg","date":"2010-12-26","year":2010,"month":12,"lon":17.849522,"lat":53.5249,"tags":"dozer,plow,poland,polish,road,snow,winter","S2CellId":"45d4000000000000","result":2755,"accuracy":0.075560585,"title":"Snow+plow"}
{"id":5581825571,"url":"http://farm6.staticflickr.com/5060/5581825571_e040f8c45a.jpg","path":"693/15f/69315fdb47a5c43ee43e750dba4fe8a.jpg","date":"2010-09-18","year":2010,"month":9,"lon":17.994638,"lat":53.12717,"tags":"bydgoszcz,conference,iatefl","S2CellId":"476c400000000000","result":3325,"accuracy":0.009302342,"title":"IATEFL+Poland+Bydgoszcz+2010+Conference"}
{"id":2722035843,"url":"http://farm4.staticflickr.com/3133/2722035843_3d12f88c6f.jpg","path":"96e/372/96e37216dc9121c6ea4eb1b25f9424af.jpg","date":"2008-07-20","year":2008,"month":7,"lon":17.907372,"lat":53.957096,"tags":"2007.07.20,borsk,czarnowodzianka,gimped,jacht,jezioro,keja,orion,sail,wdzydze,yacht","S2CellId":"4cad000000000000","result":5833,"accuracy":0.11111858,"title":"2008.07.20+-+Orion+class+yacht+on+Wdzydze+Lake%2C+Cassubia%2C+Poland","description":"Jacht+klasy+Orion+na+Jeziorze+Wdzydze."}
{"id":5966088505,"url":"http://farm7.staticflickr.com/6011/5966088505_eb0afdbffe.jpg","path":"e14/89a/e1489a40d342c689f1b05bd1a33d4a4.jpg","date":"2011-07-15","year":2011,"month":7,"lon":17.905226,"lat":53.669357,"tags":"bory+tucholskie,brda,forest,kujawsko-pomorskie,las,natura,nature,poland,polska,przyroda,river,rzeka,water,woda,woziwoda","S2CellId":"8893000000000000","result":8521,"accuracy":0.03277623,"title":"Woziwoda","description":"Przysta%C5%84+kajakowa+nad+Brd%C4%85+przy+polu+namiotowym%2C+Woziwoda%2C+Tucholski+Park+Krajobrazowy%2C+15+lipca+2011+r.%0A**%0AA+quay+on+the+Brda+river+near+a+campsite%2C+Woziwoda%2C+Tuchola+Landscape+Park%2C+July+15%2C+2011"}
{"id":4864274834,"url":"http://farm5.staticflickr.com/4137/4864274834_549f008a4e.jpg","path":"678/e85/678e85081a645d34277e1d23c53df.jpg","date":"2010-07-18","year":2010,"month":7,"lon":17.54448,"lat":53.891796,"tags":"kaszuby,kayaking","S2CellId":"881f000000000000","result":8212,"accuracy":0.020304363,"title":"IMG_7463"}
{"id":4863672993,"url":"http://farm5.staticflickr.com/4102/4863672993_e9d4e7fb23.jpg","path":"ca5/f5b/ca5f5b6e9775eab3239c4a1a3177bb63.jpg","date":"2010-07-19","year":2010,"month":7,"lon":17.54448,"lat":53.891796,"tags":"kaszuby,kayaking","S2CellId":"4717400000000000","result":3228,"accuracy":0.1437884,"title":"IMG_7497"}
