{"id":1812759616,"url":"http://farm3.staticflickr.com/2175/1812759616_3a67df0dd5.jpg","path":"ef4/11f/ef411f31b81a41bc2ee5a18cd282420.jpg","date":"2007-10-22","year":2007,"month":10,"lon":-101.54766,"lat":17.63257,"tags":"honeymoon,mexico,tides,zihuatanejo","S2CellId":"0c6a400000000000","result":151,"accuracy":0.03475611,"title":"Honeymoon-89"}
{"id":1812817854,"url":"http://farm3.staticflickr.com/2333/1812817854_c438d2c25c.jpg","path":"3b1/e9a/3b1e9ab6e0e21351fe1e8c65eb8ab64.jpg","date":"2007-10-26","year":2007,"month":10,"lon":-101.54766,"lat":17.63257,"tags":"honeymoon,mexico,tides,zihuatanejo","S2CellId":"5494c00000000000","result":6235,"accuracy":0.043727625,"title":"Honeymoon-994"}
{"id":211092298,"url":"http://farm1.staticflickr.com/77/211092298_62d5b5c8fc.jpg","path":"326/0b5/3260b515b5754c6fe958b3ef5c6928b.jpg","date":"2006-07-11","year":2006,"month":7,"lon":-101.72284,"lat":17.779093,"tags":"textura","S2CellId":"5494c00000000000","result":6235,"accuracy":0.03680232,"title":"Que+dice+la+arena","description":"qu%C3%A9+dice+la+arena+%2F%0Ade+como+se+borran+las+huellas+%2F%0Ade+c%C3%B3mo+todo+se+cambia+%2F%0Apara+decir+cosas+nuevas"}
{"id":3377786162,"url":"http://farm4.staticflickr.com/3433/3377786162_459f889bf2.jpg","path":"be3/6e6/be36e645e88de0bba7803124883d.jpg","date":"2009-03-09","year":2009,"month":3,"lon":-101.6007,"lat":17.654327,"tags":"ixtapa,mexico2009","S2CellId":"7954400000000000","result":6868,"accuracy":0.100223124,"title":"Mexican+fiesta+at+the+resort"}
{"id":1812402026,"url":"http://farm3.staticflickr.com/2006/1812402026_08b9a6314a.jpg","path":"468/31d/46831d26cbc55345827f261cbe39b9.jpg","date":"2007-10-24","year":2007,"month":10,"lon":-101.54766,"lat":17.63257,"tags":"honeymoon,mexico,tides,zihuatanejo","S2CellId":"1ed0000000000000","result":1478,"accuracy":0.010467732,"title":"Honeymoon-322"}
{"id":1811506761,"url":"http://farm3.staticflickr.com/2417/1811506761_18577e4dc5.jpg","path":"6d1/f3c/6d1f3c6b9e761e1efb8ac18588b979.jpg","date":"2007-10-22","year":2007,"month":10,"lon":-101.54766,"lat":17.63257,"tags":"honeymoon,mexico,tides,zihuatanejo","S2CellId":"80dc010000000000","result":7324,"accuracy":0.019176224,"title":"Honeymoon-174"}
{"id":2230249897,"url":"http://farm3.staticflickr.com/2399/2230249897_2b70e8251d.jpg","path":"3b6/ff8/3b6ff86734c33e24a4da49ce90524488.jpg","date":"2008-01-26","year":2008,"month":1,"lon":-101.45582,"lat":17.58152,"tags":"2008,carol,hotel+las+palmas,mexico,zihuatanejo","S2CellId":"14c3400000000000","result":1287,"accuracy":0.12818423,"title":"Carol"}
{"id":2163033533,"url":"http://farm3.staticflickr.com/2117/2163033533_e5216575da.jpg","path":"888/c86/888c86a3ef2deb975e7cba06a478045.jpg","date":"2007-12-30","year":2007,"month":12,"lon":-101.607056,"lat":17.66226,"tags":"a%C3%B1o+nuevo,ixtapa,ixtapa+zihuatanejo,mexico,michoacan,new+year,xti","S2CellId":"3e45c40000000000","result":2588,"accuracy":0.01684669,"title":"IMG_5782"}
{"id":2530269468,"url":"http://farm3.staticflickr.com/2109/2530269468_d7930d0617.jpg","path":"cf2/d7b/cf2d7bae5a2d41f999cfdb684ec67f.jpg","date":"2004-03-29","year":2004,"month":3,"lon":-101.654945,"lat":17.66864,"tags":"ixtapa,mexico,rb,russbowling,travel","S2CellId":"85cb000000000000","result":7449,"accuracy":0.07199917,"title":"Ixtapa"}
{"id":500071344,"url":"http://farm1.staticflickr.com/192/500071344_3fa1e68f48.jpg","path":"8c5/22f/8c522f9f86a497136469957ed383d9.jpg","date":"2007-05-07","year":2007,"month":5,"lon":-101.55247,"lat":17.63944,"tags":"mexico,playa+municipal,zihuatanejo","S2CellId":"8c05400000000000","result":9414,"accuracy":0.10595539,"title":"pushing+la+perla"}
{"id":3376971529,"url":"http://farm4.staticflickr.com/3660/3376971529_2211e95618.jpg","path":"d8a/3b7/d8a3b7d3c7f76fa727bb4e66812e4a55.jpg","date":"2009-03-09","year":2009,"month":3,"lon":-101.6007,"lat":17.654327,"tags":"ixtapa,mexico2009","S2CellId":"548ff00000000000","result":6177,"accuracy":0.024062274,"title":"Baby+croc"}
{"id":4870838779,"url":"http://farm5.staticflickr.com/4118/4870838779_d547964062.jpg","path":"8aa/263/8aa26378b578511f6d5f9183b7829.jpg","date":"2009-12-29","year":2009,"month":12,"lon":-101.545944,"lat":17.627539,"tags":"guerrero,mex,mexico,zihuatanejo","S2CellId":"94d9000000000000","result":9744,"accuracy":0.11856172,"title":"Sunset+at+Playa+La+Ropa"}
{"id":1812358822,"url":"http://farm3.staticflickr.com/2071/1812358822_a067d2cc8a.jpg","path":"3ce/d16/3ced16aabd545bfeb186fdba69623c.jpg","date":"2007-10-22","year":2007,"month":10,"lon":-101.54766,"lat":17.63257,"tags":"honeymoon,mexico,tides,zihuatanejo","S2CellId":"0d0c400000000000","result":164,"accuracy":0.01252446,"title":"Honeymoon-197"}
{"id":5973278005,"url":"http://farm7.staticflickr.com/6147/5973278005_8782ab1872.jpg","path":"121/945/121945e8db26d27967746464fc4c2f.jpg","date":"2011-07-17","year":2011,"month":7,"lon":-101.61225,"lat":17.682795,"tags":"guerrero,ixtapa,m%C3%A9xico,mexico","S2CellId":"7c06c00000000000","result":6897,"accuracy":0.13803487,"title":"Playing+golf+in+Ixtapa"}
{"id":1811556389,"url":"http://farm3.staticflickr.com/2300/1811556389_a5b39a6768.jpg","path":"486/15d/48615dc67710b6931bfb693e23a4658e.jpg","date":"2007-10-24","year":2007,"month":10,"lon":-101.54766,"lat":17.63257,"tags":"honeymoon,mexico,tides,zihuatanejo","S2CellId":"489f000000000000","result":5781,"accuracy":0.027125474,"title":"Honeymoon-315"}
{"id":1811686459,"url":"http://farm3.staticflickr.com/2268/1811686459_b4d36a9b3e.jpg","path":"469/a5a/469a5a844522b4be44df5ea71895b1.jpg","date":"2007-10-24","year":2007,"month":10,"lon":-101.54766,"lat":17.63257,"tags":"honeymoon,mexico,tides,zihuatanejo","S2CellId":"12a4a2f640000000","result":731,"accuracy":0.0046520224,"title":"Honeymoon-590"}
{"id":1481515300,"url":"http://farm2.staticflickr.com/1236/1481515300_9482919a14.jpg","path":"217/9ab/2179abdedd5d1d8c45ba988ac7b94ae2.jpg","date":"2006-04-16","year":2006,"month":4,"lon":-101.65589,"lat":17.673546,"tags":"bestphoto,ixtapa,jakeputnam,mexicansunset,mexico","S2CellId":"6019f00000000000","result":6550,"accuracy":0.10725567,"title":"Ixtapa%2C+Island"}
{"id":7182010429,"url":"http://farm9.staticflickr.com/8001/7182010429_73133ea0c6.jpg","path":"c2e/611/c2e61115f1bd959f4a7d0e137c09fe4.jpg","date":"2010-08-04","year":2010,"month":8,"lon":-101.44372,"lat":17.541998,"tags":"animals,birds,bluelist,lagunadepotosi,mexico,nature,pacificocean,zihuatanejo","S2CellId":"8f10000000000000","result":9509,"accuracy":0.03269901,"title":"Pelican.+Laguna+De+Potosi.+Guerrero%2C+Mexico"}
{"id":1812748166,"url":"http://farm3.staticflickr.com/2127/1812748166_1a8ff4c4a2.jpg","path":"93c/741/93c741625bf6e92a6bd9f62765f2ea3.jpg","date":"2007-10-25","year":2007,"month":10,"lon":-101.54766,"lat":17.63257,"tags":"honeymoon,mexico,tides,zihuatanejo","S2CellId":"548ff00000000000","result":6177,"accuracy":0.060418863,"title":"Honeymoon-873"}
{"id":343652145,"url":"http://farm1.staticflickr.com/159/343652145_37fa7b8790.jpg","path":"fd8/911/fd8911ddbb04a27a785fc5f23b2ec0.jpg","date":"2006-12-30","year":2006,"month":12,"lon":-101.61611,"lat":17.665625,"tags":"bay,eye,guerrero,ixtapa,mexico,toy,water,whale","S2CellId":"8c05400000000000","result":9414,"accuracy":0.022026453,"title":"Beached+whale"}
{"id":1811530063,"url":"http://farm3.staticflickr.com/2187/1811530063_d177d201e9.jpg","path":"602/3ff/6023ff54b4304691ac17ba67757e6658.jpg","date":"2007-10-23","year":2007,"month":10,"lon":-101.54766,"lat":17.63257,"tags":"honeymoon,mexico,tides,zihuatanejo","S2CellId":"185c000000000000","result":1431,"accuracy":0.07526534,"title":"Honeymoon-239"}
{"id":1812712154,"url":"http://farm3.staticflickr.com/2032/1812712154_e97450094d.jpg","path":"875/e55/875e55395d975ed985deb661996bc5.jpg","date":"2007-10-24","year":2007,"month":10,"lon":-101.54766,"lat":17.63257,"tags":"honeymoon,mexico,tides,zihuatanejo","S2CellId":"89c2f61000000000","result":9109,"accuracy":0.01735581,"title":"Drunken+Friends"}
{"id":4550499967,"url":"http://farm5.staticflickr.com/4052/4550499967_40e465bfb6.jpg","path":"432/e40/432e40c0c487a9cec69e1fa38476fb.jpg","date":"2010-04-13","year":2010,"month":4,"lon":-101.54873,"lat":17.634304,"tags":"17-85+mm,2010,350d,april,canon,glass+shop,mexico,mirror,mx,rebel+xt,self+portrait,sphere,travel,zihua,zihuatanejo","S2CellId":"880e2ca700000000","result":8119,"accuracy":0.48319092,"title":"Spherize+Me+I"}
{"id":1812262366,"url":"http://farm3.staticflickr.com/2302/1812262366_15a2970a7c.jpg","path":"482/bdc/482bdc282d76acb65de0686327c16d.jpg","date":"2007-10-22","year":2007,"month":10,"lon":-101.54766,"lat":17.63257,"tags":"honeymoon,mexico,tides,zihuatanejo","S2CellId":"47e61d1d00000000","result":4562,"accuracy":0.11965866,"title":"Honeymoon-121"}
{"id":1812379896,"url":"http://farm3.staticflickr.com/2401/1812379896_ac0a2b093c.jpg","path":"b15/6d5/b156d533733c72b8be418b7a939cba.jpg","date":"2007-10-23","year":2007,"month":10,"lon":-101.54766,"lat":17.63257,"tags":"honeymoon,mexico,tides,zihuatanejo","S2CellId":"89c259b400000000","result":9036,"accuracy":0.012315959,"title":"Honeymoon-255"}
{"id":10776948406,"url":"http://farm4.staticflickr.com/3731/10776948406_038e3bd7fa.jpg","path":"af3/3ee/af33eefbaf3e1754528a673beafb8e2.jpg","date":"2013-05-26","year":2013,"month":5,"lon":-101.549095,"lat":17.636305,"tags":"partenon,zihuatanejo","S2CellId":"8830f40000000000","result":8287,"accuracy":0.007614793,"title":"El+Partenon+de+Zihuatanejo","description":"El+Partenon+de+Zihuatanejo"}
{"id":357293316,"url":"http://farm1.staticflickr.com/155/357293316_2f6c0ea0c2.jpg","path":"469/a71/469a71aedc34a06da1d0c32f13a58972.jpg","date":"2007-01-09","year":2007,"month":1,"lon":-101.554955,"lat":17.633715,"tags":"mexico,zihuatanejo","S2CellId":"80dd311000000000","result":7373,"accuracy":0.01611563,"title":"Darker+spots+are+fish"}
{"id":5973280727,"url":"http://farm7.staticflickr.com/6134/5973280727_d551556007.jpg","path":"94a/97d/94a97d1b8ed67ba2516785de3988c082.jpg","date":"2011-07-18","year":2011,"month":7,"lon":-101.60467,"lat":17.660294,"tags":"food,guerrero,ixtapa,m%C3%A9xico,mexico","S2CellId":"85cfd00000000000","result":7456,"accuracy":0.0018224645,"title":"Mexican+breakfast"}
{"id":2785643842,"url":"http://farm4.staticflickr.com/3039/2785643842_73d44e6816.jpg","path":"844/f1d/844f1dd2cf52a9b548edb674a384192.jpg","date":"2008-08-15","year":2008,"month":8,"lon":-101.65993,"lat":17.676737,"tags":"beaches,blue+sky,ixtapa,mexico,ocean,palm+trees,richard+cawood,richard+cawood+photography,sunshine,water+zihuatanejo,weekend+america,www.richardcawood.com,zihuatanejo","S2CellId":"7c00724000000000","result":6892,"accuracy":0.04583361,"title":"The+Hotel","description":"Images+taken+by+Richard+Cawood+while+on+holiday+in+Mexico.+%0A%0A%3Ca+href%3D%22http%3A%2F%2Fwww.RichardCawood.com%22%3Ewww.RichardCawood.com%3C%2Fa%3E"}
{"id":5538540529,"url":"http://farm6.staticflickr.com/5260/5538540529_3d17453836.jpg","path":"2e1/dbe/2e1dbe9cdd5497905f4b7dfb6c5cd72d.jpg","date":"2010-01-08","year":2010,"month":1,"lon":-101.59841,"lat":17.660748,"tags":"lurkanixtapaavescanonxtisigma18-200hdr","S2CellId":"6018ef0000000000","result":6534,"accuracy":0.04472159,"title":"Naturaleza+1","description":"Cruzar+o+no+cruzar."}
{"id":500118697,"url":"http://farm1.staticflickr.com/220/500118697_515129ad84.jpg","path":"e82/7e9/e827e9d8478a6aca5464de423590708b.jpg","date":"2007-05-07","year":2007,"month":5,"lon":-101.55247,"lat":17.63944,"tags":"mexico,playa+municipal,zihuatanejo","S2CellId":"85b0000000000000","result":7443,"accuracy":0.12411725,"title":"running+in+the+sand"}
