{"id":3877321523,"url":"http://farm3.staticflickr.com/2435/3877321523_21d347493a.jpg","path":"49e/098/49e09856a6b8cc15bd1f981cd0f7ea49.jpg","date":"2009-09-01","year":2009,"month":9,"lon":-121.51022,"lat":40.465103,"tags":"lassen,national,national+park,park","S2CellId":"809bc00000000000","result":7128,"accuracy":0.23842739,"title":"Bumpass+Hell+Trail"}
{"id":4958416354,"url":"http://farm5.staticflickr.com/4091/4958416354_722fb09651.jpg","path":"fbe/d63/fbed6344af25c547fba6ed3b811e45.jpg","date":"2010-09-02","year":2010,"month":9,"lon":-121.50531,"lat":40.45861,"tags":"bumpass+hell+trail,hiking,lassen","S2CellId":"5490d00000000000","result":6226,"accuracy":0.06876023,"title":"2010-09-02+15.46.10"}
{"id":3946098287,"url":"http://farm4.staticflickr.com/3428/3946098287_4c832cefc2.jpg","path":"ea7/9dc/ea79dc4ddbb9ffcbbec015f71bfae980.jpg","date":"2009-08-25","year":2009,"month":8,"lon":-121.50021,"lat":40.466995,"tags":"chris+road+trip,hiking,lassen,lassen+peak+trail,lassen+volcanic+np","S2CellId":"54bf400000000000","result":6299,"accuracy":0.06398953,"title":"2009-08-25+18.17.50"}
{"id":220575783,"url":"http://farm1.staticflickr.com/86/220575783_78d199d659.jpg","path":"667/43a/66743aba3eaa49b082c8743be69f91a0.jpg","date":"2006-08-08","year":2006,"month":8,"lon":-121.208725,"lat":40.25359,"tags":"almanor,boat,catherine,coco,random+acts+of+treo","S2CellId":"54c7000000000000","result":6307,"accuracy":0.06497583,"title":"Chip+off+the+ol%27..."}
{"id":3946858538,"url":"http://farm4.staticflickr.com/3418/3946858538_e542654f21.jpg","path":"aa3/3fb/aa33fb5ea3e08e886ee89679c2979b56.jpg","date":"2009-08-25","year":2009,"month":8,"lon":-121.76699,"lat":40.350163,"tags":"chris+road+trip","S2CellId":"89b4400000000000","result":8820,"accuracy":0.06868816,"title":"2009-08-25+12.04.25"}
{"id":6092142988,"url":"http://farm7.staticflickr.com/6208/6092142988_f9ff458c04.jpg","path":"9bc/398/9bc398641b9b5391d199fb8f814bdd.jpg","date":"2011-08-27","year":2011,"month":8,"lon":-121.31241,"lat":40.524075,"tags":"2011,california,e-510,geologic,geothermal,lassen,lassennationalpak,lassenvolcanicnationalpark,nationalpark,olympus,public,volcano","S2CellId":"54c7000000000000","result":6307,"accuracy":0.4241517,"title":"Lassen2011_097","description":"Snag+Lake%2C+northwest+shore."}
{"id":1455722646,"url":"http://farm2.staticflickr.com/1242/1455722646_4d6aed8950.jpg","path":"d7f/c80/d7fc80e712336524bfb5d22e527359.jpg","date":"2007-09-23","year":2007,"month":9,"lon":-121.430176,"lat":40.726406,"tags":"camping,lassen","S2CellId":"88d0a631cabb5071","result":8563,"accuracy":0.011592858,"title":"20070923_IMG_2964.JPG"}
{"id":34462466,"url":"http://farm1.staticflickr.com/21/34462466_8bb3e30b24.jpg","path":"ef8/cf6/ef8cf656cb108ea1113d2376f2963d52.jpg","date":"2005-08-05","year":2005,"month":8,"lon":-121.50126,"lat":40.457146,"tags":"bumpasshell,california,lassen,nationalpark,volcanic","S2CellId":"5351f00000000000","result":6036,"accuracy":0.47700337,"title":"pyrite+lake","description":"An+ever+steaming+little+lake%2C+full+of+minerals%2C+most+notably+pyrite%2C+or+fool%27s+gold.+The+lake+is+boiling+hot+year+round.%0A%0AIf+there+were+lobsters+living+in+this+lake%2C+that+could+be+a+very+handy+arrangement%2C+but+I+am+told+there+aren%27t+any.+Too+bad."}
{"id":199284364,"url":"http://farm1.staticflickr.com/68/199284364_f210b9fd74.jpg","path":"ef7/17b/ef717b6ccf7235af63dd0a280709f3a.jpg","date":"2006-07-26","year":2006,"month":7,"lon":-121.42736,"lat":40.842987,"tags":"hang+gliding,hat+creek,paragliding","S2CellId":"80c5000000000000","result":7222,"accuracy":0.055816527,"title":"Fred%27s+First"}
{"id":5490998074,"url":"http://farm6.staticflickr.com/5052/5490998074_1526596ef8.jpg","path":"d61/578/d615782eca09440d5358f5c351b1c96.jpg","date":"2011-02-27","year":2011,"month":2,"lon":-121.31584,"lat":40.552174,"tags":"california,drakesbad,lassen,lassen+volcanic+national+park,old+station,snow+camping,united+states,usa","S2CellId":"5353000000000000","result":6037,"accuracy":0.049623974,"title":"DSC_5385"}
{"id":5949152495,"url":"http://farm7.staticflickr.com/6023/5949152495_fdf5e07f3d.jpg","path":"80c/4dc/80c4dc1378a152e3ff88b4a1278ae655.jpg","date":"2011-06-25","year":2011,"month":6,"lon":-121.31935,"lat":40.546875,"tags":"camping,mount+lassen,mtlassen","S2CellId":"54cd000000000000","result":6310,"accuracy":0.20649861}
{"id":240690887,"url":"http://farm1.staticflickr.com/84/240690887_ae4a208a0b.jpg","path":"b14/ee9/b14ee933c1f3f9cd7e3aa869b17ddc6e.jpg","date":"2006-09-03","year":2006,"month":9,"lon":-121.40836,"lat":40.50662,"tags":"califronia,landscape,lassen,nature,park","S2CellId":"54bf400000000000","result":6299,"accuracy":0.07409136,"title":"IMG_1305"}
{"id":1337478056,"url":"http://farm2.staticflickr.com/1237/1337478056_7979e07ab2.jpg","path":"e5f/6c3/e5f6c3f43262320e427e9d5ed503cff.jpg","date":"2007-09-01","year":2007,"month":9,"lon":-121.534325,"lat":40.43777,"tags":"mount-lassen","S2CellId":"8099700000000000","result":7111,"accuracy":0.14454764,"title":"Recursive+imaging"}
{"id":8414784280,"url":"http://farm9.staticflickr.com/8358/8414784280_e87a54dd80.jpg","path":"e38/e7d/e38e7d37e4ab23e9f50e3327bf661fd.jpg","date":"2012-09-16","year":2012,"month":9,"lon":-121.51152,"lat":40.466766,"tags":"california,lake,lake+helen,landscape,lassen+volcanic+national+park,mount+lassen,national+park+service,nps,scenery","S2CellId":"54cd000000000000","result":6310,"accuracy":0.66344535,"title":"Lassen+Volcanic+National+Park","description":"Lake+Helen%0A%0A++++++Mount+Lassen%2C+located+in+Northern+California%2C+violently+erupted+on+June+14%2C+1914.+Two+years+later+Lassen+Volcanic+National+Park+was+created.+Today%2C+the+mountain+is+quiet%2C+and+the+National+Park+is+a+beautiful+place+to+explore."}
{"id":37759182,"url":"http://farm1.staticflickr.com/24/37759182_f7d823dfa9.jpg","path":"2a9/ac8/2a9ac842f1c328f75494c7ceaaae0cc.jpg","date":"2005-08-28","year":2005,"month":8,"lon":-121.46849,"lat":40.46138,"tags":"afbf,california,forest,kalifornien,lassen,park,usa,volcanic","S2CellId":"54cd000000000000","result":6310,"accuracy":0.7444641,"title":"lassen+volcanic+park"}
{"id":2651594920,"url":"http://farm4.staticflickr.com/3171/2651594920_0e6abc63b6.jpg","path":"efb/6fe/efb6fe22131ccac983b3ffd897d589.jpg","date":"2008-07-08","year":2008,"month":7,"lon":-121.61874,"lat":40.03964,"tags":"2008,32,ca,chico,curve,fire,haze,highway,july,road,smoke","S2CellId":"4d5c000000000000","result":5955,"accuracy":0.058262225,"title":"Humboldt+Fire_0857","description":"7.8.08%0A%0AHwy+32+E"}
{"id":46488891,"url":"http://farm1.staticflickr.com/33/46488891_30bc6495a5.jpg","path":"635/529/635529ee286e44e57f2e260696d5171.jpg","date":"2005-09-14","year":2005,"month":9,"lon":-121.47835,"lat":40.462975,"tags":"california,jacky,lassen,lassen+volcanic+national+park","S2CellId":"8096400000000000","result":7093,"accuracy":0.16507106,"title":"Jacky+crossing+Kings+Creek"}
{"id":4239239264,"url":"http://farm3.staticflickr.com/2500/4239239264_02f24f1505.jpg","path":"dc7/c14/dc7c147fc83db7991c1ed05d2ae25c82.jpg","date":"2009-12-23","year":2009,"month":12,"lon":-121.13742,"lat":40.22232,"tags":"lake+almanor","S2CellId":"aa6d000000000000","result":9948,"accuracy":0.06298285,"title":"Old+Road","description":"An+old+launching+ramp%2C+that+is+usually+under+water"}
{"id":2652392336,"url":"http://farm4.staticflickr.com/3055/2652392336_df3f6e0a5d.jpg","path":"9e5/80c/9e580c7f5ccd21c1efd3ebecac3dbf.jpg","date":"2008-07-04","year":2008,"month":7,"lon":-121.5172,"lat":40.457005,"tags":"bumpass,bumpass+hell,ca,california,catchy,color,colorful,deposit,landscape,lassen,lassen+volcanic+national+park,lassen+volcano,mud,national+park,peak,scenic,thermal+area,wood,yellow","S2CellId":"89c25896c0000000","result":8974,"accuracy":0.10249361,"title":"Colorful+deposits+in+Bumpass+Hell+thermal+area","description":"Lassen+Volcanic+National+Park%2C+CA%0A%0ABumpass+Hell+is+a+hydrothermally+altered+geothermal+area+that+spans+16+acres+and+has+hot+springs%2C+fumaroles%2C+and+mud+pots.+It+is+named+after+Kendall+Vanbook+Bumpass%2C+a+cowboy+who+worked+in+the+Lassen+area+in+the+1860s.+One+day+Bumpass+stumbled+upon+the+area+and+his+leg+was+badly+scalded+when+it+broke+though+a+thin+crust+above+a+mud+pot.+He+told+his+friends+and+townspeople+about+it%2C+describing+it+as+%22hell.%22+%0A%0A%3Cb%3E%3Ca+href%3D%22http%3A%2F%2Fwww.flickr.com%2Fphotos%2Frickz%2Fsets%2F72157606063649812%2Fdetail%2F%22%3ELassen+Volcanic+National+Park%3C%2Fa%3E+%7C+%3Ca+href%3D%22http%3A%2F%2Fwww.flickr.com%2Fphotos%2Frickz%2Fcollections%2F72157603383278622%2F%22%3EU.S.+National+Parks%3C%2Fa%3E+%7C+%3C%2Fb%3E"}
{"id":46490374,"url":"http://farm1.staticflickr.com/24/46490374_434b3208c6.jpg","path":"a9c/fbf/a9cfbf34d554adc36f2cced1892e2c0.jpg","date":"2005-09-14","year":2005,"month":9,"lon":-121.42373,"lat":40.492653,"tags":"california,lassen,lassen+volcanic+national+park,summit+lake","S2CellId":"54cd000000000000","result":6310,"accuracy":0.12938222,"title":"Summit+Lake"}
{"id":2723818989,"url":"http://farm4.staticflickr.com/3285/2723818989_a584b31d5b.jpg","path":"72c/534/72c534de6f92392da9155159b551cf.jpg","date":"2008-07-23","year":2008,"month":7,"lon":-121.50483,"lat":40.48811,"tags":"california,lassen+peak,lassen+volcanic+national+park","S2CellId":"54c7000000000000","result":6307,"accuracy":0.09211713,"title":"From+Lassen+Peak"}
{"id":199282748,"url":"http://farm1.staticflickr.com/67/199282748_832b8b9379.jpg","path":"813/c64/813c64ae26255836aacd5bdf6f7f363.jpg","date":"2006-07-26","year":2006,"month":7,"lon":-121.50501,"lat":40.797306,"tags":"hang+gliding,hat+creek,paragliding","S2CellId":"89a4000000000000","result":8776,"accuracy":0.007447778,"title":"Bob"}
{"id":6057503629,"url":"http://farm7.staticflickr.com/6184/6057503629_6d01cac918.jpg","path":"892/174/892174bdf45432fc93a23181581d1bc.jpg","date":"2011-08-15","year":2011,"month":8,"lon":-121.17709,"lat":40.5017,"tags":"california,caribou+wilderness,hiking,lassen,lassen+national+forest,susanville,trails,united+states,usa,wilderness","S2CellId":"54b9000000000000","result":6294,"accuracy":0.03517502,"title":"Caribou+Wilderness+Area-2011_0815-120915","description":"The+Black+Loop+Trail+in+the+Caribou+Wilderness+Area+of+Lassen+National+Forest+-+Cowboy+Lake"}
{"id":46473026,"url":"http://farm1.staticflickr.com/28/46473026_63aebcd789.jpg","path":"153/82b/15382b83432e1863ea35766ffb22af.jpg","date":"2005-09-13","year":2005,"month":9,"lon":-121.80611,"lat":40.362503,"tags":"california","S2CellId":"6bd0000000000000","result":6778,"accuracy":0.077652685,"title":"Fields%2C+rocks+and+oak+trees","description":"A+stop+on+Route+36+between+Red+Bluff+and+Lassen."}
{"id":3032118950,"url":"http://farm4.staticflickr.com/3020/3032118950_30188f1e97.jpg","path":"8ff/4e5/8ff4e54ebf792a45cc49af8d2689818.jpg","date":"2007-08-04","year":2007,"month":8,"lon":-121.507416,"lat":40.486317,"tags":"lassen+volcanic+national+park,nevada+conservation+corps,usa","S2CellId":"54c7000000000000","result":6307,"accuracy":0.43787405,"title":"Lassen+Volcanic+National+Park"}
{"id":4957814915,"url":"http://farm5.staticflickr.com/4087/4957814915_c0d6b999b2.jpg","path":"71f/210/71f21034a2779baa583124f32565123.jpg","date":"2010-09-02","year":2010,"month":9,"lon":-121.50908,"lat":40.462353,"tags":"bumpass+hell+trail,hiking,lassen","S2CellId":"5490d00000000000","result":6226,"accuracy":0.42743766,"title":"2010-09-02+15.18.13"}
{"id":1441314784,"url":"http://farm2.staticflickr.com/1313/1441314784_db718fe63d.jpg","path":"716/e2f/716e2f13e41add27deee814101bfe6b.jpg","date":"2007-09-02","year":2007,"month":9,"lon":-121.43836,"lat":40.45389,"tags":"2007,bench+lake,california,lake,lassen+np,national+and+state+parks,nature,panasonic+-+dmc-fz15,summer,united+states+of+america,water","S2CellId":"54cd000000000000","result":6310,"accuracy":0.17860371,"title":"P1100137","description":"Bench+Lake...+Yes%2C+it%27s+dry.+This+lake+typically+dries+up+every+year%2C+so+the+drought+is+not+the+only+blame.+It%27s+just+very+shallow."}
{"id":902844058,"url":"http://farm2.staticflickr.com/1141/902844058_982adf95fd.jpg","path":"83a/0ac/83a0acd3e6dd86616c89508d9d76bd5.jpg","date":"2007-07-14","year":2007,"month":7,"lon":-121.870544,"lat":40.434883,"tags":"astronomers,california,flickr,northern,o%27bd80,town","S2CellId":"46f7000000000000","result":3114,"accuracy":0.019346287,"title":"O%27B","description":"Manton%2C+California"}
{"id":1177601503,"url":"http://farm2.staticflickr.com/1041/1177601503_1a05d43d9f.jpg","path":"8b5/4df/8b54dfad423529e0a1da939c154462ff.jpg","date":"2007-08-04","year":2007,"month":8,"lon":-121.30949,"lat":40.51393,"tags":"author%3A+vlad,set%3A+2007+lassen+volcanic+national+park","S2CellId":"5470000000000000","result":6094,"accuracy":0.05538097,"title":"Image+13621.","description":"Place%3A+USA%2FCalifornia%2FShasta+Cascade%2FLassen+Volcanic+National+Park%2FSnag+Lake%0AImage+13621."}
{"id":627493589,"url":"http://farm2.staticflickr.com/1003/627493589_ca999a134d.jpg","path":"2d6/6a1/2d66a14e5a8d725d8f84588968bd397.jpg","date":"2007-06-25","year":2007,"month":6,"lon":-121.41831,"lat":40.684513,"tags":"geography+class,lassen+national+park,lassen+trip,olympus+e-500,panorama,subway+cave","S2CellId":"5140000000000000","result":5964,"accuracy":0.17538957,"title":"Subway+Trail+Panorama","description":"The+trail+above+Subway+Cave"}
{"id":2220530247,"url":"http://farm3.staticflickr.com/2028/2220530247_f26766d009.jpg","path":"442/b4b/442b4b1a2f2ded3ce376a29cd3fc8a5.jpg","date":"2008-01-20","year":2008,"month":1,"lon":-121.2186,"lat":40.25268,"tags":"gibson,mark,mark+gibson","S2CellId":"54c7000000000000","result":6307,"accuracy":0.021713497,"title":"DSC_0114.jpg"}
{"id":7930415984,"url":"http://farm9.staticflickr.com/8439/7930415984_87bb741bbd.jpg","path":"ba1/a2b/ba1a2bbd2d6e52a0aec51ce172ee6df3.jpg","date":"2012-09-01","year":2012,"month":9,"lon":-121.45139,"lat":40.517452,"tags":"2012,86+degrees,brokeoff+mountain,camping,dom+brassey,elizabeth+costello,henry,hiking,lassen+volcanic+national+park,mountain,outdoors,september,southwest+walk-in+campsite,summer,sunset,travel,vacation,volcano","S2CellId":"54c7000000000000","result":6307,"accuracy":0.34247246,"title":"sunset+3","description":"2012+Labor+Day+Weekend+at+%3Ca+href%3D%22http%3A%2F%2Fwww.nps.gov%2Flavo%22+rel%3D%22nofollow%22%3Ewww.nps.gov%2Flavo%3C%2Fa%3E"}
{"id":36271727,"url":"http://farm1.staticflickr.com/28/36271727_abfc1e9e8c.jpg","path":"9df/583/9df583724dc829d7387a32d2ce42815.jpg","date":"2005-08-06","year":2005,"month":8,"lon":-121.48444,"lat":40.455738,"tags":"california,coldboilinglake,humans,lassen,nationalpark,volcanic","S2CellId":"536c000000000000","result":6045,"accuracy":0.049178753,"title":"puzzled","description":"Consulting+a+guide+for+an+explanation+to+Cold+Boiling+Lake%27s+bubbles.+It%27s+carbon+dioxide.+Volcanic+Sodapop%2C+sans+sugar."}
{"id":9500997420,"url":"http://farm4.staticflickr.com/3671/9500997420_12661c9007.jpg","path":"f06/b5e/f06b5e4a4845227cc2e66976d567d88c.jpg","date":"2013-08-11","year":2013,"month":8,"lon":-121.53367,"lat":40.438,"tags":"lassen,mountains,national+park","S2CellId":"8769700000000000","result":7857,"accuracy":0.08960589,"title":"Lassen+National+Park"}
{"id":3632770451,"url":"http://farm3.staticflickr.com/2459/3632770451_ed424b0f73.jpg","path":"944/35d/94435d44ff30e5aa74ac43f48aa8ea1d.jpg","date":"2009-06-14","year":2009,"month":6,"lon":-121.24975,"lat":40.00753,"tags":"belden+ca,gemini+2009%2C+family+trip,gemini+festival+2009","S2CellId":"8f7c000000000000","result":9553,"accuracy":0.10897868,"title":"Gemini+2009%2C+Belden+CA","description":"Gemini+2009%2C+Belden+CA%2C+family+trip"}
{"id":4949308379,"url":"http://farm5.staticflickr.com/4148/4949308379_3b3b9cd71e.jpg","path":"def/77c/def77cbee377d3536d5b326e7a3d8bdd.jpg","date":"2010-08-13","year":2010,"month":8,"lon":-121.50222,"lat":40.45785,"tags":"bumpass+hell,california,lassen,lassen+volcanic+national+park,vacation","S2CellId":"5351d00000000000","result":6035,"accuracy":0.28744948,"title":"IMG_6597"}
{"id":6057569289,"url":"http://farm7.staticflickr.com/6084/6057569289_030e88bbb1.jpg","path":"929/9ab/9299ab97cfeec0988d692556d2e4da4.jpg","date":"2011-08-15","year":2011,"month":8,"lon":-121.18743,"lat":40.499,"tags":"california,caribou+wilderness,hiking,lassen,lassen+national+forest,susanville,trails,united+states,usa,wilderness","S2CellId":"8096400000000000","result":7093,"accuracy":0.34000632,"title":"Caribou+Wilderness+Area-2011_0815-145448","description":"The+Black+Loop+Trail+in+the+Caribou+Wilderness+Area+of+Lassen+National+Forest"}
{"id":2150112989,"url":"http://farm3.staticflickr.com/2242/2150112989_cf93eac557.jpg","path":"af5/844/af584484dcca492cdebcc3eb49fdca.jpg","date":"2007-12-30","year":2007,"month":12,"lon":-121.528755,"lat":40.464252,"tags":"2007,mtlassen,snowshoeing,zahnd","S2CellId":"45d4000000000000","result":2755,"accuracy":0.23879564,"title":"Hijinks"}
{"id":2724654984,"url":"http://farm4.staticflickr.com/3268/2724654984_7e491a2a71.jpg","path":"456/27d/45627d865e1b6395125771365603c.jpg","date":"2008-07-23","year":2008,"month":7,"lon":-121.493256,"lat":40.4534,"tags":"california,crumbaugh+lake,lassen+volcanic+national+park","S2CellId":"5490d00000000000","result":6226,"accuracy":0.21338445,"title":"Crumbaugh+Lake"}
{"id":8413682351,"url":"http://farm9.staticflickr.com/8221/8413682351_6ec84dae96.jpg","path":"1b7/894/1b7894569b13bf6771cef054f0dab38a.jpg","date":"2012-09-16","year":2012,"month":9,"lon":-121.50728,"lat":40.46667,"tags":"california,lake,lake+helen,landscape,lassen+volcanic+national+park,mount+lassen,national+park+service,nps,scenery","S2CellId":"8096400000000000","result":7093,"accuracy":0.22968611,"title":"Lassen+Volcanic+National+Park","description":"Lake+Helen%0A%0A++++++Mount+Lassen%2C+located+in+Northern+California%2C+violently+erupted+on+June+14%2C+1914.+Two+years+later+Lassen+Volcanic+National+Park+was+created.+Today%2C+the+mountain+is+quiet%2C+and+the+National+Park+is+a+beautiful+place+to+explore."}
{"id":8414780258,"url":"http://farm9.staticflickr.com/8469/8414780258_80b35620b0.jpg","path":"740/668/7406682aef2f368a59c97d4a42392a0.jpg","date":"2012-09-16","year":2012,"month":9,"lon":-121.50642,"lat":40.469494,"tags":"california,lake,lake+helen,landscape,lassen+volcanic+national+park,mount+lassen,national+park+service,nps,scenery","S2CellId":"54cd000000000000","result":6310,"accuracy":0.2252375,"title":"Lassen+Volcanic+National+Park","description":"Lake+Helen%0A%0A++++++Mount+Lassen%2C+located+in+Northern+California%2C+violently+erupted+on+June+14%2C+1914.+Two+years+later+Lassen+Volcanic+National+Park+was+created.+Today%2C+the+mountain+is+quiet%2C+and+the+National+Park+is+a+beautiful+place+to+explore."}
{"id":4231027083,"url":"http://farm5.staticflickr.com/4004/4231027083_6ea7c7bc08.jpg","path":"6fa/3aa/6fa3aaa5141c2dc7d141791c8f29dbb4.jpg","date":"2009-12-25","year":2009,"month":12,"lon":-121.153694,"lat":40.254757,"tags":"california,lake+almanor,lake+almanor+country+club","S2CellId":"47b9500000000000","result":4066,"accuracy":0.017919619,"title":"IMG_2570"}
{"id":6058097252,"url":"http://farm7.staticflickr.com/6197/6058097252_3dbb90e261.jpg","path":"caa/8f8/caa8f8495d6e8a3f598f3c9365cb2a8.jpg","date":"2011-08-15","year":2011,"month":8,"lon":-121.19754,"lat":40.49595,"tags":"california,caribou+wilderness,hiking,lassen,lassen+national+forest,susanville,trails,united+states,usa,wilderness","S2CellId":"54bf400000000000","result":6299,"accuracy":0.13112193,"title":"Caribou+Wilderness+Area-2011_0815-143504","description":"The+Black+Loop+Trail+in+the+Caribou+Wilderness+Area+of+Lassen+National+Forest"}
{"id":197623382,"url":"http://farm1.staticflickr.com/64/197623382_28bba3b7e5.jpg","path":"1ba/98f/1ba98fc4aa8e7c151ed622cd3938848.jpg","date":"2006-07-22","year":2006,"month":7,"lon":-121.25407,"lat":40.005463,"tags":"downlow,falseprofit,priceless","S2CellId":"548f500000000000","result":6162,"accuracy":0.0035788375,"title":"For+Your+Own+Good"}
{"id":4949916744,"url":"http://farm5.staticflickr.com/4151/4949916744_036a2725ea.jpg","path":"99e/57a/99e57a5741e0b193e2a77f38cbd5d.jpg","date":"2010-08-13","year":2010,"month":8,"lon":-121.50222,"lat":40.45785,"tags":"bumpass+hell,california,lassen,lassen+volcanic+national+park,vacation","S2CellId":"5351f00000000000","result":6036,"accuracy":0.58068347,"title":"IMG_6655"}
{"id":5211686179,"url":"http://farm6.staticflickr.com/5082/5211686179_b0bc4d22c7.jpg","path":"6fd/9b6/6fd9b65a4fddfef83e62eaa1112be8d7.jpg","date":"2010-08-13","year":2010,"month":8,"lon":-121.423744,"lat":40.48949,"tags":"bird,california,lassenvolcanic,lassenvolcanicnationalpark,nationalpark,park,summitlakesouth","S2CellId":"12aef00000000000","result":792,"accuracy":0.010156296,"title":"Pine+Siskin","description":"ID%27d+by+the+kind+folks+in+the+%3Ca+href%3D%22http%3A%2F%2Fwww.flickr.com%2Fgroups%2F79514222%40N00%2Fpool%2Fwith%2F5211686179%2F%22%3EBird+Identification+Help+Group%3C%2Fa%3E%0A%0A%3Cstrong%3EDate%3A%3C%2Fstrong%3E+August+13th%2C+2010%0A%3Cstrong%3ELocation%3A%3C%2Fstrong%3E+Summit+Lake+South+Campground%2C+Lassen+Volcanic+National+Park%2C+Northern+California+%28%3Ca+href%3D%22http%3A%2F%2Fwww.flickr.com%2Fphotos%2Fiandavid%2F5211686179%2Fmap%22%3EFlickr+map%3C%2Fa%3E%29%0AI%27ve+also+posted+%3Ca+href%3D%22http%3A%2F%2Fwww.youtube.com%2Fwatch%3Fv%3D73KGti_xbI4%22+rel%3D%22nofollow%22%3Ea+video+on+YouTube%3C%2Fa%3E+so+you+can+hear+its+call%0A%0A%5Bcropped+in-camera%5D"}
{"id":7875906012,"url":"http://farm8.staticflickr.com/7106/7875906012_534554b044.jpg","path":"35f/7aa/35f7aa72d1d09e98902b1ad5a2a0c564.jpg","date":"2012-08-11","year":2012,"month":8,"lon":-121.50918,"lat":40.46602,"tags":"california,interior+department,landscape,lassen+volcanic+national+park,national+park,nature","S2CellId":"5490d00000000000","result":6226,"accuracy":0.50022936}
{"id":35120931,"url":"http://farm1.staticflickr.com/22/35120931_528f8d47d8.jpg","path":"fd2/b87/fd2b87e4b49e79a5323ddf7d835edc1a.jpg","date":"2005-08-06","year":2005,"month":8,"lon":-121.50815,"lat":40.48425,"tags":"animals,california+ground+squirrel,lassen,lassenpeak,nationalpark,rodents,spermophilus+beecheyi,volcanic","S2CellId":"8096400000000000","result":7093,"accuracy":0.08114541,"title":"mountain+dweller","description":"Sitting+on+pumice+dacite%2C+the+connoisseur."}
{"id":2221329432,"url":"http://farm3.staticflickr.com/2160/2221329432_838efa5477.jpg","path":"27b/e3d/27be3d7235cb2e484aca1a504f60689c.jpg","date":"2008-01-20","year":2008,"month":1,"lon":-121.2186,"lat":40.25268,"tags":"gibson,mark,mark+gibson","S2CellId":"54bf400000000000","result":6299,"accuracy":0.14950989,"title":"DSC_0118.jpg"}
{"id":3850554765,"url":"http://farm3.staticflickr.com/2649/3850554765_9f9fd02cc4.jpg","path":"16d/e6c/16de6c976f3296ced09cfa6c57d9edfe.jpg","date":"2009-08-22","year":2009,"month":8,"lon":-121.511215,"lat":40.464474,"tags":"lassen,national+park,susanshepard,volcanic","S2CellId":"54cd000000000000","result":6310,"accuracy":0.09283737,"title":"Susan%2C+across+the+valley","description":"Susan+is+in+the+middle+of+this+picture...+view+large."}
{"id":6057591093,"url":"http://farm7.staticflickr.com/6200/6057591093_57aa6a18a4.jpg","path":"eb9/c92/eb9c92d5d38fee13adc1ffa4eee93.jpg","date":"2011-08-15","year":2011,"month":8,"lon":-121.175964,"lat":40.498795,"tags":"california,caribou+wilderness,hiking,lassen,lassen+national+forest,susanville,trails,united+states,usa,wilderness","S2CellId":"54bf400000000000","result":6299,"accuracy":0.5180048,"title":"Caribou+Wilderness+Area-2011_0815-152640","description":"The+Black+Loop+Trail+in+the+Caribou+Wilderness+Area+of+Lassen+National+Forest+-+Final+Lake+of+the+hike%2C+unnamed."}
{"id":197623003,"url":"http://farm1.staticflickr.com/67/197623003_9ec433a677.jpg","path":"d6b/231/d6b231f99595f98c4ad697cccba8c63.jpg","date":"2006-07-22","year":2006,"month":7,"lon":-121.25407,"lat":40.005463,"tags":"boreta,downlow,falseprofit,glitchmob,kittyd,ooah,priceless","S2CellId":"548ff00000000000","result":6177,"accuracy":0.018257879,"title":"These+Youth%2C+They+Are+Troubled"}
{"id":1337209532,"url":"http://farm2.staticflickr.com/1406/1337209532_fe4b9401bb.jpg","path":"64a/9f5/64a9f5732a12e8b23ade4eb44769c9b.jpg","date":"2007-09-01","year":2007,"month":9,"lon":-121.534325,"lat":40.43777,"tags":"mount-lassen","S2CellId":"54a4000000000000","result":6288,"accuracy":0.10902921,"title":"100_0455"}
{"id":3946865064,"url":"http://farm3.staticflickr.com/2459/3946865064_9135cac67b.jpg","path":"2aa/72f/2aa72f8251235ffae885890b14f876c.jpg","date":"2009-08-25","year":2009,"month":8,"lon":-121.53391,"lat":40.45017,"tags":"chris+road+trip,hiking,lassen,lassen+volcanic+np,ridge+lakes+trail","S2CellId":"54cd000000000000","result":6310,"accuracy":0.3526173,"title":"2009-08-25+15.33.22"}
{"id":5949714998,"url":"http://farm7.staticflickr.com/6148/5949714998_d3b806473b.jpg","path":"4e5/1bd/4e51bda1d7c9659fab89af57bccdcb1.jpg","date":"2011-06-25","year":2011,"month":6,"lon":-121.31935,"lat":40.546875,"tags":"camping,mount+lassen,mtlassen","S2CellId":"8715000000000000","result":7727,"accuracy":0.067833185,"title":"lunch+with+a+view"}
{"id":1440317949,"url":"http://farm2.staticflickr.com/1355/1440317949_faa9afdbeb.jpg","path":"45c/348/45c34871438291d32fe8541b589af98.jpg","date":"2007-09-01","year":2007,"month":9,"lon":-121.50607,"lat":40.474754,"tags":"2007,california,cascades,geology+-+topography,lassen+np,lassen+peak,lassen+peak+area,mountains,national+and+state+parks,nature,panasonic+-+dmc-fz15,rocks,summer,united+states+of+america,vulcan%27s+eye","S2CellId":"54cd000000000000","result":6310,"accuracy":0.77408475,"title":"P1100004","description":"A+view+of+the+trail+as+it+departs+from+the+parking+lot."}
{"id":9500973344,"url":"http://farm8.staticflickr.com/7400/9500973344_1e4cb6d381.jpg","path":"397/430/39743050feabb7bde332dbe6502a3a25.jpg","date":"2013-08-11","year":2013,"month":8,"lon":-121.531166,"lat":40.446,"tags":"lassen,mountains,national+park","S2CellId":"5353000000000000","result":6037,"accuracy":0.07115927,"title":"Lassen+National+Park"}
