{"id":2342000014,"url":"http://farm4.staticflickr.com/3075/2342000014_c244b40141.jpg","path":"6f3/547/6f3547f1d49d48b957a623e2f205fd5.jpg","date":"2008-03-14","year":2008,"month":3,"lon":-156.0656,"lat":19.66615,"tags":"%C2%A9+2008+joshua+lambus,abyss,alien,blackwater,close+up,deep,deepwater,dive,fish,hawaii,jlambus,josh,joshua,joshua+lambus,kona,lambus,larval,larval+fish,macro,night,night+dive,ocean,pelagic,pelagic+larval+fish","S2CellId":"880e2b7000000000","result":8112,"accuracy":0.060665198,"title":"Pyrosome"}
{"id":233114320,"url":"http://farm1.staticflickr.com/89/233114320_9ad83863da.jpg","path":"aa1/c9f/aa1c9f76a6754a8f96289f6da52bc.jpg","date":"2006-09-03","year":2006,"month":9,"lon":-156.05307,"lat":19.649378,"tags":"2006,hawaii,kona","S2CellId":"94ce59f000000000","result":9723,"accuracy":0.009375775,"title":"Inside+the+Painted+Church"}
{"id":4474890375,"url":"http://farm5.staticflickr.com/4067/4474890375_4552463a46.jpg","path":"aac/dc4/aacdc4b1fc74c554fd83adc985ff2.jpg","date":"2010-02-20","year":2010,"month":2,"lon":-156.0427,"lat":19.780647,"tags":"manual+lens+no+cpu","S2CellId":"7954400000000000","result":6868,"accuracy":0.07956701,"title":"2010-02-20+3590+a+Hawai%27i"}
{"id":7094370067,"url":"http://farm8.staticflickr.com/7044/7094370067_fc65614952.jpg","path":"3fc/1ae/3fc1aea45524d097d1aba3374555dd85.jpg","date":"2012-04-17","year":2012,"month":4,"lon":-156.01987,"lat":19.796495,"tags":"beach,branches,kekaha+kai+state+park,lava+rock,makalawena+beach","S2CellId":"7953d00000000000","result":6866,"accuracy":0.44248217,"title":"he+pointed","description":"keep+going+that+way.++you%27re+almost+there."}
{"id":6019647491,"url":"http://farm7.staticflickr.com/6149/6019647491_36128228a5.jpg","path":"168/be3/168be3687834dbab934ec89024966491.jpg","date":"2011-07-09","year":2011,"month":7,"lon":-156.03716,"lat":19.79691,"tags":"diving,hawaii,manta+ray,scuba","S2CellId":"3210000000000000","result":1886,"accuracy":0.027647374,"title":"DSC06498"}
{"id":8185125908,"url":"http://farm9.staticflickr.com/8206/8185125908_850c959da6.jpg","path":"127/a9d/127a9dd272fb4b44aba1b18d07c27a7.jpg","date":"2012-10-26","year":2012,"month":10,"lon":-156.02643,"lat":19.676455,"tags":"blue,clouds,d7000,hawaii,kona,landscape,longexposure,naturallight,ndfilter,ocean,storm,timelapse,turtlebeach,waves","S2CellId":"7954400000000000","result":6868,"accuracy":0.5883327,"title":"Turtle+Beach+time+lapse"}
{"id":3127719256,"url":"http://farm4.staticflickr.com/3115/3127719256_0af52c2988.jpg","path":"396/c72/396c72aad365892761df367a54d4fb9b.jpg","date":"2008-12-21","year":2008,"month":12,"lon":-156.01671,"lat":19.685577,"tags":"a+day+in+the+life+of,costco+wholesale+warehouse,dilo,dilodec08,dilodec08+in+hawaii,drums,shopping","S2CellId":"89e6f00000000000","result":9385,"accuracy":0.074548565,"title":"No%2C+it+won%27t+fit+in+the+cart","description":"DILO%3A+Day+in+the+Life+of+%E2%80%93+Me%21%0ASunday%2C+December+21%2C+2008%0ADecided+to+participate+in+Flickr%E2%80%99s+%E2%80%9CA+day+in+the+life+of%E2%80%9D+photo+round-up%3A+%2301+for+me%2C+%2318+for+the+Flickr+community.%0A%0A11%3A30am+Grocery+shopping+at+Costco...+with+some+Christmas+teasers...+photos+only+for+those%21"}
{"id":3872670593,"url":"http://farm3.staticflickr.com/2638/3872670593_ff20ca13a5.jpg","path":"2b5/74c/2b574c49bd4bc9d1b47cc48863fb33ef.jpg","date":"2009-08-12","year":2009,"month":8,"lon":-156.00787,"lat":19.645605,"tags":"hawai%27i,hotel,kona,pacific+ocean,pentax+w60,sheraton,wild+dolphin+swim","S2CellId":"7954400000000000","result":6868,"accuracy":0.14978966,"title":"Sheraton","description":"%3Cb%3EWild+Dolphin+Swim%0AKona%2C+Hawai%27i%2C+Hawaii%3C%2Fb%3E"}
{"id":3873542674,"url":"http://farm3.staticflickr.com/2480/3873542674_c812ddf033.jpg","path":"5ad/e48/5ade4888c0da0a714c1fee544f53ef6.jpg","date":"2009-08-12","year":2009,"month":8,"lon":-156.00787,"lat":19.645605,"tags":"hawai%27i,kona,me,pacific+ocean,pentax+w60,snorkeling,swimming,wild+dolphin+swim","S2CellId":"3471f00000000000","result":2241,"accuracy":0.038710408,"title":"Myself+in+the+Water","description":"%3Cb%3EWild+Dolphin+Swim%0AKona%2C+Hawai%27i%2C+Hawaii%3C%2Fb%3E"}
{"id":12911164064,"url":"http://farm3.staticflickr.com/2830/12911164064_604ceabb0c.jpg","path":"191/c64/191c64d4a5439b71da1783ae6b5d68.jpg","date":"2014-03-01","year":2014,"month":3,"lon":-156.05035,"lat":19.716324,"tags":"bigisland,hawaii,kona","S2CellId":"7954400000000000","result":6868,"accuracy":0.2676192}
{"id":6929362385,"url":"http://farm8.staticflickr.com/7067/6929362385_b5455927b0.jpg","path":"9e4/6a4/9e46a4ce76aabe0db888b8cc9f77333.jpg","date":"2012-02-24","year":2012,"month":2,"lon":-156.01466,"lat":19.6455,"tags":"airport,barker,beach,field,gecko,hawaii,kahunapule,kahunapulej,kailua,kona,lizard,mrs.,old,park,reptile,trip","S2CellId":"6d2d000000000000","result":6809,"accuracy":0.034150172,"title":"Baby+gecko+on+my+hand","description":"%22You+aren%27t+going+to+give+me+back+to+that+girl%2C+are+you%3F%22"}
{"id":5080335496,"url":"http://farm5.staticflickr.com/4086/5080335496_9dde47780f.jpg","path":"38d/028/38d028671cc5934ab3f2348f5ed2f21.jpg","date":"2010-09-25","year":2010,"month":9,"lon":-156.01306,"lat":19.804142,"tags":"big+island,hawaii,makalawena","S2CellId":"07f0000000000000","result":124,"accuracy":0.04510774}
{"id":8151950489,"url":"http://farm9.staticflickr.com/8343/8151950489_138e7e7848.jpg","path":"56f/8b1/56f8b12efca4a12856329b91f2bcd9e.jpg","date":"2012-11-02","year":2012,"month":11,"lon":-156.02603,"lat":19.673222,"tags":"hawai%CA%BBi,hawaii","S2CellId":"3469c00000000000","result":2190,"accuracy":0.018392278,"title":"Sunset+at+Kaloko-Honok%C5%8Dhau+National+Historical+Park+%28DSC_4694%29"}
{"id":5417290245,"url":"http://farm6.staticflickr.com/5018/5417290245_375b997e05.jpg","path":"911/64d/91164d8038fb5fb9265fe9a0d63e17a8.jpg","date":"2011-02-04","year":2011,"month":2,"lon":-156.00908,"lat":19.64275,"tags":"hawaii,kahunapule,kahunapulej,kailua,kona,sunset,united+states+of+america,usa","S2CellId":"8edc000000000000","result":9506,"accuracy":0.016953789,"title":"Camel+Race+Clouds","description":"Of+course%2C+you+might+see+snails+instead+of+camels...+or+turtles...+or..."}
{"id":9411626409,"url":"http://farm3.staticflickr.com/2881/9411626409_6a68fd79b9.jpg","path":"3c4/a2e/3c4a2ea48104b4dbc5c7e99fa4de1ec.jpg","date":"2013-07-10","year":2013,"month":7,"lon":-156.042,"lat":19.781,"tags":"kahakai+state+park","S2CellId":"7953900000000000","result":6864,"accuracy":0.34844485,"title":"IMG_8150"}
{"id":5080320968,"url":"http://farm5.staticflickr.com/4132/5080320968_e63caa866e.jpg","path":"802/dd9/802dd9bd3013a745cec5dcf03dcb2bf8.jpg","date":"2010-09-25","year":2010,"month":9,"lon":-156.01306,"lat":19.804142,"tags":"big+island,hawaii,makalawena","S2CellId":"9aab000000000000","result":9926,"accuracy":0.04955743,"title":"unsalted"}
{"id":849126546,"url":"http://farm2.staticflickr.com/1400/849126546_dff3c2d3f6.jpg","path":"cf5/069/cf5069248a557457cd15cba6d96f4a8.jpg","date":"2007-07-18","year":2007,"month":7,"lon":-156.0416,"lat":19.7374,"tags":"moblog,n95,shozu","S2CellId":"80deab4000000000","result":7388,"accuracy":0.05301136,"title":"Kailua-Kona+Airport","description":"-+Taken+at+12%3A08+PM+on+July+18%2C+2007+-+cameraphone+upload+by+ShoZu"}
