{"id":4753556824,"url":"http://farm5.staticflickr.com/4120/4753556824_af15083d6d.jpg","path":"581/7be/5817bed1f3f3ca64b8a78d09e9a1919.jpg","date":"2010-07-01","year":2010,"month":7,"lon":-102.98778,"lat":46.87639,"tags":"xmap","S2CellId":"89d5400000000000","result":9263,"accuracy":0.0065650707,"title":"Look+at+that+beautiful+smile","description":"Glad+to+see+our+road+worker+friend+is+feeling+better+today."}
{"id":6176129136,"url":"http://farm7.staticflickr.com/6151/6176129136_06d69402e0.jpg","path":"cdf/f16/cdff1655b1f84d42aee5e693e3e67193.jpg","date":"2009-06-13","year":2009,"month":6,"lon":-102.55557,"lat":46.4215,"tags":"everydot.com,north+dakota,regent,united+states","S2CellId":"862c000000000000","result":7533,"accuracy":0.048034154,"title":"Regent%2C+North+Dakota","description":"From+everydot.com"}
{"id":5838134641,"url":"http://farm4.staticflickr.com/3551/5838134641_002e1f576c.jpg","path":"ea5/d38/ea5d38e1ba611a8083b4cb6984f5dd2d.jpg","date":"2011-06-15","year":2011,"month":6,"lon":-102.81229,"lat":46.855602,"tags":"catholic,cemetery,dakota,dickinson,joseph%27s,north,st.","S2CellId":"8621400000000000","result":7528,"accuracy":0.0138294175,"title":"_PJB1013","description":"rosa+braun+17+aug+1895+-+22+oct+1897"}
{"id":6175713141,"url":"http://farm7.staticflickr.com/6155/6175713141_d62a7b8472.jpg","path":"88b/63a/88b63a1e7f702c3e3c49e14058ac7831.jpg","date":"2009-06-13","year":2009,"month":6,"lon":-102.04314,"lat":46.901073,"tags":"everydot.com,hebron,north+dakota,united+states","S2CellId":"8784000000000000","result":7906,"accuracy":0.06308166,"title":"Hebron%2C+North+Dakota","description":"From+everydot.com"}
{"id":1102072937,"url":"http://farm2.staticflickr.com/1081/1102072937_382275dbca.jpg","path":"310/a42/310a424e6999c9acd21f81d5850b9dc.jpg","date":"2007-06-14","year":2007,"month":6,"lon":-102.788,"lat":46.0639,"tags":"bucyrus%2C+north+dakota,everydot.com,north+dakota,to+upload","S2CellId":"95d0000000000000","result":9860,"accuracy":0.05552006,"title":"Bucyrus%2C+North+Dakota","description":"Bucyrus%2C+North+Dakota.+From+%3Ca+href%3D%22http%3A%2F%2Feverydot.com%22%3Eeverydot.com%3C%2Fa%3E."}
{"id":1399340704,"url":"http://farm2.staticflickr.com/1147/1399340704_7fece5bdff.jpg","path":"18b/5c8/18b5c8686faffe6a79d81d2185a92.jpg","date":"2007-08-16","year":2007,"month":8,"lon":-102.76925,"lat":46.89683,"tags":"august+16%2C+2007,cemetery,head+stone,marker,north+dakota","S2CellId":"480e900000000000","result":4781,"accuracy":0.0038093524,"title":"_PJB0141"}
{"id":8291493248,"url":"http://farm9.staticflickr.com/8500/8291493248_6251007803.jpg","path":"cbe/449/cbe449a08889a53f7961941aa806fbf.jpg","date":"2012-12-17","year":2012,"month":12,"lon":-102.33009,"lat":46.939598,"tags":"frost,grass,snow,usa","S2CellId":"883cae5000000000","result":8363,"accuracy":0.009999006,"title":"With+Heavy+Heads%2C+We+Bow","description":"With+Heavy+Heads%2C+We+Bow+%0ADay+352+G%2B+365+Project+17+December+2012"}
{"id":7174305523,"url":"http://farm8.staticflickr.com/7097/7174305523_5c63b1e35b.jpg","path":"10f/b66/10fb669bf14bf304acf281220cb4a.jpg","date":"2012-05-27","year":2012,"month":5,"lon":-102.551704,"lat":46.502148,"tags":"enchanted+highway,metal+sculpture,north+dakota,regent+north+dakota","S2CellId":"809f000000000000","result":7130,"accuracy":0.09173773,"title":"2012_05_27ND_enchanted_highway_15"}
{"id":696228408,"url":"http://farm2.staticflickr.com/1083/696228408_50fe521234.jpg","path":"fa1/f31/fa1f315befc90fe13e5311da28c9f9.jpg","date":"2007-06-30","year":2007,"month":6,"lon":-102.771545,"lat":46.884865,"tags":"2007,cindi,dickinson,matt,north+dakota,roadtrip,roughrider+days,summer,vacation","S2CellId":"54950f0000000000","result":6252,"accuracy":0.047525585,"title":"playing+monkey+nuts"}
