{"id":5281086123,"url":"http://farm6.staticflickr.com/5009/5281086123_7a11df9e2e.jpg","path":"886/fa0/886fa0eaf8d9bb7f672efa6d2a971ca.jpg","date":"2010-12-12","year":2010,"month":12,"lon":80.24671,"lat":6.013044,"tags":"galle,sri+lanka,unawatuna","S2CellId":"07aac00000000000","result":102,"accuracy":0.11769196,"title":"DSC_5590"}
{"id":5918512853,"url":"http://farm7.staticflickr.com/6146/5918512853_73c42fb0d2.jpg","path":"0c2/c49/0c2c493215e36a3edf5d04496f55cc.jpg","date":"2011-07-10","year":2011,"month":7,"lon":80.400696,"lat":8.318853,"tags":"anuradhapura,sri+lanka","S2CellId":"132f61b700000000","result":1108,"accuracy":0.014409789,"title":"The+Urinal+Stone+Slab+of+Uttaramula+Monastery%2C+Anuradhapura"}
{"id":5039460413,"url":"http://farm5.staticflickr.com/4089/5039460413_5e81ff48bb.jpg","path":"9e6/804/9e680484c3d538fc1687b2f0fc85d4.jpg","date":"2009-11-18","year":2009,"month":11,"lon":80.107,"lat":6.134699,"tags":"animal,canon,discover,eos,eos300d,facebook,flickr,freedomity,friendly,google,happyness,internet,kanglapass,kindness,ladakh,landscape,live+your+dream,mongolie,moutain,nature,passion,portrait,reportage,s%C3%A9bastien+kanglapass,sebastien,sebastien+kanglapass,sebsevaz,simple+life,sri+lanka,travel,trekking,voyages,voyageur,warmhearted,worldwide,yahoo","S2CellId":"8fa7000000000000","result":9567,"accuracy":0.043413296,"title":"Sri+Lanka+037"}
{"id":6510879059,"url":"http://farm8.staticflickr.com/7005/6510879059_5e945f0bc0.jpg","path":"73b/79f/73b79f5feed2fd53913f7bd839ef835.jpg","date":"2011-12-14","year":2011,"month":12,"lon":80.6372,"lat":7.2842,"tags":"animals,cats,kandy,lanka,sri","S2CellId":"12e7100000000000","result":947,"accuracy":0.023948975,"title":"Sideshot+of+a+Ferocious+Cat","description":"Sideshot+of+a+Ferocious+Cat%0APhoto+taken+at+Hanthana%2CSri+Lanka."}
{"id":6549022049,"url":"http://farm8.staticflickr.com/7153/6549022049_049caf319e.jpg","path":"143/4de/1434debe83b6566dbe2e4d5c52c78d2.jpg","date":"2011-12-17","year":2011,"month":12,"lon":80.6372,"lat":7.2842,"tags":"contained,kandy,lanka,nerium,oleander,parachute,plant,seeds,sri","S2CellId":"89c3f00000000000","result":9127,"accuracy":0.0027614105,"title":"Parachute+seeds+contained+in+a+Nerium+oleander+plant","description":"Parachute+seeds+contained+in+a+Nerium+oleander+plant.%0A%0AConstructive+criticism+highly+appreciated."}
{"id":4512625900,"url":"http://farm3.staticflickr.com/2340/4512625900_f8b7251db5.jpg","path":"bad/7cc/bad7cc3fdfc2f7ac5f56ca3dced928.jpg","date":"2010-03-16","year":2010,"month":3,"lon":80.397385,"lat":8.349211,"tags":"2010,ancient+cities,ancient+city,anuradhapura,asia,asie,asien,buddhism,buddhist,dagoba,holiday,img_8570,old+town,ruwanwelisaya,sri+lanka,stupa,travel","S2CellId":"7c006f0000000000","result":6890,"accuracy":0.09012329,"title":"Ruwanwelisaya+Stupa","description":"in+Anuradhapura%27s+Old+Town"}
{"id":6293026473,"url":"http://farm7.staticflickr.com/6105/6293026473_b5f6b7ee2f.jpg","path":"cb8/64c/cb864c6938be463878d858f7f9e6bf.jpg","date":"2011-10-30","year":2011,"month":10,"lon":79.88379,"lat":7.035475,"tags":"ceylon,sri+lanka","S2CellId":"88d8f00000000000","result":8576,"accuracy":0.01366753,"title":"Negombo%2C+Sri+Lanka","description":"%3A%3A%3A%3Afisher+boat"}
{"id":8366858317,"url":"http://farm9.staticflickr.com/8358/8366858317_7c55dec7b4.jpg","path":"47e/c99/47ec995cf740f53aedc324a1c320ac2a.jpg","date":"2013-01-08","year":2013,"month":1,"lon":80.57293,"lat":6.710461,"tags":"balakotunna,sabaragamuwa,sri+lanka","S2CellId":"89d0c00000000000","result":9222,"accuracy":0.46941727,"title":"Alupola+Fals","description":"More+about+this+warterfall+at+%3Ca+href%3D%22http%3A%2F%2Famazinglanka.com%2Fwaterfalls%2Falupola%2Falupola.php%22+rel%3D%22nofollow%22%3Eamazinglanka.com+-+alupola+falls%3C%2Fa%3E"}
{"id":4808387972,"url":"http://farm5.staticflickr.com/4137/4808387972_11fb7c1c08.jpg","path":"ba1/a18/ba1a18b24d2ba8a7edbc4175914d37.jpg","date":"2009-12-26","year":2009,"month":12,"lon":80.19487,"lat":6.043943,"tags":"aditya,beach,boutique,galle,holiday,hotel,luxury,resort,sri+lanka","S2CellId":"0d6cc00000000000","result":565,"accuracy":0.011961929,"title":"Aditya+Hotel+01"}
{"id":5799649997,"url":"http://farm3.staticflickr.com/2184/5799649997_832ef0bfd7.jpg","path":"9e8/86c/9e886c467ccf93efa919a4b81a67f70.jpg","date":"2010-03-03","year":2010,"month":3,"lon":79.8341,"lat":7.200874,"tags":"backpacker,bateau,boat,hdr,mer,negombo,oruva,routard,sail,sea,soleil,sri+lanka,sun,tetedechat.com,tour+du+monde,travel,trip,voile,voyage","S2CellId":"88c3100000000000","result":8541,"accuracy":0.02568498,"title":"Oruva+on+a+negombo+sea","description":"Bateau+sri+lankais+en+action%2C+HDR."}
{"id":1843348172,"url":"http://farm3.staticflickr.com/2332/1843348172_7c87f4429e.jpg","path":"59c/af6/59caf62bdfc9dfc2ac958f94243bf2d.jpg","date":"2007-10-30","year":2007,"month":10,"lon":80.248604,"lat":6.012958,"tags":"beach,dog,sri+lanka","S2CellId":"3461000000000000","result":2114,"accuracy":0.03324175,"title":"Chilled-out+beach+dog","description":"A+very+chilled-out+dog.+Most+dogs+in+Sri+Lanka+roam+free.+They+behave+more+like+cats+-+and+get+fed+by+many+different+owners"}
{"id":2330150711,"url":"http://farm4.staticflickr.com/3262/2330150711_11ac4ae1a1.jpg","path":"e44/b4a/e44b4a6f3b1abab0e1c27165a29379.jpg","date":"2008-03-08","year":2008,"month":3,"lon":80.05351,"lat":6.293288,"tags":"64+sixty+four+small+islands+scattered+uninhabited+mangroves+maa,dhammika+heenpella,heenpalla,marvelous+madu+river+maadu+ganga+flowing+balapitiya+down+south+r,the+images+of+sri+lanka,visit+sri+lanka+2011","S2CellId":"3b0c000000000000","result":2533,"accuracy":0.3082852,"title":"Mesmerizing+Madu+River+%28Maadu+ganga%29+of+Balapitiya%2C+Sri+Lanka","description":"Madu+River+which+flows+across+Balapitiya+%28approx+80kms+down+south%29+is+one+of+the+rarely+visited+and+unspoiled+attractions+any+nature+lover+can+find+in+Sri+Lanka.+She+boasts+of+having+a+cluster+of+64+small+islands+scattered+along+her+path+and+the+most+of+which+are+uninhabited+and+covered+with+mangroves.+%0AThe+largest+island+is+known+as+%22Ma+Doowa%22+which+is+the+largest+inhabited+island+within+the+country+and+about+300+families+live+there.++The+smallest+is+called+%22Satha+Paha+Doowa%22.+According+to+folklore+this+islet+had+been+purchased+for+five+cents+but+some+say+the+name+has+derived+due+to+its+shape."}
{"id":8358425673,"url":"http://farm9.staticflickr.com/8323/8358425673_48ecdf2a0b.jpg","path":"8d2/c61/8d2c61e5dfffea66362093e43bbf89aa.jpg","date":"2012-12-29","year":2012,"month":12,"lon":80.82573,"lat":7.402643,"tags":"millipede,pill,sri+lanka","S2CellId":"864e640000000000","result":7620,"accuracy":0.08478761,"title":"Pill+Millipede","description":"They+curl+up+like+this+if+disturbed%2C+and+are+almost+impossible+to+open+out"}
{"id":8420784117,"url":"http://farm9.staticflickr.com/8185/8420784117_e635331b55.jpg","path":"983/59f/98359ff338667a3174f551ba171cb4.jpg","date":"2013-01-01","year":2013,"month":1,"lon":80.59745,"lat":7.269325,"tags":"central+province,peradeniya,sri+lanka","S2CellId":"89c6fc0000000000","result":9178,"accuracy":0.017301869,"title":"Orchid"}
{"id":6982603498,"url":"http://farm9.staticflickr.com/8159/6982603498_b786c5e0c1.jpg","path":"9b4/31f/9b431fa196b1e44310ca704e234c9c.jpg","date":"2012-02-19","year":2012,"month":2,"lon":80.64836,"lat":7.857172,"tags":"%E4%B8%B9%E5%B8%83%E6%8B%89,%E5%A3%81%E7%94%BB,%E6%96%AF%E9%87%8C%E5%85%B0%E5%8D%A1,%E7%9F%B3%E7%AA%9F%E5%AF%BA,%E9%94%A1%E5%85%B0,cave,cave+temple,ceylon,damblla,fresco,maharaja+viharaya,mural,rock+temple,sri+lanka,statue,temple","S2CellId":"3afc000000000000","result":2528,"accuracy":0.99658597,"title":"%E4%BA%8C%E5%8F%B7%E7%AA%9F+Cave+II","description":"%E6%96%AF%E9%87%8C%E5%85%B0%E5%8D%A1+%E4%B8%B9%E5%B8%83%E6%8B%89+%E7%9F%B3%E7%AA%9F%E5%AF%BA+%E4%BA%8C%E5%8F%B7%E7%AA%9F%0ACave+II+%28Maharaja+Viharaya%29%2C+Cave+Temple%2C+Damblla%2C+Sri+Lanka"}
{"id":7053429749,"url":"http://farm6.staticflickr.com/5466/7053429749_b5fb926427.jpg","path":"ea4/ff1/ea4ff1217a78c38974ff1e9f44a0f40.jpg","date":"2012-02-18","year":2012,"month":2,"lon":80.59382,"lat":7.271663,"tags":"%E5%BA%B7%E6%8F%90,%E6%96%AF%E9%87%8C%E5%85%B0%E5%8D%A1,%E6%A4%8D%E7%89%A9%E5%9B%AD,%E7%9A%87%E5%AE%B6%E6%A4%8D%E7%89%A9%E5%9B%AD,%E8%9D%99%E8%9D%A0,%E9%94%A1%E5%85%B0,bat,botanical+garden,ceylon,kandy,peradeniya+royal+botanical+garden,sri+lanka","S2CellId":"3be7b00000000000","result":2572,"accuracy":0.017546637,"title":"%E8%9D%A0%E5%AE%9E%E7%B4%AF%E7%B4%AF+%22Batful%22+tree","description":"%E6%BB%A1%E6%A0%91%E8%9D%99%E8%9D%A0%EF%BC%8C%E6%9C%89%E5%AF%86%E9%9B%86%E6%81%90%E6%83%A7%E4%B9%88%0A%0A%E6%96%AF%E9%87%8C%E5%85%B0%E5%8D%A1+%E5%BA%B7%E6%8F%90+%E7%9A%87%E5%AE%B6%E6%A4%8D%E7%89%A9%E5%9B%AD%0APeradeniya+Royal+Botanical+Garden%2C+Kandy%2C+Sri+Lanka"}
{"id":7178785879,"url":"http://farm8.staticflickr.com/7243/7178785879_4929ebfba2.jpg","path":"b71/710/b71710801392e1d58434ffc727b984bf.jpg","date":"2012-02-21","year":2012,"month":2,"lon":80.390366,"lat":8.334308,"tags":"%E6%96%AF%E9%87%8C%E5%85%B0%E5%8D%A1,%E9%94%A1%E5%85%B0,%E9%98%BF%E8%80%A8%E7%BD%97%E9%99%80%E5%9F%8E,anuradhapura,ceylon,isurumuniya,isurumuniya+vihara,north+central+province,sri+lanka,temple,the+lovers,vihara","S2CellId":"3bab000000000000","result":2541,"accuracy":0.2690331,"title":"The+Lovers","description":"%E4%BC%A0%E8%AF%B4%E4%B8%AD%E4%BB%A3%E8%A1%A8%E5%85%B0%E5%8D%A1%E6%9C%80%E9%AB%98%E8%89%BA%E6%9C%AF%E6%88%90%E5%B0%B1%E7%9A%84%E7%9F%B3%E9%9B%95%EF%BC%8C%E5%85%AC%E5%85%834-6%E4%B8%96%E7%BA%AA%E4%BD%9C%E5%93%81%E3%80%82%E6%8D%AE%E8%AF%B4%E8%BF%99%E5%AF%B9%E6%83%85%E4%BE%A3%E6%98%AF%E5%9B%BD%E7%8E%8BDutugemunu%E7%9A%84%E5%84%BF%E5%AD%90Saliya%E5%92%8C%E4%BB%96%E7%9A%84%E6%83%85%E4%BA%BA%E2%80%94%E2%80%94%E4%BD%8E%E7%A7%8D%E5%A7%93%E5%B0%91%E5%A5%B3Asokamala%EF%BC%8C%E4%B8%BA%E4%BA%86%E5%A5%B9%EF%BC%8C%E8%BF%99%E4%BD%8D%E4%B8%8D%E7%88%B1%E6%B1%9F%E5%B1%B1%E7%88%B1%E7%BE%8E%E4%BA%BA%E7%9A%84%E7%8E%8B%E5%AD%90%E6%9C%80%E7%BB%88%E6%94%BE%E5%BC%83%E4%BA%86%E7%8E%8B%E4%BD%8D%E3%80%82%0A%0A%E6%96%AF%E9%87%8C%E5%85%B0%E5%8D%A1+%E9%98%BF%E5%8A%AA%E6%8B%89%E5%BE%B7%E6%99%AE%E5%8B%92%0AIsurumuniya+Vihara%2C+Anuradhapura%2C+Sri+Lanka"}
{"id":4964272710,"url":"http://farm5.staticflickr.com/4126/4964272710_4f330837c4.jpg","path":"f39/7b5/f397b59e1123444d662244ce9c5620.jpg","date":"2010-08-06","year":2010,"month":8,"lon":80.64428,"lat":7.297768,"tags":"botanical+garden,kandy,sri+lanka","S2CellId":"8620af4000000000","result":7522,"accuracy":0.47383526,"title":"SriLanka_11_Kandy_Botanical_Garden_2010_042"}
{"id":4899521748,"url":"http://farm5.staticflickr.com/4140/4899521748_1cff0408e4.jpg","path":"551/5d0/5515d0b0605c4ad9cf26f3ceb7b5a8f.jpg","date":"2010-08-01","year":2010,"month":8,"lon":80.007935,"lat":6.403501,"tags":"bentota,sea+turtles+conservation+research+project,sea+turtles+protecting+project,sri+lanka,turtle+farm","S2CellId":"4889500000000000","result":5757,"accuracy":0.112382196,"title":"SriLanka_4_TurtleFarm_2010_051"}
{"id":9002253585,"url":"http://farm3.staticflickr.com/2826/9002253585_0e921e418e.jpg","path":"cfd/264/cfd264b75c6857389df50eebb3bbde3.jpg","date":"2013-05-10","year":2013,"month":5,"lon":80.249115,"lat":6.010398,"tags":"animal,asia,lizard,reptile,sri+lanka,travel","S2CellId":"3d00000000000000","result":2580,"accuracy":0.010733563,"title":"A+staunch+lizard"}
{"id":9003424760,"url":"http://farm8.staticflickr.com/7458/9003424760_d061ae7ef8.jpg","path":"ad1/bb4/ad1bb4d8e4e987b327f9abd3e1c88c.jpg","date":"2013-05-09","year":2013,"month":5,"lon":80.21625,"lat":6.035237,"tags":"asia,beach,sea,sri+lanka,storm,travel,wild","S2CellId":"3ae1000000000000","result":2521,"accuracy":0.47525772,"title":"Wild+and+windy+Sri+Lanka"}
{"id":10607601856,"url":"http://farm6.staticflickr.com/5494/10607601856_c2ec4f7e55.jpg","path":"1a3/94d/1a394d799839c85e02fde363b632ea.jpg","date":"2013-02-26","year":2013,"month":2,"lon":79.815155,"lat":7.414899,"tags":"beach,coconut,marawilla,sea,seaside,sri+lanka,sunset","S2CellId":"3b05000000000000","result":2531,"accuracy":0.060842518,"title":"marawila"}
{"id":12873965194,"url":"http://farm4.staticflickr.com/3778/12873965194_620b9abd55.jpg","path":"e17/cd0/e17cd090902f6f22e05e1f78eb2831c7.jpg","date":"2012-10-18","year":2012,"month":10,"lon":80.66289,"lat":7.303686,"tags":"1983,lanka,sri","S2CellId":"3bbfc00000000000","result":2562,"accuracy":0.06818287,"title":"1983-3-12+srilanka","description":"Sri+Lanka+-+1983"}
{"id":4738176262,"url":"http://farm5.staticflickr.com/4143/4738176262_0da0af8056.jpg","path":"9fc/a94/9fca94b1a29248f0c83b9672b5b81.jpg","date":"2010-04-09","year":2010,"month":4,"lon":80.51605,"lat":6.830647,"tags":"adam%27s+peak,sri+lanka","S2CellId":"54c7000000000000","result":6307,"accuracy":0.19132541,"title":"The+Sunrise"}
{"id":321238054,"url":"http://farm1.staticflickr.com/137/321238054_8845f1d2e0.jpg","path":"8c4/c48/8c4c482fe1873f4bae69f05cf01eab.jpg","date":"2006-11-23","year":2006,"month":11,"lon":80.64866,"lat":7.849607,"tags":"buddha+statue,cave+temple,dambulla,sri+lanka","S2CellId":"30cc000000000000","result":1621,"accuracy":0.31939805,"title":"Rangiri+Dambulla+Raja+Maha+Viharaya","description":"Sri+Lanka+has+many+cave+temples+but+the+Rangiri+Dambulu+Viharaya+or+the+Golden+Rock+Temple+of+Dambulla+is+the+most+venerated%2C+celebrated+and+most+probably+the+most+visited.%0A%0AThe+cave+complex+that+consists+of+the+five+viharayas+has+a+spectacular+setting+on+a+massive+rock+some+1118+ft.+above+sea+level+and+surrounded+by+the+plains+of+Kurunegala+on+one+side+and+the+rock+of+Sigiriya+and+the+mountain+of+Ritigala+on+the+other.%0A%0Asee+more+photos+and+info+at+%0A%3Ca+href%3D%22http%3A%2F%2Fwww.amazinglanka.com%2Fheritage%2Fdambulla%2Fdambulla.php%22+rel%3D%22nofollow%22%3Ewww.amazinglanka.com%2Fheritage%2Fdambulla%2Fdambulla.php%3C%2Fa%3E"}
{"id":6831348426,"url":"http://farm8.staticflickr.com/7194/6831348426_7b6c5ecd2e.jpg","path":"3c0/d5a/3c0d5ab15f8d0dbf21c54518eb8ab17.jpg","date":"2012-02-18","year":2012,"month":2,"lon":80.63458,"lat":7.291749,"tags":"butcher,kandy,nikkor+35mm%2F2d,sri+lanka","S2CellId":"390cfc0000000000","result":2454,"accuracy":0.12647821,"title":"***","description":"Jeszcze+raz+targowisko+w+mrocznej+obr%C3%B3bce"}
{"id":10653950096,"url":"http://farm8.staticflickr.com/7298/10653950096_2dd54b5364.jpg","path":"232/c71/232c7138e786c7f94ad4cc3b8ddb26.jpg","date":"2013-09-19","year":2013,"month":9,"lon":80.91688,"lat":6.455528,"tags":"2013,sri+lanka","S2CellId":"1ed0000000000000","result":1478,"accuracy":0.20009248,"title":"Elephant"}
{"id":4964103582,"url":"http://farm5.staticflickr.com/4108/4964103582_e2d59781aa.jpg","path":"6c7/15b/6c715b93ad710c8999c6285b16827.jpg","date":"2010-08-06","year":2010,"month":8,"lon":80.67724,"lat":6.702457,"tags":"ceylon,elephant+orphins,elephant+riding,pinawala,pinnawala+elephant+orphanage,pinnewala,pinnewela,sri+lanka","S2CellId":"30da3f0000000000","result":1637,"accuracy":0.21497045,"title":"SriLanka_07_Elephant_Orphelins_2010_006"}
{"id":9693814892,"url":"http://farm3.staticflickr.com/2835/9693814892_ccaa8fbb60.jpg","path":"434/242/43424228491b7d913426987fe9e12e0.jpg","date":"2013-08-24","year":2013,"month":8,"lon":80.8883,"lat":8.024064,"tags":"elephants,minneriya,sri+lanka","S2CellId":"3afc000000000000","result":2528,"accuracy":0.17016836,"title":"Elephant+Gathering","description":"Every+year%2C+hundreds+of+elephants+gather+in+Minneriya+National+Park%2C+Sri+Lanka.+Note+the+baby+near+the+back+leg+of+the+large+elephant+in+the+middle."}
{"id":4818011335,"url":"http://farm5.staticflickr.com/4114/4818011335_b543732a2c.jpg","path":"7cc/f1a/7ccf1ac3a21ee4436e533f84791d84ef.jpg","date":"2009-12-24","year":2009,"month":12,"lon":80.836716,"lat":6.969027,"tags":"botanical,flowers,gardens,holiday,nuwara+eliya,plants,royal,sri+lanka,trees","S2CellId":"94ce59f000000000","result":9723,"accuracy":0.11917842,"title":"Royal+Botanical+Gardens+62"}
{"id":8406937488,"url":"http://farm9.staticflickr.com/8500/8406937488_b18e640a2c.jpg","path":"30c/b5c/30cb5cdc9f585a22fb8f7ab24156df6.jpg","date":"2012-12-30","year":2012,"month":12,"lon":80.21622,"lat":6.025355,"tags":"galle,southern+province,sri+lanka","S2CellId":"346c400000000000","result":2192,"accuracy":0.13235791,"title":"tourelle+portugaise+au+dessus+de+tuktuk+indien+d%27inspiration+italienne..."}
{"id":8502275251,"url":"http://farm9.staticflickr.com/8508/8502275251_e6950bb545.jpg","path":"8c1/850/8c18508c6985ea1ef321d62cbd5d55ba.jpg","date":"2013-02-24","year":2013,"month":2,"lon":80.76705,"lat":6.970752,"tags":"amaro,instagram+app,iphoneography,square,square+format","S2CellId":"31cb000000000000","result":1804,"accuracy":0.07080541,"title":"Solitary"}
{"id":8622022398,"url":"http://farm9.staticflickr.com/8109/8622022398_f08a50a621.jpg","path":"f35/195/f351957213da1ddc0193c3c23e71898.jpg","date":"2013-03-28","year":2013,"month":3,"lon":79.861176,"lat":6.918545,"tags":"apiit,colombo,journalism,march,media,meetup,refresh,refreshcolombo,social,srilanka,tech","S2CellId":"935a3b4000000000","result":9656,"accuracy":0.061331753,"title":"Mili+%40+RC+March+Meetup"}
{"id":4929868494,"url":"http://farm5.staticflickr.com/4141/4929868494_6ca723544a.jpg","path":"98a/c88/98ac886768d16d4863dd792e1d99872.jpg","date":"2010-08-03","year":2010,"month":8,"lon":80.0021,"lat":6.481625,"tags":"brief+garden,sri+lanka","S2CellId":"3bae300000000000","result":2549,"accuracy":0.016092429,"title":"SriLanka_5_BriefGarden_2010_012"}
{"id":5695121985,"url":"http://farm6.staticflickr.com/5184/5695121985_f131b50c71.jpg","path":"e2e/3ba/e2e3ba75bbe68b31172a83d224f9d971.jpg","date":"2011-04-13","year":2011,"month":4,"lon":80.222084,"lat":6.025165,"tags":"advertising,canon,fort,galle,publicit%C3%A9,sri+lanka","S2CellId":"80e9500000000000","result":7405,"accuracy":0.00510609,"title":"Sri+Lanka+-+Galle"}
{"id":3915584556,"url":"http://farm4.staticflickr.com/3418/3915584556_02411f05c3.jpg","path":"a8c/895/a8c8959465a1c0ea4cc3f58fea7447c4.jpg","date":"2009-07-27","year":2009,"month":7,"lon":79.8573,"lat":7.184013,"tags":"lagoon+ride,negombo,sri+lanka","S2CellId":"40bc000000000000","result":2689,"accuracy":0.052612543,"title":"20090727-155228","description":"A+heron+on+the+other+side+of+the+lagoon."}
{"id":4152262876,"url":"http://farm3.staticflickr.com/2505/4152262876_7aef692c99.jpg","path":"d2e/c33/d2ec33e15a8d34478f8d32a6def4bee2.jpg","date":"2009-11-28","year":2009,"month":11,"lon":80.25753,"lat":6.010312,"tags":"beach,sri+lanka,unawatuna","S2CellId":"30fc000000000000","result":1682,"accuracy":0.06052344,"title":"A+glass+bottom+boat","description":"Unawatuna+Beach"}
{"id":1632251520,"url":"http://farm3.staticflickr.com/2393/1632251520_a6c9fbe687.jpg","path":"525/d40/525d40f070a5af755663f3933d76e46a.jpg","date":"2007-10-17","year":2007,"month":10,"lon":80.381836,"lat":7.302,"tags":"elephant,kandy,orphanage,sri+lanka","S2CellId":"3ae3400000000000","result":2524,"accuracy":0.19520475,"title":"Sri+Lanka+-+044+-+Elephant+Orphange","description":"The+beautiful+elephants+at+the+Elephant+Orphanage+near+Kandy+for+their+daily+swim+and+drinking+session.+I+am+not+a+particular+wildlife+person%2C+but+I+could+watch+these+creatures+all+day."}
{"id":6916630584,"url":"http://farm6.staticflickr.com/5197/6916630584_9263a78211.jpg","path":"838/e61/838e6136fba648ece4e4bc612c2d9.jpg","date":"2011-02-01","year":2011,"month":2,"lon":79.85207,"lat":6.918769,"tags":"%5Bbuddhist,colombo,festival%5D,full,http%3A%2F%2Fmalbuk.tumblr.com%2F,lanka,moon,navam,poya,sri","S2CellId":"48761c4000000000","result":5333,"accuracy":0.585955,"title":"Sri+Lanka+Colombo+Navam+Full+Moon+Poya+%5BBuddhist+Festival%5D","description":"Sri+Lanka+Colombo+Navam+Full+Moon+Poya+%5BBuddhist+Festival%5D"}
{"id":8731438422,"url":"http://farm8.staticflickr.com/7423/8731438422_3c5baa9f14.jpg","path":"d39/dcb/d39dcb454ea753436f2995b4a00927.jpg","date":"2013-11-08","year":2013,"month":11,"lon":80.4147,"lat":8.3147,"tags":"k-r,pentax,pentax+kr,srilanka,the+challenge+factory","S2CellId":"6b17c00000000000","result":6723,"accuracy":0.035300333,"title":"Ripples","description":"Nuwara+wewa%2C+2nd+century+AD"}
{"id":13286347814,"url":"http://farm3.staticflickr.com/2839/13286347814_4863c0f358.jpg","path":"bcb/7d1/bcb7d114a4fb128b48db5fa8311b262.jpg","date":"2014-02-19","year":2014,"month":2,"lon":80.057,"lat":6.2321,"tags":"ambalangoda,bus,inside,lanka,lankan,man,men,outside,passing,perplexed,reflection,sri,travel,unaware,window","S2CellId":"89b7b7e400000000","result":8878,"accuracy":0.044161152,"title":"Perplexed+inside+the+bus","description":"Travelling+by+bus+from+Colombo+%28Sri+Lanka%29+I+saw+a+nice+reflection+of+the+guy+in+the+seat+in+front+of+me.++I+took+a+few+shots+and+after+a+while%2C+reacting+to+the+sound+of+the+clicks%2C+he+turned+around+wondering+what+in+blazes+I+could+possibly+be+doing.++I+thought+it+would+be+all+a+bit+hard+to+explain+so+I+just+gave+a+relaxed+smile+and+he+was+happy+enough+with+that.++He+knew+I+was+up+to+something+but%2C+understandably+just+couldn%27t+quite+work+it+out.++Only+a+bit+of+photographic+fun+on+a+long+bus+journey."}
{"id":5367847898,"url":"http://farm6.staticflickr.com/5282/5367847898_c27540747d.jpg","path":"d73/01c/d7301cf8d076d3659b5a8715904cba5d.jpg","date":"2011-01-16","year":2011,"month":1,"lon":80.3637,"lat":7.4896,"tags":"ardeola+grayii,birds,indian+pond+heron,water+birds,wetland+birds,wildlife","S2CellId":"1835000000000000","result":1425,"accuracy":0.019570772,"title":"Indian+Pond+Heron+or++%28Ardeola+grayii%29","description":"%3Ca+href%3D%22http%3A%2F%2Fsrilankawilderness.blogspot.com%2F%22+rel%3D%22nofollow%22%3Esrilankawilderness.blogspot.com%2F%3C%2Fa%3E"}
{"id":5281675852,"url":"http://farm6.staticflickr.com/5009/5281675852_68e2f42159.jpg","path":"4b5/d32/4b5d32ff7d3f53349d4196fecbe314.jpg","date":"2010-12-12","year":2010,"month":12,"lon":80.19418,"lat":6.044284,"tags":"galle,sri+lanka","S2CellId":"07161c0000000000","result":88,"accuracy":0.039279595,"title":"DSC_5515"}
{"id":3013947068,"url":"http://farm4.staticflickr.com/3061/3013947068_449cc91e41.jpg","path":"879/132/87913288f35e358b83b74fc1f42f853.jpg","date":"2007-07-22","year":2007,"month":7,"lon":80.6474,"lat":7.2892,"tags":"aves,birds,black-crowned+night-heron,kandy,nycticorax,nycticorax+nycticorax,sri+lanka","S2CellId":"489f000000000000","result":5781,"accuracy":0.040008985,"title":"Nycticorax+nycticorax+%28Black-crowned+Night-Heron%29+-+juvenile","description":"Juvenile+Black-crowned+Night-Heron+%28Nycticorax+nycticorax%29+at+Kandy%2C+Sri+Lanka.+Photograph+taken+on+23+July+2007"}
{"id":4963772465,"url":"http://farm5.staticflickr.com/4133/4963772465_9e7f72bc86.jpg","path":"9f1/1c0/9f11c063b517c99c9c34b889a9a5055.jpg","date":"2010-08-09","year":2010,"month":8,"lon":80.06115,"lat":6.299004,"tags":"boat+trip,sri+lanka","S2CellId":"8620af4000000000","result":7522,"accuracy":0.032053653,"title":"SriLanka_14_BoatTrip_2010_051"}
{"id":5582227829,"url":"http://farm6.staticflickr.com/5058/5582227829_b25e331b0f.jpg","path":"538/e30/538e30b29a4d2f82a9888fe261b4e257.jpg","date":"2011-03-07","year":2011,"month":3,"lon":80.99234,"lat":7.924233,"tags":"polonnaruwa,sri+lanka,sunset,tank","S2CellId":"1313d00000000000","result":966,"accuracy":0.09100337,"description":"Polonnaruwa"}
{"id":8317037643,"url":"http://farm9.staticflickr.com/8496/8317037643_66550d8548.jpg","path":"999/ddb/999ddb8477a4715f255a98d7cff432.jpg","date":"2012-12-28","year":2012,"month":12,"lon":80.57473,"lat":7.164437,"tags":"instagram+app,iphoneography,square,square+format","S2CellId":"8623000000000000","result":7530,"accuracy":0.027610129,"title":"Bridge."}
{"id":4990265037,"url":"http://farm5.staticflickr.com/4127/4990265037_d436deabfc.jpg","path":"29d/a5f/29da5f9b901f43783db853bfcb716f3e.jpg","date":"2010-09-12","year":2010,"month":9,"lon":80.59399,"lat":6.892684,"tags":"2010,hatton,hills,places,srilanka,trips","S2CellId":"3b07000000000000","result":2532,"accuracy":0.18543895,"title":"Hatton"}
{"id":8389635904,"url":"http://farm9.staticflickr.com/8504/8389635904_dbfd1f6965.jpg","path":"482/2a6/4822a6cfb1ea543236e6fef8ff27ef2b.jpg","date":"2013-01-17","year":2013,"month":1,"lon":79.93755,"lat":7.175416,"tags":"blog,cat,daily+picture+parade,sri+lanka+2012","S2CellId":"89d4d40000000000","result":9260,"accuracy":0.016492616,"title":"2013_01_17","description":"January+17%2C+2013+%28Thursday%29+-+We+came+from+Tricomalee+to+Minuwangoda+today.++Some+creatures+didn%27t+go+much+further+than+the+far+end+of+the+yard+during+these+last+four+days.%0A%0AFor+use+in+my+blog+on+this+date."}
{"id":12873703333,"url":"http://farm8.staticflickr.com/7389/12873703333_92f8feb36d.jpg","path":"8e4/c3d/8e4c3d5158a4f67ad07b6e95886c2b2.jpg","date":"2012-10-18","year":2012,"month":10,"lon":80.641205,"lat":7.294011,"tags":"1983,lanka,sri","S2CellId":"3b01000000000000","result":2529,"accuracy":0.06963076,"title":"1983-1-13+srilanka","description":"Sri+Lanka+-+1983"}
{"id":6221128547,"url":"http://farm7.staticflickr.com/6048/6221128547_93d9fd8315.jpg","path":"168/6d6/1686d633a0d81872dd9feff3ecf7fde.jpg","date":"2010-12-25","year":2010,"month":12,"lon":79.86511,"lat":6.951646,"tags":"sri+lanka,temple","S2CellId":"3bab000000000000","result":2541,"accuracy":0.050290186,"title":"Temple"}
{"id":5412853411,"url":"http://farm6.staticflickr.com/5100/5412853411_4bc370deb4.jpg","path":"d46/3ce/d463cec119c1e9e0b9f37b8af4e9473c.jpg","date":"2010-09-23","year":2010,"month":9,"lon":80.81818,"lat":6.84326,"tags":"%E0%B6%8C%E0%B7%80,%E0%B6%B6%E0%B6%AF%E0%B7%94%E0%B6%BD%E0%B7%8A%E0%B6%BD,%E0%B6%B6%E0%B7%9D%E0%B6%9C%E0%B7%84%E0%B6%9A%E0%B7%94%E0%B6%B9%E0%B7%94%E0%B6%BB,%E0%B7%81%E0%B7%8A%E2%80%8D%E0%B6%BB%E0%B7%93+%E0%B6%BD%E0%B6%82%E0%B6%9A%E0%B7%8F%E0%B7%80,%E0%B7%84%E0%B6%BB%E0%B7%9A%E0%B7%82%E0%B7%8A+%E0%B6%91%E0%B6%BB%E0%B6%82%E0%B6%9C,badulla,bogahakumbura,haresh+eranga,sri+lanka,uva","S2CellId":"3ae3c00000000000","result":2525,"accuracy":0.106588446,"title":"Bogahakumbura+2010-09-22%2C23+-+%5Bwww.hartstuff.com%5D+-+DSC02517","description":"Bogahakumbura+-+Welimada"}
{"id":6162209198,"url":"http://farm7.staticflickr.com/6153/6162209198_4b9084fdf9.jpg","path":"273/7ca/2737cab9b1c85e9b13fb3d0d2263bae.jpg","date":"2011-08-16","year":2011,"month":8,"lon":79.878845,"lat":6.945512,"tags":"food,people,sri+lanka,train","S2CellId":"48761ca530000000","result":5338,"accuracy":0.046894398,"title":"DSC00182-ap","description":"Local+food+sell+on+the+train%2C+Sri+Lanka"}
{"id":6782681613,"url":"http://farm8.staticflickr.com/7156/6782681613_c33b1352ee.jpg","path":"d59/8a8/d598a88a7c107c2e5a4aaee55d3e1e9f.jpg","date":"2012-01-29","year":2012,"month":1,"lon":79.90148,"lat":6.997151,"tags":"bird,birds,branch,coconut,nest,srilanka,tree","S2CellId":"88d0a631cabb5071","result":8563,"accuracy":0.054840546,"title":"Indian+Pond+Heron","description":"Caught+from+the+backyard.."}
{"id":7816648792,"url":"http://farm9.staticflickr.com/8299/7816648792_8b824ddb14.jpg","path":"12d/ddc/12dddc4f324ba993aea622b39861a38.jpg","date":"2012-08-17","year":2012,"month":8,"lon":80.904724,"lat":6.461894,"tags":"sri+lanka,udawalawe.,uva","S2CellId":"1740000000000000","result":1415,"accuracy":0.06981735,"title":"Udawalawa","description":"%3Ca+href%3D%22http%3A%2F%2Fwww.amazinglanka.com%2Fwildlife%2FUdawalawe%2Fudawalawe_park.php%22+rel%3D%22nofollow%22%3Ewww.amazinglanka.com+-+Udawalawe+National+Park%3C%2Fa%3E"}
{"id":10642610603,"url":"http://farm6.staticflickr.com/5521/10642610603_54f1cfc1c5.jpg","path":"3b3/bdc/3b3bdca6744c69cc1d093509dba3925.jpg","date":"2013-02-28","year":2013,"month":2,"lon":80.3972,"lat":8.369093,"tags":"anuradhapura,garden,ranmasu+uyana,rock,ruins,sri+lanka","S2CellId":"3afc000000000000","result":2528,"accuracy":0.30656666,"title":"Anuradhapura"}
{"id":2181735691,"url":"http://farm3.staticflickr.com/2261/2181735691_14f4c88db3.jpg","path":"3da/bd9/3dabd914c067e2e5b72df45dbd386e9c.jpg","date":"2007-05-24","year":2007,"month":5,"lon":80.84015,"lat":6.763488,"tags":"nuwara+eliya,screensaver,sri+lanka","S2CellId":"3ae3c00000000000","result":2525,"accuracy":0.1209836,"title":"waterfall+in+tea+country","description":"on+the+way+into+the+mountains+of+the+tea+country+of+sri+lanka"}
{"id":804260779,"url":"http://farm2.staticflickr.com/1248/804260779_49c6db3002.jpg","path":"df6/128/df6128d5873d135b501f268d68c01cae.jpg","date":"2007-07-09","year":2007,"month":7,"lon":80.71947,"lat":7.947631,"tags":"ancient,fortree,history,palace,sigiriya","S2CellId":"3afc000000000000","result":2528,"accuracy":0.50296915,"title":"pan+sigiriya."}
{"id":369272347,"url":"http://farm1.staticflickr.com/124/369272347_460f8b6cc4.jpg","path":"e8e/fa6/e8efa6c39062e78e67d475c6d05cf7d9.jpg","date":"2005-10-30","year":2005,"month":10,"lon":80.79655,"lat":6.39753,"tags":"champ,coton,cotton,couchet,field,lanka,maduwanwala,soleil,sri,srilanka,sunset","S2CellId":"4787c00000000000","result":3614,"accuracy":0.0078460295,"title":"Cotton+field+and+Sunset","description":"Maduwanwala+%28SRI%29+Oct.+2005"}
{"id":3717865278,"url":"http://farm3.staticflickr.com/2516/3717865278_75b3529e41.jpg","path":"b6f/c94/b6fc94f9f3e10f9fc3cfd57fcc59666.jpg","date":"2007-02-07","year":2007,"month":2,"lon":80.63364,"lat":7.289467,"tags":"botanical,flowers,kandy,orange,sri+lanka","S2CellId":"6b164d0000000000","result":6716,"accuracy":0.04835351,"description":"Botanical+Gardens+in+Kandy%2C+Sri+Lanka"}
{"id":6328265879,"url":"http://farm7.staticflickr.com/6053/6328265879_fc5d032a16.jpg","path":"679/e63/679e63f83463906049bf96bcb6437a.jpg","date":"2011-11-09","year":2011,"month":11,"lon":80.63947,"lat":7.291128,"tags":"birds","S2CellId":"88d0a631cabb5071","result":8563,"accuracy":0.1924171,"title":"Vee+Kurulla"}
{"id":473689237,"url":"http://farm1.staticflickr.com/167/473689237_b628dd37b2.jpg","path":"579/c78/579c78c572e9baf602437a1931e9952.jpg","date":"2007-04-26","year":2007,"month":4,"lon":79.85601,"lat":6.931709,"tags":"beira+lake,bridge,colombo,hotel,plants","S2CellId":"31f0000000000000","result":1885,"accuracy":0.044095132,"title":"Beira+Lake"}
{"id":6428814613,"url":"http://farm8.staticflickr.com/7149/6428814613_c21d7e5fa7.jpg","path":"2eb/665/2eb665155323418344cc7a17de556.jpg","date":"2011-10-26","year":2011,"month":10,"lon":80.72015,"lat":7.93131,"tags":"sigiriya,sri+lanka","S2CellId":"3afc000000000000","result":2528,"accuracy":0.35756928,"title":"DSC07389"}
{"id":294334905,"url":"http://farm1.staticflickr.com/111/294334905_d98e51222d.jpg","path":"a29/49c/a2949c313464971b3fa7555e7b30795f.jpg","date":"2006-11-11","year":2006,"month":11,"lon":79.84589,"lat":6.933072,"tags":"+moir,dazzle,lanka,sri,sri+lanka","S2CellId":"85cfd00000000000","result":7456,"accuracy":0.025517581,"title":"baila-girls","description":"The+Baila+Girls+-+%22Dazzle%22+%2706+%5BA+Moir+Production%5D"}
{"id":6568480713,"url":"http://farm8.staticflickr.com/7162/6568480713_88bc1da1d9.jpg","path":"b85/261/b852610a19176389f758a47b4e6cde5.jpg","date":"2011-12-25","year":2011,"month":12,"lon":79.93206,"lat":6.927278,"tags":"gaurika,gaurikaw,purple-rumped,purple-rumped+sunbird+%28leptocoma+zeylonica%29,sun+birds,sunbird","S2CellId":"89c3700000000000","result":9120,"accuracy":0.02028147,"title":"Purple-rumped+Sunbird+%28Leptocoma+zeylonica%29"}
{"id":6968616840,"url":"http://farm8.staticflickr.com/7040/6968616840_a61c012e24.jpg","path":"212/416/212416bd8db239a65d3c4fcda1fe2ca0.jpg","date":"2012-02-19","year":2012,"month":2,"lon":80.63979,"lat":7.29425,"tags":"%E5%BA%B7%E6%8F%90,%E6%96%AF%E9%87%8C%E5%85%B0%E5%8D%A1,%E9%94%A1%E5%85%B0,ceylon,flower,kandy,pot,sri+lanka,water","S2CellId":"39e4000000000000","result":2487,"accuracy":0.15257052,"title":"Pure+water+and+fresh+flowers+for+Buddha","description":"%E6%96%AF%E9%87%8C%E5%85%B0%E5%8D%A1+%E5%BA%B7%E6%8F%90%0AKandy%2C+Sri+Lanka"}
{"id":4447084311,"url":"http://farm5.staticflickr.com/4040/4447084311_cdf1d3abcf.jpg","path":"7a7/2f5/7a72f5612317d4adf09248fe9cb18dc0.jpg","date":"2010-02-14","year":2010,"month":2,"lon":79.8448,"lat":6.923242,"tags":"beach,colombo,galle+face,sri+lanka","S2CellId":"3bc4000000000000","result":2563,"accuracy":0.10795169,"title":"Want+a+pony+ride%3F"}
{"id":773560739,"url":"http://farm2.staticflickr.com/1400/773560739_eb96b0a2f2.jpg","path":"e4c/2b1/e4c2b1216573e210babfe9b36a353b.jpg","date":"2007-06-23","year":2007,"month":6,"lon":80.7811,"lat":6.971412,"tags":"lanka,nuwaraeliya,srilanka","S2CellId":"0d25400000000000","result":271,"accuracy":0.105928324,"title":"Rain+Clouds+-+off+the+Nuwara+Eliya+-+Kandy+Road"}
{"id":6901923194,"url":"http://farm8.staticflickr.com/7272/6901923194_20697f27b8.jpg","path":"b63/7a0/b637a031c93f95fc4077fbe413e36675.jpg","date":"2012-02-17","year":2012,"month":2,"lon":80.646965,"lat":7.292894,"tags":"%E5%BA%B7%E6%8F%90,%E5%BA%B7%E6%8F%90%E8%88%9E,%E6%96%AF%E9%87%8C%E5%85%B0%E5%8D%A1,%E8%88%9E,%E9%94%A1%E5%85%B0,ceylon,dance,dancer,kandy,kandy+lake+club,kandyan+dance,sri+lanka,ves,ves+natuma","S2CellId":"8f63340000000000","result":9541,"accuracy":0.0875939,"title":"Ves+Natuma+%E8%88%9E","description":"The+Ves+Natuma%2C+the+most+important+dance+in+the+Kandyan+style.+Ves+is+the+traditional+attire+of+the+Kandyan+dancer.+Sixty+four+ornaments+comprise+the+dress+and+traditionally+their+sheen+symbolizes+the+rays+of+the+sun.+It+takes+years+of+rigorous+training+before+a+dancer+can+achieve+the+status+of+a+fully-fledged+ves+dancer.%0A%0A%E6%96%AF%E9%87%8C%E5%85%B0%E5%8D%A1+%E5%BA%B7%E6%8F%90%0AKandy+Lake+Club%2C+Kandy%2C+Sri+Lanka"}
{"id":11398552345,"url":"http://farm8.staticflickr.com/7311/11398552345_dfc3b9b6bf.jpg","path":"7a8/c5a/7a8c5a5cb3fa57da94a08bd4e87fb18d.jpg","date":"2013-12-15","year":2013,"month":12,"lon":79.842445,"lat":6.933083,"tags":"2013,cnr,cnr2013,colombo,daniel,f1,formula1,fort,galleface,night,race,rb7,redbull,redbullracing,ricciardo,srilanka","S2CellId":"48771c4000000000","result":5410,"accuracy":0.12122417,"title":"Daniel+Ricciardo+having+a+chat+with+his+pit+crew"}
{"id":4964382356,"url":"http://farm5.staticflickr.com/4086/4964382356_9387b752ba.jpg","path":"235/17f/23517fbe275fe1dee94d8f7433f02c.jpg","date":"2010-08-09","year":2010,"month":8,"lon":80.06115,"lat":6.299004,"tags":"boat+trip,sri+lanka","S2CellId":"2d40000000000000","result":1533,"accuracy":0.39121428,"title":"SriLanka_14_BoatTrip_2010_084"}
{"id":2909631010,"url":"http://farm4.staticflickr.com/3266/2909631010_441c86d7ae.jpg","path":"811/52c/81152c17c8ec5d88283d7a84599d4879.jpg","date":"2005-12-24","year":2005,"month":12,"lon":80.68685,"lat":6.702031,"tags":"animals,elephants,pinnawala,sri+lanka,water","S2CellId":"3ae3c00000000000","result":2525,"accuracy":0.41550454,"title":"Elephants+bathing","description":"At+Pinnawala+Elephant+Orphanage%2C+Sri+Lanka."}
{"id":9642813692,"url":"http://farm3.staticflickr.com/2850/9642813692_c35297ff83.jpg","path":"f91/16c/f9116cc23996aca6cbb4d58c44b6f72.jpg","date":"2013-08-31","year":2013,"month":8,"lon":79.87301,"lat":6.856192,"tags":"bengal+tiger+%28panthera+tigris+tigris%29,dehiwala+zoom,gaurika,gaurikaw,keep+wildlife+in+wild,national+zoological+gardens,sri+lanka,zoo+animals","S2CellId":"47bd0e9000000000","result":4086,"accuracy":0.048663698,"title":"Bengal+tiger+%28Panthera+tigris+tigris%29"}
{"id":5737246571,"url":"http://farm4.staticflickr.com/3469/5737246571_0c02a524ec.jpg","path":"ec7/67a/ec767a1b34bb3789bf5242240e33423.jpg","date":"2011-05-01","year":2011,"month":5,"lon":80.42679,"lat":7.264394,"tags":"monkey,stri+lanka","S2CellId":"1833000000000000","result":1424,"accuracy":0.05278628,"title":"Monkey"}
{"id":8388020988,"url":"http://farm9.staticflickr.com/8504/8388020988_111600147f.jpg","path":"5b4/e92/5b4e925da279c6d7c7c694275cab2df1.jpg","date":"2012-12-23","year":2012,"month":12,"lon":79.845726,"lat":6.920213,"tags":"camille-yunha,colombo,sri+lanka,western+province","S2CellId":"3468b00000000000","result":2163,"accuracy":0.04353365,"title":"Sunset"}
{"id":4046229142,"url":"http://farm3.staticflickr.com/2529/4046229142_fb58a48a52.jpg","path":"d32/2b9/d322b98baadc065f29b411c175876d8.jpg","date":"2009-10-03","year":2009,"month":10,"lon":80.39795,"lat":8.336517,"tags":"glass,landscape,sri+lanka","S2CellId":"3afc000000000000","result":2528,"accuracy":0.018756315,"title":"DSCN6262"}
{"id":8518786382,"url":"http://farm9.staticflickr.com/8372/8518786382_a1e550b6fd.jpg","path":"f7c/9a5/f7c9a5bfafb49590ae1f70994093763f.jpg","date":"2013-02-23","year":2013,"month":2,"lon":79.848976,"lat":6.934606,"tags":"ceylon,colombo,sri+lanka","S2CellId":"12a4a3c000000000","result":746,"accuracy":0.4464141,"title":"Colombo+-+Galle+Face+Green","description":"Sri+Lanka+-+Colombo+2013"}
{"id":578926417,"url":"http://farm2.staticflickr.com/1226/578926417_72f0512584.jpg","path":"50d/e17/50de17a7479ed24482fca52dbcfbb51.jpg","date":"2007-03-17","year":2007,"month":3,"lon":80.630035,"lat":7.291638,"tags":"statues,travel","S2CellId":"3bab000000000000","result":2541,"accuracy":0.03328053,"title":"Kandyan+Dancer","description":"Galadeniya+temple%2C+near+Kandy%2C+Sri+Lanka"}
{"id":4808445898,"url":"http://farm5.staticflickr.com/4073/4808445898_5658ced957.jpg","path":"5d6/52f/5d652fffb8e4ce06e589184b17d82dd.jpg","date":"2009-12-26","year":2009,"month":12,"lon":80.19487,"lat":6.043943,"tags":"aditya,beach,boutique,galle,holiday,hotel,luxury,resort,sri+lanka","S2CellId":"2dd2470000000000","result":1549,"accuracy":0.074098505,"title":"Aditya+Hotel+17"}
{"id":8600985660,"url":"http://farm9.staticflickr.com/8092/8600985660_ec8116c6c2.jpg","path":"7ae/2d2/7ae2d2fadb331720755e91e33ffcd576.jpg","date":"2013-03-27","year":2013,"month":3,"lon":80.61572,"lat":6.465025,"tags":"sabaragamuwa,sri+lanka","S2CellId":"6979000000000000","result":6582,"accuracy":0.059802864,"title":"Galdola+Falls","description":"last+portion+of+the+falls+seen+on+the+bridge+across+the+falls%0A%0Asee+%3Ca+href%3D%22http%3A%2F%2Famazinglanka.com%2Fwaterfalls%2Fgaldola%2Fgaldola.php%22+rel%3D%22nofollow%22%3Eamazinglanka.com%2Fwaterfalls%2Fgaldola%2Fgaldola.php%3C%2Fa%3E"}
{"id":5803550780,"url":"http://farm6.staticflickr.com/5142/5803550780_8eaba80d5f.jpg","path":"a15/255/a15255588f0fad423d6111c1c8d48b1.jpg","date":"2011-06-04","year":2011,"month":6,"lon":80.63587,"lat":7.293171,"tags":"asia,kandy,sri+lanka","S2CellId":"8835c00000000000","result":8318,"accuracy":0.012373576,"title":"At+Your+Service"}
{"id":6407482067,"url":"http://farm8.staticflickr.com/7147/6407482067_7a55c5419a.jpg","path":"6ce/951/6ce9514354fad6f46121252888dc32.jpg","date":"2011-10-15","year":2011,"month":10,"lon":80.59656,"lat":7.272142,"tags":"botanical+garden,sri+lanka","S2CellId":"94ce59f000000000","result":9723,"accuracy":0.040566403}
{"id":8517867597,"url":"http://farm9.staticflickr.com/8236/8517867597_4fe22b5bb3.jpg","path":"6a2/77e/6a277e3991d84f6bdfe084242c69f0a9.jpg","date":"2013-02-17","year":2013,"month":2,"lon":80.76526,"lat":6.971923,"tags":"ceylon,little+england,nuwara+eliya,sri+lanka","S2CellId":"0d24c00000000000","result":270,"accuracy":0.46033522,"title":"Sri+Lanka+-+Nuwara+Eliya","description":"Sri+Lanka+-+Nuwara+Eliya+2013"}
{"id":5497456252,"url":"http://farm6.staticflickr.com/5014/5497456252_fbd01f2cf0.jpg","path":"901/eb9/901eb952b0ef724932c1ccd89f218a59.jpg","date":"2011-03-05","year":2011,"month":3,"lon":80.59564,"lat":7.270751,"tags":"instagram+app,iphoneography,peradeniya,square,square+format,sri+lanka","S2CellId":"89c2f34000000000","result":9103,"accuracy":0.01009527,"title":"Budding+candy.","description":"at+Peradeniya+Botanical+Gardens"}
{"id":4964229862,"url":"http://farm5.staticflickr.com/4105/4964229862_8413eb9955.jpg","path":"d2a/899/d2a899669ddcc5439d876bbb18e81c27.jpg","date":"2010-08-06","year":2010,"month":8,"lon":80.6405,"lat":7.285849,"tags":"kandy+restaurant,sri+lanka","S2CellId":"60188c3000000000","result":6489,"accuracy":0.064448774,"title":"SriLanka_10_Kandy_Restaurant_View_Monkeys_2010_023"}
{"id":8515970936,"url":"http://farm9.staticflickr.com/8366/8515970936_8cf9b676cd.jpg","path":"87c/37f/87c37f78a21763ef36ced1e4f9d7f9.jpg","date":"2013-02-15","year":2013,"month":2,"lon":80.68801,"lat":6.719037,"tags":"asian+elephants,ceylon,orphanage,pinnawala+elephant+orphanage,sri+lanka","S2CellId":"3ae3400000000000","result":2524,"accuracy":0.103690006,"title":"Pinnawala+Elephant+Orphanage","description":"Sri+Lanka+-+Pinnewala+Elephant+Orphanage+2013"}
{"id":7010521195,"url":"http://farm8.staticflickr.com/7243/7010521195_9336c0a43b.jpg","path":"edb/ece/edbece9f64b7161c6634f53991ad9bfe.jpg","date":"2012-03-17","year":2012,"month":3,"lon":80.758194,"lat":7.956369,"tags":"sigiriya,sri+lanka","S2CellId":"2cb0000000000000","result":1530,"accuracy":0.037031606,"title":"Sigiri+Garden","description":"The+Gardens+of+Sigiriya+seen+from+the+Bolder+Garden+area%0A%0A%3Ca+href%3D%22http%3A%2F%2Fwww.amazinglanka.com%2Fheritage%2Fsigiriya%2Fsigiriya.php%22+rel%3D%22nofollow%22%3Ewww.amazinglanka.com+-+Sigiriya%3C%2Fa%3E"}
{"id":2684050093,"url":"http://farm4.staticflickr.com/3141/2684050093_2e1dae937b.jpg","path":"da6/9a3/da69a370ee84da3cce2ba6da4d1d976c.jpg","date":"2007-07-27","year":2007,"month":7,"lon":79.87198,"lat":6.849651,"tags":"animal,colombo,dehiwala+zoo,park,sri+lanka,zoo+dehiwala+zoo","S2CellId":"94ce59f000000000","result":9723,"accuracy":0.0037073907,"title":"DSC00028","description":"Dehiwala+Zoo"}
{"id":4979124843,"url":"http://farm5.staticflickr.com/4104/4979124843_51c249d79e.jpg","path":"dcf/3a8/dcf3a8f54d52c07f6f10c87a79a9d38.jpg","date":"2010-01-22","year":2010,"month":1,"lon":79.96811,"lat":6.854508,"tags":"butterfly,close+up,nature,nigger,sri+lanka,wildlife","S2CellId":"4cc91d0000000000","result":5899,"accuracy":0.029268635,"title":"Nigger"}
{"id":6872244428,"url":"http://farm8.staticflickr.com/7137/6872244428_b2aa939699.jpg","path":"269/056/2690567850eb7325ada429594d44708c.jpg","date":"2012-03-25","year":2012,"month":3,"lon":79.947296,"lat":6.887401,"tags":"gaurika,gaurikaw,talangama+wetlands","S2CellId":"12a49d0000000000","result":704,"accuracy":0.08759593,"title":"Purple+Swamphen+%28Porphyrio+porphyrio%29+%40+Talangama+Wetlands"}
{"id":6872233316,"url":"http://farm8.staticflickr.com/7099/6872233316_f893f4555a.jpg","path":"bab/a11/baba1119e0c67399e2eda063b4ba68e2.jpg","date":"2012-03-25","year":2012,"month":3,"lon":79.947296,"lat":6.887401,"tags":"gaurika,gaurikaw,talangama+wetlands","S2CellId":"12a49d0000000000","result":704,"accuracy":0.030601798,"title":"Indian+Pond+Heron+%40+Talangama+Wetlands"}
{"id":4963632711,"url":"http://farm5.staticflickr.com/4083/4963632711_13ec01deed.jpg","path":"3ae/dbb/3aedbba4165872cdd62babe1db44f4cf.jpg","date":"2010-08-06","year":2010,"month":8,"lon":80.6405,"lat":7.285849,"tags":"kandy+restaurant,sri+lanka","S2CellId":"8620a4c000000000","result":7506,"accuracy":0.03417245,"title":"SriLanka_10_Kandy_Restaurant_View_Monkeys_2010_043"}
{"id":8538436351,"url":"http://farm9.staticflickr.com/8239/8538436351_1f685cab32.jpg","path":"96c/6b1/96c6b15fcaabae9eb076478cd86682.jpg","date":"2013-02-26","year":2013,"month":2,"lon":80.05351,"lat":6.28578,"tags":"asie,madhu,river,rivi%C3%A8re,sri+lanka,sri+lanka+-+f%C3%A9vrier+2013,val%C3%A9rie+hukalo,varan","S2CellId":"8f4fc00000000000","result":9526,"accuracy":0.07361178,"title":"Sri+Lanka+-+F%C3%A9vrier+2013+-+Madhu+river","description":"La+rivi%C3%A8re+Madhu+abrite+une+faune+sauvage+riche+et+aussi+de+nombreuses+habitations%2C+cach%C3%A9es+dans+son+%C3%A9paisse+v%C3%A9g%C3%A9tation%2C+ici+un+grand+varan+d%27eau."}
{"id":4586532381,"url":"http://farm5.staticflickr.com/4071/4586532381_169138c7bc.jpg","path":"b04/7a2/b047a27ca034a43cd184311ed2cfc1d.jpg","date":"2010-04-18","year":2010,"month":4,"lon":80.88846,"lat":6.43834,"tags":"animal,cervus+axis,deer,game+drive,holiday,national+park,spotted+deer,sri+lanka,udawalawe,udawalawe+national+park","S2CellId":"1833000000000000","result":1424,"accuracy":0.030537453,"title":"Spotted+Deer","description":"Morning+Game+Drive+at+%3Ca+href%3D%22http%3A%2F%2Fen.wikipedia.org%2Fwiki%2FUdawalawe_National_Park%22+rel%3D%22nofollow%22%3EUdawalawe+National+Park%3C%2Fa%3E"}
{"id":5413464934,"url":"http://farm6.staticflickr.com/5137/5413464934_25207379fe.jpg","path":"7d6/3b2/7d63b2eef2404b64d662828f2a351bba.jpg","date":"2010-09-23","year":2010,"month":9,"lon":80.81818,"lat":6.84326,"tags":"%E0%B6%8C%E0%B7%80,%E0%B6%B6%E0%B6%AF%E0%B7%94%E0%B6%BD%E0%B7%8A%E0%B6%BD,%E0%B6%B6%E0%B7%9D%E0%B6%9C%E0%B7%84%E0%B6%9A%E0%B7%94%E0%B6%B9%E0%B7%94%E0%B6%BB,%E0%B7%81%E0%B7%8A%E2%80%8D%E0%B6%BB%E0%B7%93+%E0%B6%BD%E0%B6%82%E0%B6%9A%E0%B7%8F%E0%B7%80,%E0%B7%84%E0%B6%BB%E0%B7%9A%E0%B7%82%E0%B7%8A+%E0%B6%91%E0%B6%BB%E0%B6%82%E0%B6%9C,badulla,bogahakumbura,haresh+eranga,sri+lanka,uva","S2CellId":"3b07000000000000","result":2532,"accuracy":0.06251485,"title":"Bogahakumbura+2010-09-22%2C23+-+%5Bwww.hartstuff.com%5D+-+DSC02549","description":"Badulla+-+Welimada"}
{"id":6917717416,"url":"http://farm8.staticflickr.com/7074/6917717416_a435bae943.jpg","path":"fa6/dd5/fa6dd5ffdd7ab3b48f8b22af757cd75.jpg","date":"2012-02-09","year":2012,"month":2,"lon":80.758156,"lat":7.957258,"tags":"%E0%B7%83%E0%B7%93%E0%B6%9C%E0%B7%92%E0%B6%BB%E0%B7%92%E0%B6%BA%29+sri+lanka,heritage,http%3A%2F%2Fmalbuk.tumblr.com%2F,sigiriya+%28lion%27s+rock,site,unesco,world","S2CellId":"3afc000000000000","result":2528,"accuracy":0.6304306,"title":"View+from+the+top+of+Sigiriya+%28Lion%27s+rock%2C+%E0%B7%83%E0%B7%93%E0%B6%9C%E0%B7%92%E0%B6%BB%E0%B7%92%E0%B6%BA%29+Sri+Lanka","description":"Sigiriya+%28Lion%27s+rock%2C+%E0%B7%83%E0%B7%93%E0%B6%9C%E0%B7%92%E0%B6%BB%E0%B7%92%E0%B6%BA%29+is+a+large+stone+and+ancient+rock+fortress+and+palace+ruin+in+central+Sri+Lanka%0AUNESCO+World+Heritage+Site"}
{"id":3014690213,"url":"http://farm4.staticflickr.com/3068/3014690213_08bb813cd6.jpg","path":"731/5f6/7315f6743c9f2a79e2376b198c62af.jpg","date":"2008-11-05","year":2008,"month":11,"lon":80.11265,"lat":6.124766,"tags":"beach,blue,hikkaduwa,lanka,sea,sky,sri,sunset,surf","S2CellId":"0d51700000000000","result":440,"accuracy":0.03720356,"title":"What+a+Life.."}
{"id":5189702434,"url":"http://farm5.staticflickr.com/4131/5189702434_eaa55a8edf.jpg","path":"bb5/26d/bb526df258673de66afaae5e516dece4.jpg","date":"2010-11-18","year":2010,"month":11,"lon":79.85514,"lat":6.901211,"tags":"bibble5,colombo,markus+spring,springm,sri+lanka,western+province","S2CellId":"8819ad0000000000","result":8204,"accuracy":0.013365394,"title":"Rover","description":"Duplication+Road%2C+Colombo"}
{"id":6124071013,"url":"http://farm7.staticflickr.com/6086/6124071013_6e3bd2af47.jpg","path":"fe5/088/fe5088e44eecb2c2d3b848b5489ee525.jpg","date":"2011-09-07","year":2011,"month":9,"lon":79.8833,"lat":6.8667,"tags":"bird,birds,lanka,nest,old,sri","S2CellId":"1458300000000000","result":1202,"accuracy":0.016679658,"title":"Old+Nest","description":"%3Ca+href%3D%22http%3A%2F%2Fkesara.lk%2F%22+rel%3D%22nofollow%22%3Ekesara.lk%3C%2Fa%3E"}
{"id":6829907740,"url":"http://farm8.staticflickr.com/7047/6829907740_ed41dc005a.jpg","path":"ee5/efd/ee5efd8fca1a6674c7267927501cab3b.jpg","date":"2012-02-11","year":2012,"month":2,"lon":80.215096,"lat":6.03018,"tags":"%E5%9F%8E%E5%A0%A1,%E6%96%AF%E9%87%8C%E5%85%B0%E5%8D%A1,%E9%94%A1%E5%85%B0,%E9%AB%98%E5%8B%92,ceylon,fort,galle,sri+lanka","S2CellId":"3b05000000000000","result":2531,"accuracy":0.084546685,"title":"%E5%8F%A4%E5%A0%A1+Fort","description":"%E6%96%AF%E9%87%8C%E5%85%B0%E5%8D%A1+%E9%AB%98%E5%8B%92%0AGalle+Fort%2C+Sri+Lanka"}
{"id":8019017139,"url":"http://farm9.staticflickr.com/8439/8019017139_5a15c32155.jpg","path":"985/75c/98575cef527200e974080ad14917.jpg","date":"2012-09-23","year":2012,"month":9,"lon":79.87228,"lat":6.940006,"tags":"%23engvsind,colombo,cricket,england,icc,india,rps,srilanka,t20,worldcup,wt20","S2CellId":"3442a87000000000","result":2035,"accuracy":0.0657513,"title":"Graeme+Swann+bowling"}
{"id":13556026194,"url":"http://farm8.staticflickr.com/7317/13556026194_25d54488cc.jpg","path":"3ae/f74/3aef74d8a6c4f67e922dc4efa6c1c6b.jpg","date":"2014-04-01","year":2014,"month":4,"lon":80.2184,"lat":6.025879,"tags":"instagram+app,iphoneography,square,square+format","S2CellId":"8f75000000000000","result":9551,"accuracy":0.02046761,"title":"The+colonial+charm+of+Galle%27s+houses+is+not+a+secret+anymore+%23interior+%23deco+%23colonial+%23galle+%23architecture+%23door+%23arch+%23srilanka"}
{"id":1742809705,"url":"http://farm3.staticflickr.com/2074/1742809705_1c6ec03f87.jpg","path":"b07/bcf/b07bcf6fa1b7b27c12cb5aa0fd76fb.jpg","date":"2007-10-25","year":2007,"month":10,"lon":80.844955,"lat":6.775761,"tags":"children,handicapped,hill+country","S2CellId":"1930000000000000","result":1434,"accuracy":0.016777202,"title":"Erosha_20thOctober2007"}
{"id":2818817892,"url":"http://farm4.staticflickr.com/3216/2818817892_10d2346f15.jpg","path":"491/d76/491d76f1f2b18f4a2ff7f4ca1dc28.jpg","date":"2008-08-16","year":2008,"month":8,"lon":79.899445,"lat":6.794512,"tags":"aiesec,induction,recruitment","S2CellId":"935a3b4000000000","result":9656,"accuracy":0.022098128,"title":"IMG_0157"}
{"id":5060440044,"url":"http://farm5.staticflickr.com/4109/5060440044_a10a175513.jpg","path":"def/f98/deff98555d61e8d77d92ae9294b9235b.jpg","date":"2010-09-05","year":2010,"month":9,"lon":80.457,"lat":6.896661,"tags":"kitulgala,sri+lanka","S2CellId":"5490d00000000000","result":6226,"accuracy":0.020209735,"title":"IMG_0171"}
{"id":9004908763,"url":"http://farm3.staticflickr.com/2884/9004908763_848b2b8c0a.jpg","path":"bd3/823/bd3823cabe1842444e22280265c9066.jpg","date":"2012-03-25","year":2012,"month":3,"lon":80.216225,"lat":6.03163,"tags":"alistair,colombo,cook,cricket,england,english,galle,net,srilanka,test","S2CellId":"8869100000000000","result":8475,"accuracy":0.09571236,"title":"Alistair+Cook"}
{"id":4332270084,"url":"http://farm5.staticflickr.com/4008/4332270084_128688f034.jpg","path":"5b5/c79/5b5c79b7127dcfadc3fee658dbecc4.jpg","date":"2010-01-31","year":2010,"month":1,"lon":80.21787,"lat":6.030201,"tags":"clif,fort,galle,sri+lanka","S2CellId":"0d51700000000000","result":440,"accuracy":0.23146382,"title":"Clif+Jumpers"}
{"id":4964407824,"url":"http://farm5.staticflickr.com/4126/4964407824_59b51e34e3.jpg","path":"906/7c9/9067c9d63e85a656f66c066fcd3353f.jpg","date":"2010-08-09","year":2010,"month":8,"lon":80.06115,"lat":6.299004,"tags":"boat+trip,sri+lanka","S2CellId":"0704000000000000","result":74,"accuracy":0.053678375,"title":"SriLanka_14_BoatTrip_2010_196"}
{"id":5281045289,"url":"http://farm6.staticflickr.com/5122/5281045289_39aa7145ca.jpg","path":"a8a/dda/a8adda953b5210a5c842787feefb38.jpg","date":"2010-12-11","year":2010,"month":12,"lon":80.19418,"lat":6.044284,"tags":"galle,sri+lanka","S2CellId":"3b05000000000000","result":2531,"accuracy":0.16307856,"title":"DSC_5328"}
{"id":7831362798,"url":"http://farm9.staticflickr.com/8285/7831362798_f46a59cde0.jpg","path":"dc1/264/dc1264db1621271cf5d384f793af6b.jpg","date":"2012-08-21","year":2012,"month":8,"lon":80.90108,"lat":8.038589,"tags":"hefe,instagram+app,iphoneography,square,square+format","S2CellId":"3afc000000000000","result":2528,"accuracy":0.3083803,"title":"Minneriya+National+Park+%23SriLanka"}
{"id":8332198048,"url":"http://farm9.staticflickr.com/8082/8332198048_c82086f783.jpg","path":"2ef/086/2ef086b0291ca59c4c5de4091a59222.jpg","date":"2011-02-05","year":2011,"month":2,"lon":80.21118,"lat":6.036773,"tags":"2011,carlzeiss%E5%8D%A1%E5%B0%94%E8%94%A1%E5%8F%B821mmf2.8zm,galle%E5%8A%A0%E5%8B%92,nex5,sony%E7%B4%A2%E5%B0%BC,srilanka%E6%96%AF%E9%87%8C%E5%85%B0%E5%8D%A1","S2CellId":"0fc0000000000000","result":643,"accuracy":0.07290088,"title":"DSC02706","description":"SONY+DSC"}
{"id":421103254,"url":"http://farm1.staticflickr.com/155/421103254_4a753ba233.jpg","path":"214/dcf/214dcf9a8bd9ebd7dccb8b2064fd9.jpg","date":"2006-12-30","year":2006,"month":12,"lon":80.64514,"lat":7.509534,"tags":"wasgamuwa","S2CellId":"3b07000000000000","result":2532,"accuracy":0.039415967,"title":"Lake","description":"This+is+near+the+Willys+Safari+Hotel+in+Wasgamuwa+-Sri+Lanka"}
{"id":2180639403,"url":"http://farm3.staticflickr.com/2085/2180639403_75a038e2f1.jpg","path":"683/d49/683d4918379dbcdb7079a847a1f0a814.jpg","date":"2008-01-08","year":2008,"month":1,"lon":80.24963,"lat":6.012361,"tags":"beer,chicken,drink,food,galle,lanka,prawns,squid,srilanka,unawatuna,vodka","S2CellId":"88f5010000000000","result":8705,"accuracy":0.005672235,"title":"vodka+%2B+lime+%2B+sugar+%2B+sprite","description":"visit+%3Ca+href%3D%22http%3A%2F%2Fwww.kanabona.com%2Fwww%2F%3Fq%3Dpics_food_at_unawatuna%22+rel%3D%22nofollow%22%3Ewww.kanabona.com%2Fwww%2F%3Fq%3Dpics_food_at_unawatuna%3C%2Fa%3E"}
{"id":7704889272,"url":"http://farm8.staticflickr.com/7117/7704889272_44fee0bb8a.jpg","path":"136/b8d/136b8d63e65d6b2ae338b36181c1ddb.jpg","date":"2011-12-30","year":2011,"month":12,"lon":80.641365,"lat":7.293724,"tags":"candid,city,men,people,srilanka,travel,women","S2CellId":"94cc400000000000","result":9693,"accuracy":0.010628776}
{"id":4963631771,"url":"http://farm5.staticflickr.com/4105/4963631771_f760baefdf.jpg","path":"152/403/152403c2d5ffcdc8ee4927c824f3c3.jpg","date":"2010-08-06","year":2010,"month":8,"lon":80.6405,"lat":7.285849,"tags":"kandy+restaurant,sri+lanka","S2CellId":"88d0a631cabb5071","result":8563,"accuracy":0.21616006,"title":"SriLanka_10_Kandy_Restaurant_View_Monkeys_2010_038"}
{"id":5281803996,"url":"http://farm6.staticflickr.com/5250/5281803996_9127edf51a.jpg","path":"dff/797/dff7971f556ba4dd9df3c216d0e1e.jpg","date":"2010-12-17","year":2010,"month":12,"lon":80.24671,"lat":6.013044,"tags":"galle,sri+lanka,unawatuna","S2CellId":"185c000000000000","result":1431,"accuracy":0.05156042,"title":"DSC_6873"}
{"id":2571505552,"url":"http://farm4.staticflickr.com/3042/2571505552_416e395170.jpg","path":"eed/4bd/eed4bd36a1b85dae2d585bf729e194ef.jpg","date":"2007-10-11","year":2007,"month":10,"lon":80.37563,"lat":7.273589,"tags":"back,elefant,elefante,elephant,fango,insetti,it.hobby.viaggi,lanka,motumboe,mud,pinnawala,pinnawela,sabbia,sabbiose,schiena,schiene,sri,sri+lanka,terra","S2CellId":"487addc000000000","result":5535,"accuracy":0.04507229,"title":"a+schiena+di+elefante","description":"forse+ci+voleva+un%27inquadratura+pi%C3%B9+ampia+ma+questo+scatto+mi+piace+parecchio.%0A%0APinnawela"}
{"id":6485058981,"url":"http://farm8.staticflickr.com/7002/6485058981_78db5d6b8c.jpg","path":"214/7fe/2147fe8f2e8f8072e3d22f7ca3a6464f.jpg","date":"2011-12-08","year":2011,"month":12,"lon":79.8864,"lat":8.947479,"tags":"idp,mannar,ngo,oferr+%28ceylon%29,palmera+projects,refugee,social+business,sri+lanka,volunteer,volunteering","S2CellId":"12b6100000000000","result":813,"accuracy":0.0727361,"title":"The+septic+tank"}
{"id":3192132048,"url":"http://farm4.staticflickr.com/3335/3192132048_0b118c5908.jpg","path":"fb4/883/fb488350f9e5c6d9d371cba559a6ab95.jpg","date":"2008-11-10","year":2008,"month":11,"lon":80.567894,"lat":7.152248,"tags":"dirodi,ipocrita,mussulmana,natale,natale+dirodi,ritratti,sorriso,sri+lanka,travel,viaggio","S2CellId":"3bab000000000000","result":2541,"accuracy":0.25631925,"title":"Gli+occhi+di+una+Tigre%21","description":"Sri+Lanka%0AGive+me+the+money...%21%22++%26...quot%3B+che+qui+i+soldi+li+debbo+gestire+io...%21%22%0A%0ACanon+Eos+400D%0Asigma+18-200"}
{"id":10961913946,"url":"http://farm3.staticflickr.com/2843/10961913946_b3b648c95f.jpg","path":"f0a/d14/f0ad1422409d6393152f68b26620b6.jpg","date":"2013-04-25","year":2013,"month":4,"lon":80.743095,"lat":7.533169,"tags":"asia,caelifera,ceylon,cloudforest,fauna,grasshoppers,insects,jungle,knuckles+mountain+range,macro,nature,orthoptera,south+asia,sri+lanka,travel,tropics","S2CellId":"8e2c000000000000","result":9444,"accuracy":0.011248214,"title":"Knuckles+Range+-+Unidentified+Grasshopper","description":"Couldn%27t+go+on+without+capturing+this+beautiful+guy...%0AStill+trying+to+find+out+his+species.+Any+help+to+ID+this+one+would+be+strongly+appreciated.%0A%3Ca+href%3D%22http%3A%2F%2Fen.wikipedia.org%2Fwiki%2FKnuckles_Mountain_Range%22+rel%3D%22nofollow%22%3E%28Knuckles+Mountain+Range%29%3C%2Fa%3E+%3Ca+href%3D%22http%3A%2F%2Fwww.srilankaecotourism.com%2Fknuckles_mountain_range.htm%22+rel%3D%22nofollow%22%3E%28Eco+Tourism%29%3C%2Fa%3E++%3Ca+href%3D%22http%3A%2F%2Fen.wikipedia.org%2Fwiki%2FSri_Lanka%22+rel%3D%22nofollow%22%3E%28Sri+Lanka%29%3C%2Fa%3E%0A%3Ca+href%3D%22http%3A%2F%2Fwww.cameralenscompare.com%2Fbadge2.aspx%22+rel%3D%22nofollow%22%3E%E2%98%BC%0A%3C%2Fa%3E"}
{"id":6023690425,"url":"http://farm7.staticflickr.com/6192/6023690425_a795baa5de.jpg","path":"725/6f5/7256f50268d2472bf9811ef22944d7d.jpg","date":"2011-08-06","year":2011,"month":8,"lon":80.723145,"lat":7.274781,"tags":"2011,australia,cricket,pallekele,sports,sri+lanka,t20,t20i","S2CellId":"5f0b2c0000000000","result":6349,"accuracy":0.06968784,"title":"Sri+Lankan+Croud","description":"%3Ca+href%3D%22http%3A%2F%2Fkesara.lk%22+rel%3D%22nofollow%22%3Ekesara.lk%3C%2Fa%3E"}
{"id":3987547311,"url":"http://farm4.staticflickr.com/3528/3987547311_73288a3c3c.jpg","path":"c62/2f1/c622f119a345894e5ea7e5ab71222c4.jpg","date":"2004-11-06","year":2004,"month":11,"lon":80.80067,"lat":6.039248,"tags":"ballgame,bat,beach+cricket,beach+game,bowl,bowler,cricket,fun,hit,play,sea,sport,sri+lanka,stroke,stumps,swing,tangalle,water,wickets","S2CellId":"3ae1000000000000","result":2521,"accuracy":0.21461861,"title":"Beach+Cricket+Tangalle","description":"Playing+Cricket%2C+Tangalle%2C+Sri+Lanka+%C2%A9+Jason+Jones"}
{"id":4045484727,"url":"http://farm3.staticflickr.com/2570/4045484727_8b32d3e37b.jpg","path":"37e/c1b/37ec1b73d27f5786f47fcdc59df1e.jpg","date":"2009-10-03","year":2009,"month":10,"lon":80.39795,"lat":8.336517,"tags":"lake,landscape,sri+lanka","S2CellId":"88fe7b0000000000","result":8762,"accuracy":0.19299038,"title":"DSCN6264"}
{"id":4296821877,"url":"http://farm3.staticflickr.com/2686/4296821877_d1e3f759e7.jpg","path":"614/41c/61441c7bf48e7e821c44c26e7b89c5f9.jpg","date":"2009-12-13","year":2009,"month":12,"lon":79.85666,"lat":6.91716,"tags":"buda,buddha,colombo,sri+lanka","S2CellId":"4772400000000000","result":3388,"accuracy":0.010658614,"title":"Food+for+thought"}
{"id":2684413331,"url":"http://farm4.staticflickr.com/3295/2684413331_d22bd40680.jpg","path":"40e/040/40e0407e8b91faf46d92b572f64720.jpg","date":"2007-07-27","year":2007,"month":7,"lon":79.87198,"lat":6.849651,"tags":"animal,colombo,dehiwala+zoo,park,sri+lanka,zoo+dehiwala+zoo","S2CellId":"a9d5c00000000000","result":9945,"accuracy":0.026808007,"title":"DSC00080","description":"Dehiwala+Zoo"}
{"id":5283596906,"url":"http://farm6.staticflickr.com/5010/5283596906_ddd4e39a55.jpg","path":"a15/f7c/a15f7c10b8f0b1c097211e84e1cbbf9.jpg","date":"2010-12-19","year":2010,"month":12,"lon":80.39606,"lat":8.347133,"tags":"anuradhapura,gaurika","S2CellId":"2dd23d0000000000","result":1544,"accuracy":0.2643009,"title":"Little+one"}
{"id":8517612245,"url":"http://farm9.staticflickr.com/8111/8517612245_e3e69a8541.jpg","path":"931/399/931399e177a16af5dcb3ed28db6895a5.jpg","date":"2013-02-21","year":2013,"month":2,"lon":80.100075,"lat":6.131295,"tags":"beach,blue,ceylon,hikkaduwa,sri+lanka","S2CellId":"0730000000000000","result":95,"accuracy":0.16201034,"title":"Sri+Lanka+-+Hikkaduwa+Beach","description":"Sri+Lanka+-+Hikkaduwa+Beach+2013"}
{"id":5695487177,"url":"http://farm3.staticflickr.com/2620/5695487177_23c653dede.jpg","path":"9a7/efa/9a7efa103fde3569995c55d492e3a4f5.jpg","date":"2011-04-29","year":2011,"month":4,"lon":80.6372,"lat":7.2842,"tags":"%E4%BD%9B%E5%A1%94,%E4%BD%9B%E7%89%99%E5%AF%BA,%E5%AF%BA%E5%BA%99,%E5%BA%B7%E5%A0%A4,%E6%AE%96%E6%B0%91%E8%80%85,%E6%B9%96,kandy,temple,tower","S2CellId":"3ae3400000000000","result":2524,"accuracy":0.378376,"title":"The+hill+Capital+Of+Sri+Lanka","description":"This+retains+the+colonial+rule+of+building%2C++Very+famous+temples+and+many+old-fashioned+hotel."}
{"id":5373284048,"url":"http://farm6.staticflickr.com/5130/5373284048_d38cc25ddc.jpg","path":"ee2/53a/ee253a250abe0fe3118c62cd79fac9.jpg","date":"2011-01-17","year":2011,"month":1,"lon":80.3637,"lat":7.4896,"tags":"birds,halcyon+smyrnensis,white-throated+kingfisher,wildlife","S2CellId":"94bd000000000000","result":9682,"accuracy":0.018507166,"title":"White-throated+Kingfisher+%28Halcyon+smyrnensis%29","description":"%3Ca+href%3D%22http%3A%2F%2Fsrilankawilderness.blogspot.com%2F%22+rel%3D%22nofollow%22%3Esrilankawilderness.blogspot.com%2F%3C%2Fa%3E"}
{"id":7121070297,"url":"http://farm8.staticflickr.com/7120/7121070297_3cf9c44594.jpg","path":"aec/a25/aeca2524998af8b197ea1d3e89869dc.jpg","date":"2010-12-28","year":2010,"month":12,"lon":80.598656,"lat":6.844066,"tags":"central+province,hasselblad,sri+lanka,tea+factory,tea+trails","S2CellId":"5ff8400000000000","result":6373,"accuracy":0.046319097,"title":"Tea+Factory"}
{"id":5404109361,"url":"http://farm6.staticflickr.com/5295/5404109361_25dc5546fa.jpg","path":"027/3f4/0273f42cb2a6ac15a961def819ae353.jpg","date":"2011-01-24","year":2011,"month":1,"lon":80.63329,"lat":7.296661,"tags":"asia,ceylon,going+abroad,going+away,holiday,holidays,kandy,railway+line,railway+station,railway+stop,sri+lanka,train+stop,trains","S2CellId":"2dd23d0000000000","result":1544,"accuracy":0.024640331,"title":"Right+around+the+corner"}
{"id":473670890,"url":"http://farm1.staticflickr.com/200/473670890_c1e2186f63.jpg","path":"627/79c/62779cfc42adac7afb7d394a9e1d80.jpg","date":"2007-04-25","year":2007,"month":4,"lon":79.85601,"lat":6.931709,"tags":"ceylon,colombo,engineers,entrance,institution,simple","S2CellId":"7100000000000000","result":6857,"accuracy":0.047059137,"title":"The+Institution+of+Engineers"}
{"id":5582357163,"url":"http://farm6.staticflickr.com/5292/5582357163_bb2c0e861a.jpg","path":"bfb/db8/bfbdb85ed525e81f8627c32d30b889.jpg","date":"2011-03-14","year":2011,"month":3,"lon":80.4997,"lat":6.81139,"tags":"adam%27s+peak,mountain,sri+lanka,sri+pada","S2CellId":"323b000000000000","result":1891,"accuracy":0.45329243,"description":"View+from+the+summit+of+Adam%27s+Peak"}
{"id":4599314342,"url":"http://farm4.staticflickr.com/3389/4599314342_0b3be0c80a.jpg","path":"93e/0a4/93e0a4d67a86e3d3afef1c995574f92c.jpg","date":"2010-05-04","year":2010,"month":5,"lon":80.6405,"lat":7.296321,"tags":"2010,anna+b,elephant,pinnawela,sri+lanka,vacation","S2CellId":"312f000000000000","result":1733,"accuracy":0.012363319,"title":"IMG_3364"}
{"id":8539519292,"url":"http://farm9.staticflickr.com/8521/8539519292_a9fa9533b7.jpg","path":"d58/846/d58846153764759b469e8c287bd089c5.jpg","date":"2013-03-02","year":2013,"month":3,"lon":80.64042,"lat":7.293788,"tags":"asie,bouddhisme,kandy,sri+lanka,sri+lanka+-+f%C3%A9vrier+2013,temple,val%C3%A9rie+hukalo","S2CellId":"30cc000000000000","result":1621,"accuracy":0.041644756,"title":"Kandy+-+Sri+Lanka+-+F%C3%A9vrier+2013","description":"Kandy+attire+de+nombreux+p%C3%A8lerins+bouddhistes+qui+viennent+se+recueillir+devant+la+relique+sacr%C3%A9e+dans+le+temple+de+la+dent.+Devant+le+temple+se+trouve+un+ensemble+plus+modeste+o%C3%B9+les+habitants+viennent+prier+et+faire+des+offrandes."}
{"id":4948840120,"url":"http://farm5.staticflickr.com/4152/4948840120_147013313a.jpg","path":"dcd/a21/dcda21b6e2688853bcb180c1eeeb502f.jpg","date":"2010-02-21","year":2010,"month":2,"lon":80.215645,"lat":6.031993,"tags":"dog,sri_lanka,stairs,steps","S2CellId":"88d1c00000000000","result":8570,"accuracy":0.04412596}
{"id":8927997867,"url":"http://farm3.staticflickr.com/2852/8927997867_3a79f66d88.jpg","path":"84c/d40/84cd40449f7e794c5c6acbfea7fb1c.jpg","date":"2013-03-28","year":2013,"month":3,"lon":80.437836,"lat":7.244166,"tags":"hipstamatic,jane+lens,no+flash,w40+film","S2CellId":"30da3f0000000000","result":1637,"accuracy":0.07657573,"title":"HipstaPrint"}
{"id":4964405320,"url":"http://farm5.staticflickr.com/4087/4964405320_76dd0a4b4c.jpg","path":"e4f/493/e4f493328bb4859a165fe57c2aa1a1e.jpg","date":"2010-08-09","year":2010,"month":8,"lon":80.06115,"lat":6.299004,"tags":"boat+trip,sri+lanka","S2CellId":"478df00000000000","result":3674,"accuracy":0.023388311,"title":"SriLanka_14_BoatTrip_2010_180"}
{"id":7063123769,"url":"http://farm8.staticflickr.com/7265/7063123769_15a5e10342.jpg","path":"de5/145/de5145314def1fc6a5522855efa93c.jpg","date":"2011-02-04","year":2011,"month":2,"lon":80.64874,"lat":7.856526,"tags":"%28%E0%B6%AF%E0%B6%B9%E0%B7%94%E0%B6%BD%E0%B7%94,%E0%B6%BD%E0%B7%99%E0%B6%B1%E0%B7%8A,%E0%B7%80%E0%B7%92%E0%B7%84%E0%B7%8F%E0%B6%BB%E0%B6%BA,cave,dambulla,golden,heritage,http%3A%2F%2Fmalbuk.tumblr.com%2F,known,lanka,site,sri,temple,world","S2CellId":"465f77d000000000","result":2906,"accuracy":0.050583016,"title":"Dambulla+cave+temple+%28%E0%B6%AF%E0%B6%B9%E0%B7%94%E0%B6%BD%E0%B7%94+%E0%B6%BD%E0%B7%99%E0%B6%B1%E0%B7%8A+%E0%B7%80%E0%B7%92%E0%B7%84%E0%B7%8F%E0%B6%BB%E0%B6%BA+%29+Sri+Lanka","description":"Dambulla+cave+temple+%28%E0%B6%AF%E0%B6%B9%E0%B7%94%E0%B6%BD%E0%B7%94+%E0%B6%BD%E0%B7%99%E0%B6%B1%E0%B7%8A+%E0%B7%80%E0%B7%92%E0%B7%84%E0%B7%8F%E0%B6%BB%E0%B6%BA+%29+also+known+as+the+Golden+Temple+of+Dambulla+Sri+Lanka%0AWorld+Heritage+Site"}
{"id":3014270636,"url":"http://farm4.staticflickr.com/3274/3014270636_7346c237cb.jpg","path":"7d2/683/7d2683366d21397dba6b9de81439982.jpg","date":"2007-08-04","year":2007,"month":8,"lon":79.8681,"lat":7.1082,"tags":"aves,birds,capensis,halcyon,halcyon+capensis,muthurajawela,sri+lanka,stork-billed+kingfisher","S2CellId":"88d0a631cabb5071","result":8563,"accuracy":0.022425313,"title":"Halcyon+capensis+%28Stork-billed+Kingfisher%29","description":"Stork-billed+Kingfisher+%28Halcyon+capensis%29+at+Muthurajawela+Reserve%2C+Sri+Lanka.+Photograph+taken+on+4+August+2007"}
{"id":109951569,"url":"http://farm1.staticflickr.com/50/109951569_ada93d804e.jpg","path":"a22/59c/a2259ccde0edd12cf93b1de44de75d1c.jpg","date":"2006-01-09","year":2006,"month":1,"lon":80.625916,"lat":7.295044,"tags":"2006,buddhism,kandy,sri+lanka,temple+of+the+tooth","S2CellId":"1319ec0000000000","result":982,"accuracy":0.13010152,"title":"Inside+the+Temple+of+the+Tooth"}
{"id":115830737,"url":"http://farm1.staticflickr.com/41/115830737_9e4dc8f114.jpg","path":"566/731/5667317b46dad75cc04cb5a055ffdecc.jpg","date":"2006-01-10","year":2006,"month":1,"lon":80.64849,"lat":7.859045,"tags":"2006,buddhism,cave+temple,dambulla,rock+temple,sri+lanka,temple","S2CellId":"9689f00000000000","result":9911,"accuracy":0.09949297,"title":"Inside+Dambulla+Cave+Temple"}
{"id":524530561,"url":"http://farm1.staticflickr.com/198/524530561_7a35c2849e.jpg","path":"ce3/7ca/ce37cae64795da33fa8ad5bff49c93e4.jpg","date":"2004-10-14","year":2004,"month":10,"lon":79.85086,"lat":6.933754,"tags":"eliot,lanka,sri+lanka","S2CellId":"60013c0000000000","result":6413,"accuracy":0.02134532,"title":"DSCN1066"}
{"id":8514853595,"url":"http://farm9.staticflickr.com/8518/8514853595_f9ba23c2b2.jpg","path":"ad4/dfb/ad4dfb78c942ee738a60b2331c2d211.jpg","date":"2013-02-15","year":2013,"month":2,"lon":80.68801,"lat":6.719037,"tags":"asian+elephants,ceylon,orphanage,pinnawala+elephant+orphanage,sri+lanka","S2CellId":"3ae5000000000000","result":2526,"accuracy":0.07832008,"title":"Pinnawala+Elephant+Orphanage","description":"Sri+Lanka+-+Pinnewala+Elephant+Orphanage+2013"}
{"id":6024148156,"url":"http://farm7.staticflickr.com/6206/6024148156_a230727bda.jpg","path":"7fa/8c6/7fa8c6471a75c4a32ad9863902e18a3.jpg","date":"2011-08-06","year":2011,"month":8,"lon":80.723145,"lat":7.274781,"tags":"2011,australia,cricket,pallekele,sports,sri+lanka,t20,t20i","S2CellId":"4707000000000000","result":3128,"accuracy":0.090265505,"title":"Sri+Lankans+Enjoying","description":"%3Ca+href%3D%22http%3A%2F%2Fkesara.lk%22+rel%3D%22nofollow%22%3Ekesara.lk%3C%2Fa%3E"}
{"id":3922255980,"url":"http://farm3.staticflickr.com/2502/3922255980_a2fef6267f.jpg","path":"da5/060/da50603656b2df8d885e69723929dcb2.jpg","date":"2009-09-13","year":2009,"month":9,"lon":80.04776,"lat":6.255578,"tags":"lankabeach,sri","S2CellId":"47edc00000000000","result":4703,"accuracy":0.4766929,"title":"IMG_6718_E_resize"}
{"id":5648556753,"url":"http://farm6.staticflickr.com/5061/5648556753_488a188b6a.jpg","path":"c3e/aa1/c3eaa13f10622a8c3dd5abb63dbe9320.jpg","date":"2011-04-02","year":2011,"month":4,"lon":79.74243,"lat":7.006398,"tags":"colombo,galle+face+green,galle+face+hotel,sri+lanka","S2CellId":"0fc0000000000000","result":643,"accuracy":0.012637785,"title":"K+Chattu+Kuttan%2C+doorman+at+the+Galle+Face+Hotel","description":"K+Chattu+Kuttan%2C+is+91+years+old+and+has+been+a+doorman+at+the+Galle+Face+Hotel+for+more+than+70+years."}
{"id":6479348259,"url":"http://farm8.staticflickr.com/7033/6479348259_cd3f2d4e1c.jpg","path":"c91/6de/c916de99f1c58080df2d4c9863d1d62.jpg","date":"2011-11-12","year":2011,"month":11,"lon":80.953445,"lat":6.427212,"tags":"%E0%B6%85%E0%B6%BD%E0%B7%92%E0%B6%BA%E0%B7%8F,animals%2Fwildlife,bibble5,cab,elephant,nature,people,photography,safari,sri+lanka,sri+lankan+safari,tata,udawalawe,vehicle,wild,wildlife","S2CellId":"1740000000000000","result":1415,"accuracy":0.10738451,"title":"IMG_1133_20111112+%22Come+Little+Closer%22","description":"%3Ca+href%3D%22http%3A%2F%2Fkesara.lk%2F%22+rel%3D%22nofollow%22%3Ekesara.lk%3C%2Fa%3E"}
{"id":6733690383,"url":"http://farm8.staticflickr.com/7159/6733690383_a9007834ec.jpg","path":"8b1/268/8b1268d340163a701815fbe4fef45757.jpg","date":"2012-01-15","year":2012,"month":1,"lon":80.00021,"lat":6.449227,"tags":"%27kande+vihare%27+kande+iharaya%27+aluthgama,%27sri+lanka%27,buddha,kaluwamodara,statue,www.amazinglanka.com","S2CellId":"3afc000000000000","result":2528,"accuracy":0.37606063,"title":"Kande+Vihare","description":"Gigantic+Buddha+Statue+at+Kande+Viharaya%0A%3Ca+href%3D%22http%3A%2F%2Fwww.amazinglanka.com%2Fheritage%2Fkande_vihara%2Fkande_vihara.php%22+rel%3D%22nofollow%22%3Ewww.amazinglanka.com%2F+-+Kande+Viharaya%3C%2Fa%3E"}
{"id":8330535840,"url":"http://farm9.staticflickr.com/8211/8330535840_77af456df2.jpg","path":"dee/fb8/deefb833fbf48ee182e9631acf22ea19.jpg","date":"2012-12-15","year":2012,"month":12,"lon":80.4835,"lat":6.039666,"tags":"ceylan,cobra+royal,province+du+sud,serpent,snake+farm,sri+lanka,srilanka2k12","S2CellId":"1c70000000000000","result":1446,"accuracy":0.0417201,"title":"Gentil+le+cobra+%21"}
{"id":12687730243,"url":"http://farm8.staticflickr.com/7450/12687730243_8900ca812b.jpg","path":"13a/b83/13ab832e3399b6af90774bfa0783723.jpg","date":"2013-08-15","year":2013,"month":8,"lon":80.63966,"lat":7.294946,"tags":"culture,dalada+maligawa,elephant,esala,heritage,kandy,perahera,religion,sri+lanka,temple+of+the+tooth,tradition","S2CellId":"60188c3000000000","result":6489,"accuracy":0.068730906,"title":"IMG_5484b","description":"An+elephant+having+its+feet+washed+and+scrubbed+in+the+grounds+of+the+Dalada+Maligawa+%28Temple+of+the+Tooth%29+prior+to+the+spectacular+Kandy+Esala+Perahera+in+August%2C+2013.++Scores+of+elephants+are+to+be+seen+at+various+locations+around+the+town+of+Kandy+in+the+daytime+during+the+perahera+season."}
{"id":5928620457,"url":"http://farm7.staticflickr.com/6121/5928620457_85ce1d44ba.jpg","path":"c42/b62/c42b629fe9e316afb1f72ebbdda0a272.jpg","date":"2011-07-09","year":2011,"month":7,"lon":79.891716,"lat":6.887486,"tags":"365,365%3A+the+2011,365%3A2011,animal,d90,dog,nikon,peruma,pet,project365,shehan,shehan+peruma","S2CellId":"6b13400000000000","result":6709,"accuracy":0.032185804,"title":"day+190%2F365","description":"taken%3A+2011.07.09"}
{"id":6916769694,"url":"http://farm6.staticflickr.com/5159/6916769694_9f18b81c20.jpg","path":"717/f9d/717f9d1a782c3859a5422ccc4bec6483.jpg","date":"2011-02-01","year":2011,"month":2,"lon":79.85207,"lat":6.918769,"tags":"%5Bbuddhist,colombo,festival%5D,full,http%3A%2F%2Fmalbuk.tumblr.com%2F,lanka,moon,navam,poya,sri","S2CellId":"00997f1000000000","result":15,"accuracy":0.06836346,"title":"Sri+Lanka+Colombo+Navam+Full+Moon+Poya+%5BBuddhist+Festival%5D","description":"Sri+Lanka+Colombo+Navam+Full+Moon+Poya+%5BBuddhist+Festival%5D"}
{"id":286964678,"url":"http://farm1.staticflickr.com/116/286964678_41fd7a50ab.jpg","path":"985/a42/985a42362b9aeff32b9dc83d3aa9d1c.jpg","date":"2004-12-15","year":2004,"month":12,"lon":79.961754,"lat":6.56918,"tags":"sri+lanka","S2CellId":"6f00000000000000","result":6856,"accuracy":0.050055485,"title":"Sri+Lanka+-+164.jpg"}
{"id":4792498734,"url":"http://farm5.staticflickr.com/4077/4792498734_6c2346621e.jpg","path":"ded/6b2/ded6b2479b2fa27487994e8fffcc8eb.jpg","date":"2004-03-13","year":2004,"month":3,"lon":79.85893,"lat":6.928301,"tags":"sri+lanka","S2CellId":"310951c000000000","result":1695,"accuracy":0.10417422,"title":"SriLanka+Trip+Mar+2004-109"}
{"id":5582766184,"url":"http://farm6.staticflickr.com/5099/5582766184_b2d72f01bc.jpg","path":"aca/280/aca28085c0c575592b2bc4abd76112c.jpg","date":"2011-03-04","year":2011,"month":3,"lon":80.64107,"lat":7.293624,"tags":"sacred+tooth,sri+dalada+maligawa,sri+lanka,temple","S2CellId":"3770000000000000","result":2436,"accuracy":0.016070673,"description":"Temple+of+the+Sacred+Tooth%2C+Kandy"}
{"id":8415598085,"url":"http://farm9.staticflickr.com/8095/8415598085_47e2fc2857.jpg","path":"303/4ef/3034efef89ff6b2a5770fdba8c767a38.jpg","date":"2012-08-28","year":2012,"month":8,"lon":80.64559,"lat":7.290266,"tags":"candy,monkeys,sri+lanka","S2CellId":"8620a4c000000000","result":7506,"accuracy":0.037841067,"title":"20120828_Kandy_vicarage_monkeys_015","description":"Candy%2C+Sri+Lanka%0A%0Amonkeys"}
{"id":4427529524,"url":"http://farm5.staticflickr.com/4060/4427529524_f199cc988a.jpg","path":"31a/793/31a793b9e0c3248cfece6d18c5f29562.jpg","date":"2009-12-29","year":2009,"month":12,"lon":80.67612,"lat":7.076874,"tags":"import+tags+sri+lanka,sri+lanka","S2CellId":"89c8037000000000","result":9187,"accuracy":0.014893398,"title":"291220091091.jpg"}
{"id":10642038826,"url":"http://farm6.staticflickr.com/5475/10642038826_f65d304eaa.jpg","path":"584/158/5841584491ff749f3c49eea12242cf6.jpg","date":"2013-02-27","year":2013,"month":2,"lon":80.3972,"lat":8.369093,"tags":"mihintale,monkey,ruins,sri+lanka,temple","S2CellId":"3afc000000000000","result":2528,"accuracy":0.76123273,"title":"mihintale"}
{"id":5359654364,"url":"http://farm6.staticflickr.com/5081/5359654364_c3facfdac5.jpg","path":"498/69a/49869a2a2ce6f6c6345e74e9647ee6.jpg","date":"2011-01-12","year":2011,"month":1,"lon":80.3637,"lat":7.4896,"tags":"arachnids,gasteracantha+geminata,macro,spiders,spiny+orb-weaver+spider,wildlife","S2CellId":"863fc00000000000","result":7540,"accuracy":0.028953532,"title":"%28Gasteracantha+geminata%29+Spiny+orb-weaver","description":"%3Ca+href%3D%22http%3A%2F%2Fsrilankawilderness.blogspot.com%2F%22+rel%3D%22nofollow%22%3Esrilankawilderness.blogspot.com%2F%3C%2Fa%3E"}
{"id":4812144819,"url":"http://farm5.staticflickr.com/4123/4812144819_acb52ab8e7.jpg","path":"45c/6ca/45c6cab48ce47380ed896c81228a91.jpg","date":"2009-12-20","year":2009,"month":12,"lon":80.65613,"lat":7.888888,"tags":"elephant,holiday,indian,kandalama,ride,sri+lanka","S2CellId":"3ae3400000000000","result":2524,"accuracy":0.059282053,"title":"Elephant+Ride+01"}
{"id":5742753843,"url":"http://farm4.staticflickr.com/3456/5742753843_880096c174.jpg","path":"bf9/e72/bf9e72d08531c48f287dc98a74c8ca28.jpg","date":"2011-05-17","year":2011,"month":5,"lon":79.94802,"lat":6.886549,"tags":"birds,close+up,common+kingfisher,kingfisher,lake,sri+lanka,tank,thalangama","S2CellId":"3bbd000000000000","result":2558,"accuracy":0.017607518,"title":"Hunter","description":"%3Ca+href%3D%22http%3A%2F%2Fwww.9thstarimages.com%22+rel%3D%22nofollow%22%3Ewww.9thstarimages.com%3C%2Fa%3E"}
{"id":524504219,"url":"http://farm1.staticflickr.com/243/524504219_8ad8f50ab9.jpg","path":"b98/75c/b9875ce066426bebe510aed2b39885c3.jpg","date":"2004-10-10","year":2004,"month":10,"lon":80.62334,"lat":7.282614,"tags":"elephant,elephants,eliot,lanka,sri+lanka","S2CellId":"3b05000000000000","result":2531,"accuracy":0.07454882,"title":"DSCN1022"}
{"id":5800226520,"url":"http://farm4.staticflickr.com/3153/5800226520_989ff2fd2c.jpg","path":"87e/aa2/87eaa2647f3edbf3934a1f7bee43cdae.jpg","date":"2010-03-18","year":2010,"month":3,"lon":80.4483,"lat":6.421071,"tags":"backpacker,bug,feuille,for%C3%AAt,forest,insecte,leaf,routard,sinharaja,sri+lanka,tetedechat.com,tour+du+monde,travel,trip,voyage","S2CellId":"46b54f0000000000","result":3070,"accuracy":0.026034284,"title":"Bug+of+the+Sinharaja+forest","description":"Insecte+de+la+for%C3%AAt+de+Sinharaja."}
{"id":8216571171,"url":"http://farm9.staticflickr.com/8205/8216571171_5149ac700f.jpg","path":"a22/427/a22427d05ce77fd0db912c83cfb2c0b0.jpg","date":"2012-11-24","year":2012,"month":11,"lon":79.87419,"lat":6.857299,"tags":"animal,cat,colombo,dehiwela,leopard,srilanka,zoo","S2CellId":"48746c0000000000","result":5139,"accuracy":0.023262007,"title":"Leopard"}
{"id":8750871641,"url":"http://farm3.staticflickr.com/2825/8750871641_2205a17343.jpg","path":"ed8/e01/ed8e010bb4112a4c2d9b0468733239c.jpg","date":"2013-11-08","year":2013,"month":11,"lon":80.943,"lat":6.7567,"tags":"k-r,pentax,pentax+kr,srilanka","S2CellId":"3b07000000000000","result":2532,"accuracy":0.21837845,"title":"Tea+plantations"}
{"id":8764310133,"url":"http://farm9.staticflickr.com/8132/8764310133_e2322608d0.jpg","path":"4b1/03e/4b103e21d0fb576133d933e0392edfb6.jpg","date":"2008-08-14","year":2008,"month":8,"lon":80.78971,"lat":7.87395,"tags":"1908,ceylon,sri+lanka,stereobild,stereoimage,tekniska+museet,the+national+museum+of+science+and+technology,underwood+%26+underwood","S2CellId":"8f5d000000000000","result":9533,"accuracy":0.06816572,"title":"Ceylon","description":"SKA1010%0A%0AStereobild+av+palm+i+solnedg%C3%A5ng+vid+Ceylon%2C+Sri+Lanka.%0A%0AStereo+image.+View+of+sunset+in+Ceylon%2C+Sri+Lanka.%0A%0APhoto%3A+Underwood+%26+Underwood%2C+1908."}
{"id":12182650895,"url":"http://farm8.staticflickr.com/7308/12182650895_c2a1e70a60.jpg","path":"433/80a/43380afcb74dcc96a43f543c877f62e.jpg","date":"2013-08-17","year":2013,"month":8,"lon":80.63946,"lat":7.295299,"tags":"attire,buddhism,culture,drum,drummer,festival,kandy,musician,parade,perahera,procession,religion,spectacle,sri+lanka,team,tradition,uniform","S2CellId":"3ae3400000000000","result":2524,"accuracy":0.10338167,"title":"IMG_5784b","description":"A+team+of+traditional+drummers+on+the+spectacular+Kandy+Perahera+in+central+Sri+Lanka%2C+August+2013.++The+men+at+the+front+are+playing+davula+drums.+++One+end+is+played+with+the+hand+and+fingers%2C+the+other+end+with+a+stick."}
{"id":4810527486,"url":"http://farm5.staticflickr.com/4120/4810527486_a10132cfd2.jpg","path":"304/ec5/304ec598b56e2b3eb6153ed07f76a21e.jpg","date":"2009-12-20","year":2009,"month":12,"lon":80.568924,"lat":8.123811,"tags":"green,holiday,kandalama,life,lush,simple,sri+lanka,water","S2CellId":"009d000000000000","result":45,"accuracy":0.040337835,"title":"Around+Kandalama+09"}
{"id":4964148408,"url":"http://farm5.staticflickr.com/4152/4964148408_2b55afd4f8.jpg","path":"7bb/aca/7bbacad9ee521d8702a75708f6c8c26.jpg","date":"2010-08-06","year":2010,"month":8,"lon":80.67724,"lat":6.702457,"tags":"ceylon,elephant+orphins,elephant+riding,pinawala,pinnawala+elephant+orphanage,pinnewala,pinnewela,sri+lanka,sri+lanka+ceylon+pinnawala+elephant+orphanage","S2CellId":"182d000000000000","result":1421,"accuracy":0.0333427,"title":"SriLanka_07_Elephant_Orphelins_2010_240"}
{"id":4990176427,"url":"http://farm5.staticflickr.com/4150/4990176427_c0001e248c.jpg","path":"1ef/6b9/1ef6b960ee5a9aa4d389bdf2b06387d.jpg","date":"2010-09-12","year":2010,"month":9,"lon":80.37529,"lat":7.011623,"tags":"2010,ceylonadventure,ceylonadventuresports,hills,kithulgala,places,srilanka,trips","S2CellId":"6979000000000000","result":6582,"accuracy":0.02959406,"title":"Kithulgala"}
{"id":4326280533,"url":"http://farm5.staticflickr.com/4010/4326280533_3920548bf0.jpg","path":"e08/920/e08920dd6f73cda1afad334ac2772f6.jpg","date":"2009-11-25","year":2009,"month":11,"lon":80.654755,"lat":7.843145,"tags":"asia,backpacker,hairy,holiday,island,lanka,sexy,shirtless,south,sri,srilanka,travel,trip","S2CellId":"8fa7000000000000","result":9567,"accuracy":0.022067588,"title":"mine+guy"}
{"id":5584626753,"url":"http://farm6.staticflickr.com/5267/5584626753_b9445ec002.jpg","path":"5e8/fbd/5e8fbdef94dc312ba469d1beca83f72.jpg","date":"2011-04-02","year":2011,"month":4,"lon":79.86099,"lat":6.939718,"tags":"colombo,dehiwala,sri+lanka","S2CellId":"1458300000000000","result":1202,"accuracy":0.012677056,"title":"cats+n+dogs+-+eating+together."}
{"id":11756010346,"url":"http://farm4.staticflickr.com/3726/11756010346_a7f875a1a8.jpg","path":"fbb/24e/fbb24e74d4c55985dfb9c286d509162.jpg","date":"2014-01-04","year":2014,"month":1,"lon":79.86266,"lat":6.893952,"tags":"colombo,dialog,dialogaxiata,dialogrugby,ground,kandy,league,park,police,policepark,rugby,srilanka","S2CellId":"9669000000000000","result":9899,"accuracy":0.052836657,"title":"Police+SC+Vs+Kandy+SC+-+Rugby+League"}
{"id":5412955825,"url":"http://farm5.staticflickr.com/4082/5412955825_20477952c6.jpg","path":"a98/f12/a98f12a7fc351fda50487bdd533d9b.jpg","date":"2010-10-10","year":2010,"month":10,"lon":80.81818,"lat":6.84326,"tags":"%E0%B6%8C%E0%B7%80,%E0%B6%B6%E0%B6%AF%E0%B7%94%E0%B6%BD%E0%B7%8A%E0%B6%BD,%E0%B6%B6%E0%B7%9D%E0%B6%9C%E0%B7%84%E0%B6%9A%E0%B7%94%E0%B6%B9%E0%B7%94%E0%B6%BB,%E0%B7%81%E0%B7%8A%E2%80%8D%E0%B6%BB%E0%B7%93+%E0%B6%BD%E0%B6%82%E0%B6%9A%E0%B7%8F%E0%B7%80,%E0%B7%84%E0%B6%BB%E0%B7%9A%E0%B7%82%E0%B7%8A+%E0%B6%91%E0%B6%BB%E0%B6%82%E0%B6%9C,badulla,bogahakumbura,haresh+eranga,sri+lanka,uva","S2CellId":"2dd2100000000000","result":1538,"accuracy":0.09985185,"title":"Bogahakumbura+2010-10-09%2C10+-+%5Bwww.hartstuff.com%5D+-+dsc02716","description":"On+the+way+to+Badulla%0ABogahakumbura+-+Welimada+Road"}
{"id":5461116659,"url":"http://farm6.staticflickr.com/5257/5461116659_a207c0a5b1.jpg","path":"78a/567/78a56785bc62d0ebee822ac311fd4e70.jpg","date":"2011-02-20","year":2011,"month":2,"lon":79.92485,"lat":6.950794,"tags":"boo,boo+tree,kelaniya,kelaniya+boo+tree","S2CellId":"07af000000000000","result":114,"accuracy":0.012331685,"title":"New+Branch+of+the+Boo+Tree","description":"Most+religious+place+near+Colombo%0A%0A%3Ca+href%3D%22http%3A%2F%2Fwww.kelaniyatemple.com%22+rel%3D%22nofollow%22%3Ewww.kelaniyatemple.com%3C%2Fa%3E"}
{"id":6852073599,"url":"http://farm8.staticflickr.com/7173/6852073599_15f9f4b5a9.jpg","path":"514/236/5142368aa335651c9f2c618bbf38da.jpg","date":"2012-02-05","year":2012,"month":2,"lon":79.93206,"lat":8.929504,"tags":"bird,danushka+senadheera,laggon,mannar,nature,silhouette,sri+lanka,water,wildlife","S2CellId":"89c2570000000000","result":8951,"accuracy":0.07380871,"title":"Gold+mine"}
{"id":8505148605,"url":"http://farm9.staticflickr.com/8526/8505148605_85c5e8b8d2.jpg","path":"147/761/1477618fd2b8f8cfafcb081586af1eb.jpg","date":"2013-02-20","year":2013,"month":2,"lon":79.891075,"lat":6.89061,"tags":"beard,closeup,d90,face,human,male,manu,nikon,peruma,portrait,project365,shehan,shehan+peruma,stubble","S2CellId":"3755b00000000000","result":2431,"accuracy":0.0071369573,"title":"day+51%2F365","description":"taken%3A+2013.02.20"}
{"id":5303565766,"url":"http://farm6.staticflickr.com/5048/5303565766_cd617730a5.jpg","path":"adc/06f/adc06f54146928c67548c3c13b17fcc.jpg","date":"2010-12-28","year":2010,"month":12,"lon":80.84,"lat":6.807333,"tags":"srilanka","S2CellId":"6d6b000000000000","result":6849,"accuracy":0.030002972,"title":"Hortons+Plain"}
{"id":5281210383,"url":"http://farm6.staticflickr.com/5247/5281210383_73509291df.jpg","path":"57d/dcb/57ddcbec587b94f87df1ae103b9e83.jpg","date":"2010-12-18","year":2010,"month":12,"lon":80.24671,"lat":6.013044,"tags":"galle,sri+lanka,unawatuna","S2CellId":"1844000000000000","result":1428,"accuracy":0.049357355,"title":"DSC_6982"}
{"id":4963544793,"url":"http://farm5.staticflickr.com/4088/4963544793_4e74c42107.jpg","path":"a7f/fbc/a7ffbccfae3d67545c6f8264ec11bb.jpg","date":"2010-08-06","year":2010,"month":8,"lon":80.67724,"lat":6.702457,"tags":"ceylon,elephant+orphins,elephant+riding,pinawala,pinnawala+elephant+orphanage,pinnewala,pinnewela,sri+lanka","S2CellId":"3b05000000000000","result":2531,"accuracy":0.093263775,"title":"SriLanka_07_Elephant_Orphelins_2010_222"}
{"id":5453259189,"url":"http://farm6.staticflickr.com/5293/5453259189_2c8f35deb2.jpg","path":"731/f55/731f5515d9bcf90f63034fa6baf2296.jpg","date":"2011-02-03","year":2011,"month":2,"lon":79.870865,"lat":6.989303,"tags":"%E0%B8%99%E0%B8%81%E0%B8%81%E0%B8%A3%E0%B8%B0%E0%B9%81%E0%B8%95%E0%B9%81%E0%B8%95%E0%B9%89%E0%B9%81%E0%B8%A7%E0%B9%89%E0%B8%94,%E3%82%A4%E3%83%B3%E3%83%89%E3%83%88%E3%82%B5%E3%82%AB%E3%82%B2%E3%83%AA,%E8%82%89%E5%9E%82%E9%BA%A6%E9%B8%A1rotlappenkiebitz,allkatti,avefr%C3%ADa+india,charadriidae,charadriiformes,pavoncella+indiana+dalle+caruncole+rosse,rapang+minta+duit,red-wattled+lapwing,te+v%E1%BA%B7t,tringa+indica,trulek+gelambir-merah,vanellus+indicus,vanellus+indicus+lankae,vanneau+indien","S2CellId":"6ad1000000000000","result":6610,"accuracy":0.012019334,"title":"Red-wattled+Lapwing+%28Vanellus+indicus%29","description":"Red-wattled+Lapwing+%0AVanellus+indicus%0AVanellus+indicus+lankae%0ARanwelli%2C+Waikkal%2C+Sri+Lanka%0A3rd.+February+2011%0A%0ADistribution%3A+%3Ca+href%3D%22http%3A%2F%2Favibase.bsc-eoc.org%2Fspecies.jsp%3Flang%3DEN%26avibaseid%3DB4B5DE1BB434B92D%26sec%3Dmap%26zoom%3Dasi%22+rel%3D%22nofollow%22%3Eavibase.bsc-eoc.org%2Fspecies.jsp%3Flang%3DEN%26avibaseid%3DB4B...%3C%2Fa%3E%0A%0A+690V7625"}
{"id":5562047674,"url":"http://farm6.staticflickr.com/5307/5562047674_98268e6fbc.jpg","path":"77f/2a6/77f2a65ccf8d91a41578313a324384.jpg","date":"2011-03-26","year":2011,"month":3,"lon":80.21166,"lat":6.053611,"tags":"citydoku,galle,southern,sri+lanka,sudoku,yourdoku","S2CellId":"8852c00000000000","result":8415,"accuracy":0.0991096,"title":"Galle","description":"This+is+a+solvable+sudoku+made+with+the+characters+of+Galle+city+from+Southern+in+Sri+Lanka.%0A%0AView+%3Ca+href%3D%22http%3A%2F%2Fwww.yourdoku.com%2Fcity%2Fgalledoku%22+rel%3D%22nofollow%22%3Egalledoku%3C%2Fa%3E+or+make+your+own+design+at+%3Ca+href%3D%22http%3A%2F%2Fyourdoku.com%22+rel%3D%22nofollow%22%3Eyourdoku.com%3C%2Fa%3E"}
{"id":12873986864,"url":"http://farm3.staticflickr.com/2874/12873986864_343cd5a361.jpg","path":"401/2ef/4012ef75afc4b84558832f81b52fd9.jpg","date":"2012-10-18","year":2012,"month":10,"lon":80.59553,"lat":7.271227,"tags":"1983,lanka,sri","S2CellId":"864e640000000000","result":7620,"accuracy":0.013196776,"title":"1983-2-31+srilanka","description":"Sri+Lanka+-+1983"}
{"id":12233357265,"url":"http://farm4.staticflickr.com/3755/12233357265_63b295316a.jpg","path":"e65/782/e65782d1d87bd3b77785f576d0c6e438.jpg","date":"2014-01-31","year":2014,"month":1,"lon":79.86057,"lat":6.906358,"tags":"art,biennale,cab,colombo,groundviews","S2CellId":"47e61d1d00000000","result":4562,"accuracy":0.018660499,"title":"IMG_7203"}
{"id":5589171774,"url":"http://farm6.staticflickr.com/5268/5589171774_4a86b9859e.jpg","path":"67d/ae0/67dae0654d2f18fdfb487431fe7661e.jpg","date":"2011-02-19","year":2011,"month":2,"lon":80.63192,"lat":7.291298,"tags":"%27contax,%27g28%27,g2%27","S2CellId":"3110174000000000","result":1711,"accuracy":0.0073152557,"title":"dating","description":"%40+Kandy"}
{"id":11642978465,"url":"http://farm6.staticflickr.com/5546/11642978465_605a20de0a.jpg","path":"85b/61e/85b61ec21f1517def798d8bc944313.jpg","date":"2013-12-27","year":2013,"month":12,"lon":80.4528,"lat":6.373305,"tags":"gaurika,gaurika+wijeratne,gaurikaw,lankagama,neluwa,rain+forest,sinharaja+forest+reserve,sri+lanka,wildlife,world+heritage+site","S2CellId":"6b12700000000000","result":6668,"accuracy":0.10973344,"title":"View+from+Seyana+Eco+Lodge+%40+Sinharaja+Forest+Reserve."}
{"id":4515375310,"url":"http://farm3.staticflickr.com/2351/4515375310_64bb414ccf.jpg","path":"a42/16b/a4216b16fe4a8dc86dba45186416522.jpg","date":"2010-04-09","year":2010,"month":4,"lon":80.6372,"lat":7.2842,"tags":"factory,industry,kandy,sri+lanka,tea+museum","S2CellId":"6b2c000000000000","result":6729,"accuracy":0.06788145,"title":"Tea+Museum"}
{"id":8044530187,"url":"http://farm9.staticflickr.com/8461/8044530187_b73b3d9ab0.jpg","path":"705/d6e/705d6eba23262d7ad3f165e3dc3f31e.jpg","date":"2012-09-17","year":2012,"month":9,"lon":80.88272,"lat":6.517036,"tags":"60d,bubalus+arnee,ef100-400mm+f%2F4.5-5.6l+is+usm,peter+nijenhuis,sri+lanka,udawalawe+national+park,wild+water+buffalo","S2CellId":"1835000000000000","result":1425,"accuracy":0.471096,"title":"Unpredictable","description":"A+wild+water+buffalo+%28Bubalus+arnee%29.+Udawalawe+National+Park%2C+Sri+Lanka."}
{"id":2192134313,"url":"http://farm3.staticflickr.com/2304/2192134313_14e9d9da76.jpg","path":"d99/9d2/d999d21add27096136299dad912942f.jpg","date":"2007-12-31","year":2007,"month":12,"lon":80.34336,"lat":7.247876,"tags":"bathe,elephant,orphan,orphanage,pinnewela,river,sri+lanka","S2CellId":"3ae3400000000000","result":2524,"accuracy":0.20472704,"title":"play+fighters+and+the+loner","description":"Orphaned+elephants+playing+in+a+river+during+bath+time.%0A%0APinnewela+Elephant+Orphanage%2C+Sri+Lanka%0A31+December+2007"}
{"id":3656644000,"url":"http://farm4.staticflickr.com/3398/3656644000_5d20f26c2b.jpg","path":"b09/e4a/b09e4a92a79dc5a26855e5571ac32c1.jpg","date":"2009-06-21","year":2009,"month":6,"lon":80.86075,"lat":8.035433,"tags":"family+trip,lanka,minneriya,sri,srilanka,wildlife","S2CellId":"1ed0000000000000","result":1478,"accuracy":0.32530564,"title":"Rockey","description":"Minneriya+National+Park%2C+Sri+Lanka+%C2%A9+Harendra+Alwis"}
{"id":5404881680,"url":"http://farm6.staticflickr.com/5014/5404881680_3b5b605efe.jpg","path":"4fb/ce6/4fbce6b6281d1291859e4f238bf743.jpg","date":"2011-01-27","year":2011,"month":1,"lon":80.06321,"lat":6.402563,"tags":"asia,ceylon,family,going+abroad,going+away,holiday,holidays,people,river,riverside,speed+boat,sri+lanka,waterways","S2CellId":"3b0c000000000000","result":2533,"accuracy":0.13498707,"title":"Morning+prayers+done","description":"A+family+leave+an+island+which+has+one+of+the+Buddhist+temples+on+after+a+morning+of+prayers."}
{"id":6907597445,"url":"http://farm8.staticflickr.com/7204/6907597445_ab2a9811f1.jpg","path":"367/f2b/367f2bd2191dadc3a662baa9ec68f2.jpg","date":"2011-11-09","year":2011,"month":11,"lon":80.64136,"lat":7.293581,"tags":"2011,family,kandy,november,sri+lanka,temple,tooth,tooth+temple,vacation","S2CellId":"30c4000000000000","result":1620,"accuracy":0.043203257,"title":"Temple+of+the+Tooth","description":"Indoor+chamber"}
{"id":6628744171,"url":"http://farm8.staticflickr.com/7172/6628744171_e8715895c2.jpg","path":"685/67f/68567f93867699b464e9a6399f7a6968.jpg","date":"2011-12-14","year":2011,"month":12,"lon":80.589096,"lat":7.282444,"tags":"aries+tottle,butterfly,orsotriaena,orsotriaena+medus,sri+lanka","S2CellId":"6979000000000000","result":6582,"accuracy":0.011534339,"title":"Orsotriaena+medus","description":"In+Kandy%2C+Sri+Lanka"}
{"id":11118106293,"url":"http://farm4.staticflickr.com/3736/11118106293_b724502cf3.jpg","path":"6c3/dad/6c3dadd588a5459e72cc3c4b902c5fbc.jpg","date":"2013-11-10","year":2013,"month":11,"lon":80.5942,"lat":7.265152,"tags":"monkey,peradeniya,royal+botanical+gardens,sri+lanka","S2CellId":"0ed0000000000000","result":640,"accuracy":0.05890269,"title":"Cheeky+monkey"}
{"id":4380590837,"url":"http://farm5.staticflickr.com/4018/4380590837_9d457d5896.jpg","path":"6b5/597/6b55976a950823255921757902b3e2.jpg","date":"2010-02-04","year":2010,"month":2,"lon":79.874306,"lat":6.865081,"tags":"bushed,bushy,canon+7d,cat,ears,feline,fur,kitten,kittenmagazine,kitty,paws,tail,whiskers","S2CellId":"345d5c0000000000","result":2111,"accuracy":0.016465,"title":"Bushed","description":"%C2%A9+Daran+Kandasamy"}
{"id":4508179444,"url":"http://farm5.staticflickr.com/4043/4508179444_c17596c28a.jpg","path":"f45/260/f4526061fd524e79995ff8e48244d1af.jpg","date":"2010-04-08","year":2010,"month":4,"lon":80.6372,"lat":7.2842,"tags":"bunch,fruit,jackfruit,kandy,peredeniya+gardens,sri+lanka","S2CellId":"3be7b00000000000","result":2572,"accuracy":0.029567903,"title":"Jackfruit"}
{"id":7152948629,"url":"http://farm6.staticflickr.com/5349/7152948629_4b52aeaf59.jpg","path":"8d5/cae/8d5caeb788b545ad4c3b288eeb4c83a5.jpg","date":"2012-03-29","year":2012,"month":3,"lon":79.85807,"lat":6.928812,"tags":"colombo,pettah,sri+lanka","S2CellId":"80e9130000000000","result":7401,"accuracy":0.043387488,"title":"Morning+in+Colombo","description":"Not+sure+which+mosque+is+it%2C+it+was+somewhere+in+Pettah+%28bazzar+part+of+the+town%29."}
{"id":6916500498,"url":"http://farm8.staticflickr.com/7091/6916500498_1c98e23379.jpg","path":"7ea/e4d/7eae4da1dccdb4295a09ea43a59f368.jpg","date":"2011-02-01","year":2011,"month":2,"lon":79.853096,"lat":6.916468,"tags":"%5Bbuddhist,caparisoned,colombo,elephant,festival%5D,full,http%3A%2F%2Fmalbuk.tumblr.com%2F,lanka,moon,navam,poya,sri","S2CellId":"00997f1000000000","result":15,"accuracy":0.031607453,"title":"Caparisoned+Elephant+Sri+Lanka+Colombo+Navam+Full+Moon+Poya+%5BBuddhist+Festival%5D","description":"Sri+Lanka+Colombo+Navam+Full+Moon+Poya+%5BBuddhist+Festival%5D"}
{"id":109951314,"url":"http://farm1.staticflickr.com/50/109951314_5069e7ed51.jpg","path":"287/a96/287a96e64052e1f6cd7de353329d943.jpg","date":"2006-01-09","year":2006,"month":1,"lon":80.625916,"lat":7.295044,"tags":"2006,buddhism,kandy,sri+lanka,temple+of+the+tooth","S2CellId":"2dd23d0000000000","result":1544,"accuracy":0.057663366,"title":"Inside+the+Temple+of+the+Tooth"}
{"id":5645128671,"url":"http://farm6.staticflickr.com/5229/5645128671_695b83a8a9.jpg","path":"228/9c0/2289c071874ceebe5ab7fc869ad6f4cc.jpg","date":"2011-04-08","year":2011,"month":4,"lon":79.974976,"lat":6.503628,"tags":"boudha,boudha+couch%C3%A9,sri+lnaka","S2CellId":"3afc000000000000","result":2528,"accuracy":0.30816266,"title":"Boudhas+au+Sri+Lanka","description":"Une+religion+omni+pr%C3%A9sente+%C3%A0+tous+les+coins+de+rues"}
{"id":4964276870,"url":"http://farm5.staticflickr.com/4149/4964276870_6b594bd82d.jpg","path":"981/465/9814652a95ec26eafe2a0d3e7c2b347.jpg","date":"2010-08-06","year":2010,"month":8,"lon":80.64428,"lat":7.297768,"tags":"botanical+garden,kandy,sri+lanka","S2CellId":"1835000000000000","result":1425,"accuracy":0.035127815,"title":"SriLanka_11_Kandy_Botanical_Garden_2010_065"}
{"id":6875099127,"url":"http://farm8.staticflickr.com/7058/6875099127_46a6f71e94.jpg","path":"384/384/384384742eee567460dd4d76ad163d.jpg","date":"2012-02-14","year":2012,"month":2,"lon":80.833824,"lat":6.991414,"tags":"erdbeeren,strawberries,tea+factory","S2CellId":"5f0b2c0000000000","result":6349,"accuracy":0.008440575,"title":"Frische+Erdbeeren+in+der+Tea+Factory","description":"Heritance+Tea+Factory+Sri+Lanka"}
{"id":12873618275,"url":"http://farm4.staticflickr.com/3721/12873618275_86ca7f88c7.jpg","path":"e3f/721/e3f721682f5ca8cbeb40aacc441e22.jpg","date":"2012-10-18","year":2012,"month":10,"lon":80.49442,"lat":7.263713,"tags":"1983,lanka,sri","S2CellId":"3ae3400000000000","result":2524,"accuracy":0.16831264,"title":"1983-1-9+srilanka","description":"Sri+Lanka+-+1983"}
{"id":286959638,"url":"http://farm1.staticflickr.com/108/286959638_bcd0d5ae2f.jpg","path":"d78/5e5/d785e55074adb284aa6532392461d7c.jpg","date":"2004-12-12","year":2004,"month":12,"lon":80.61836,"lat":7.280991,"tags":"sri+lanka","S2CellId":"3bc4000000000000","result":2563,"accuracy":0.117713384,"title":"Sri+Lanka+-+111.jpg"}
{"id":5412931509,"url":"http://farm5.staticflickr.com/4135/5412931509_ea8ebff28e.jpg","path":"502/c98/502c98e96be34afe3bd75fcafc6eca5.jpg","date":"2010-10-09","year":2010,"month":10,"lon":80.81818,"lat":6.84326,"tags":"%E0%B6%8C%E0%B7%80,%E0%B6%B6%E0%B6%AF%E0%B7%94%E0%B6%BD%E0%B7%8A%E0%B6%BD,%E0%B6%B6%E0%B7%9D%E0%B6%9C%E0%B7%84%E0%B6%9A%E0%B7%94%E0%B6%B9%E0%B7%94%E0%B6%BB,%E0%B7%81%E0%B7%8A%E2%80%8D%E0%B6%BB%E0%B7%93+%E0%B6%BD%E0%B6%82%E0%B6%9A%E0%B7%8F%E0%B7%80,%E0%B7%84%E0%B6%BB%E0%B7%9A%E0%B7%82%E0%B7%8A+%E0%B6%91%E0%B6%BB%E0%B6%82%E0%B6%9C,badulla,bogahakumbura,haresh+eranga,sri+lanka,uva","S2CellId":"39e4000000000000","result":2487,"accuracy":0.048260476,"title":"Bogahakumbura+2010-10-09%2C10+-+%5Bwww.hartstuff.com%5D+-+dsc02663","description":"Badulla+-+Welimada"}
{"id":8437212452,"url":"http://farm9.staticflickr.com/8476/8437212452_0fa4c80112.jpg","path":"443/fea/443fea4bf16229539941f9987c52c23.jpg","date":"2013-02-02","year":2013,"month":2,"lon":80.66958,"lat":7.282047,"tags":"instagram+app,iphoneography,square,square+format","S2CellId":"39b0000000000000","result":2485,"accuracy":0.021333195,"title":"%E4%B8%80%E7%9D%81%E7%9C%BC%E7%9A%84%E7%AA%97%E5%A4%96%E4%BB%80%E4%B9%88%E7%9A%84%EF%BC%8C%E5%B1%B1%E5%95%8A%E6%A0%91%E5%95%8A%E6%B9%96%E5%95%8A%EF%BC%8C%E9%B8%9F%E5%8F%AB%E5%95%8A%E6%BB%B4%E6%B0%B4%E5%95%8A%E5%87%89%E7%A9%BA%E6%B0%94%E5%95%8A%E3%80%82"}
{"id":4963538051,"url":"http://farm5.staticflickr.com/4126/4963538051_7af9acc85a.jpg","path":"b63/bbe/b63bbee14b8ef28c1c3ac8fcbe694e1a.jpg","date":"2010-08-06","year":2010,"month":8,"lon":80.67724,"lat":6.702457,"tags":"ceylon,elephant+orphins,elephant+riding,pinawala,pinnawala+elephant+orphanage,pinnewala,pinnewela,sri+lanka","S2CellId":"1ed0000000000000","result":1478,"accuracy":0.13626768,"title":"SriLanka_07_Elephant_Orphelins_2010_193"}
{"id":504562028,"url":"http://farm1.staticflickr.com/222/504562028_54dbb9cc1f.jpg","path":"485/9ea/4859eaffa31d2b1cb044e1aac932c23.jpg","date":"2006-04-26","year":2006,"month":4,"lon":80.747795,"lat":6.989814,"tags":"lanka,sri,sri+lanka","S2CellId":"17c0000000000000","result":1416,"accuracy":0.035330202,"title":"Direction+in+the+world"}
{"id":4817528471,"url":"http://farm5.staticflickr.com/4075/4817528471_e80f0bbca2.jpg","path":"ef4/2a1/ef42a11325d864b5d4598bebaf2f52.jpg","date":"2009-12-26","year":2009,"month":12,"lon":80.76668,"lat":6.974138,"tags":"factory,holiday,hotel,mountains,nuwara+eliya,sri+lanka,tea","S2CellId":"3ae3c00000000000","result":2525,"accuracy":0.120991364,"title":"Tea+Factory+Hotel+02"}
{"id":6839810475,"url":"http://farm8.staticflickr.com/7021/6839810475_e2d5645601.jpg","path":"5f4/78b/5f478be8446e5de378fe3c6f71ead.jpg","date":"2012-02-07","year":2012,"month":2,"lon":79.85536,"lat":6.916899,"tags":"buddha,buddhism,colombo,float,gangrama,nawammaha,parade,perahera","S2CellId":"88e7809f00000000","result":8683,"accuracy":0.17219973,"title":"LED+Buddha+Float"}
{"id":267771722,"url":"http://farm1.staticflickr.com/103/267771722_2e16dea231.jpg","path":"922/de7/922de7a0886ea33136c4dc45c934b95e.jpg","date":"2006-09-11","year":2006,"month":9,"lon":79.84743,"lat":6.931539,"tags":"city+hall,colombo,grass,park,sri+lanka,sri+lanka+2006,town+hall,vihara+maha+devi,vihara+maha+devi+park,walkway","S2CellId":"3baf400000000000","result":2553,"accuracy":0.17439005,"title":"2006_09_11+022","description":"September+11%2C+2006+-+Jay+and+I+went+to+Colombo+just+to+walk+around+and+cash+a+few+traveller%27s+cheques.%0A%0A%3Ca+href%3D%22http%3A%2F%2Fwww.flickr.com%2Fphotos%2Fdennissylvesterhurd%2F215546484%2F%22%3EEven+twenty+years+before+this+shot%3C%2Fa%3E%2C+with+an+old+film+camera%2C+it+was+difficult+to+make+out+the+Town+Hall+against+a+cloudy+sky.%0A%0A%3Ca+href%3D%22http%3A%2F%2Fwww.dennissylvesterhurd.com%2Fblog%2F2006_09_10_vault.html%23116041420848269819%22+target%3D%22_new%22%3EHere%27s+the+blog+entry%3C%2Fa%3E+for+this+day."}
{"id":6333230236,"url":"http://farm7.staticflickr.com/6213/6333230236_dd17b0f87c.jpg","path":"8d1/0bc/8d10bc24cf2539383c4f70d4a34a6c0.jpg","date":"2011-11-11","year":2011,"month":11,"lon":79.9892,"lat":6.4777,"tags":"alone,android,asia,beach,beauty,beruwala,blue,breeze,camera+phone,cell+phone,clouds,contemplate,desire,evening,guy,holiday,htc,human,island,landscape,lanka,light,lonely,male,man,mobile+phone,person,photography,rocks,scenery,sea,shore,sky,sri+lanka,standing,sun,sunset,tropics,view,water,waves","S2CellId":"3470400000000000","result":2237,"accuracy":0.17702225,"title":"Contemplation","description":"%C2%A9+Daran+Kandasamy%0A%0AShot+with+a+HTC+Desire+running+Android+OS"}
{"id":10642258113,"url":"http://farm8.staticflickr.com/7413/10642258113_388db4c8b2.jpg","path":"164/9b3/1649b3bc5b3e84aa528ad4ab8daa5.jpg","date":"2013-02-27","year":2013,"month":2,"lon":80.3972,"lat":8.369093,"tags":"mihintale,monkey,ruins,sri+lanka","S2CellId":"916d9c0000000000","result":9613,"accuracy":0.17111722,"title":"mihintale"}
