{"id":7289926572,"url":"http://farm8.staticflickr.com/7101/7289926572_67d081a309.jpg","path":"71a/338/71a3381e7814aecc08bdd14bb20cbe.jpg","date":"2012-05-20","year":2012,"month":5,"lon":36.89899,"lat":31.869244,"tags":"aerial+archaeology,aerial+photography,air+photo,ancient+history,archaeology,middle+east","S2CellId":"1c70000000000000","result":1446,"accuracy":0.034953285,"title":"Azraq+Kite+41","description":"APAAME_20120520_DLK-0163.dng"}
{"id":6260997991,"url":"http://farm7.staticflickr.com/6163/6260997991_4ebbdf32bf.jpg","path":"d0c/fc9/d0cfc91fcb7c122e9e33a7559abd51d1.jpg","date":"2011-10-13","year":2011,"month":10,"lon":36.01837,"lat":31.054146,"tags":"aerial+archaeology,aerial+photography,air+photo,ancient+history,archaeology,middle+east","S2CellId":"877c000000000000","result":7905,"accuracy":0.19392064,"title":"Menzil+East+WW1+Trenches","description":"APAAME_20111013_RHB-0037.dng"}
{"id":4191710341,"url":"http://farm3.staticflickr.com/2779/4191710341_c18e2f2d37.jpg","path":"bbe/17e/bbe17e7c6bbc57eb194f786a8c1423c.jpg","date":"2009-09-17","year":2009,"month":9,"lon":36.731224,"lat":31.79631,"tags":"amra+pendants+2-6,flight+1,jordan,pendant","S2CellId":"8737000000000000","result":7801,"accuracy":0.016199674,"title":"Amra+Pendants+2-6","description":"APAAME_20090917_DLK-0047.dng"}
{"id":7176077655,"url":"http://farm8.staticflickr.com/7237/7176077655_a40393b370.jpg","path":"4e7/c64/4e7c64f1539c9ad9ecf32c949bb6c264.jpg","date":"2012-05-22","year":2012,"month":5,"lon":36.872513,"lat":31.904541,"tags":"aerial+archaeology,aerial+photography,air+photo,ancient+history,archaeology,middle+east","S2CellId":"1950000000000000","result":1435,"accuracy":0.14014813,"title":"Azraq+Kite+32%2C+Azraq+Wheel+15","description":"APAAME_20120522_DLK-0621.dng"}
{"id":4666950578,"url":"http://farm2.staticflickr.com/1297/4666950578_8288d0623d.jpg","path":"d13/1ba/d131baff76745db68c65a91f9641424.jpg","date":"2010-05-29","year":2010,"month":5,"lon":36.694275,"lat":31.93835,"tags":"aerial+archaeology,aerial+photography,air+photo,ancient+history,flight+4,flying+2010,jordan,levant,middle+east,near+east","S2CellId":"5351f00000000000","result":6036,"accuracy":0.16761267,"title":"Amra+Kite+1","description":"APAAME_20100529_DLK-0336.dng"}
{"id":4191757563,"url":"http://farm3.staticflickr.com/2590/4191757563_c297fc4066.jpg","path":"f2f/9fa/f2f9fa3b96676d644338c27ad222a5e.jpg","date":"2009-09-17","year":2009,"month":9,"lon":36.87614,"lat":31.979364,"tags":"azraq+kite+29,flight+1,jordan,kite","S2CellId":"47e66e2b00000000","result":4611,"accuracy":0.008588866,"title":"Azraq+Kite+29","description":"APAAME_20090917_DLK-0184.dng"}
{"id":5247857739,"url":"http://farm6.staticflickr.com/5124/5247857739_a2ef355cbd.jpg","path":"c97/9f1/c979f13b4bc15a50942acafdac789e69.jpg","date":"2009-09-17","year":2009,"month":9,"lon":36.89398,"lat":31.982183,"tags":"aerial+archaeology,aerial+photography,air+photo,ancient+history,digital+camera,flight+1,jordan,levant,middle+east,near+east","S2CellId":"9114000000000000","result":9597,"accuracy":0.0034417508,"title":"Azraq+Walls+1","description":"APAAME_20090917_KRH-0145.dng"}
{"id":6343181775,"url":"http://farm7.staticflickr.com/6019/6343181775_2b6a359cfa.jpg","path":"ec8/f83/ec8f833f535f4e5b9a1483798816b.jpg","date":"2011-10-27","year":2011,"month":10,"lon":36.938103,"lat":31.895348,"tags":"aerial+archaeology,aerial+photography,air+photo,ancient+history,archaeology,middle+east","S2CellId":"9114000000000000","result":9597,"accuracy":0.017554814,"title":"Azraq+Pendants+18","description":"APAAME_20111027_MND-0105.jpg"}
{"id":7350329826,"url":"http://farm8.staticflickr.com/7104/7350329826_98b75f1f72.jpg","path":"32f/577/32f5777936e96761cd209fd34ce39e.jpg","date":"2012-05-22","year":2012,"month":5,"lon":36.95464,"lat":31.951136,"tags":"aerial+archaeology,aerial+photography,air+photo,ancient+history,archaeology,middle+east","S2CellId":"1503100000000000","result":1355,"accuracy":0.05002939,"title":"Qasr+Aseikhim","description":"APAAME_20120522_DLK-0003.dng"}
{"id":5248673080,"url":"http://farm6.staticflickr.com/5285/5248673080_aa8648ceef.jpg","path":"ce5/17d/ce517d3a254ebdfae84cb5d21d96fec.jpg","date":"2009-09-17","year":2009,"month":9,"lon":36.9307,"lat":31.895067,"tags":"aerial+archaeology,aerial+photography,air+photo,ancient+history,digital+camera,flight+1,jordan,levant,middle+east,near+east","S2CellId":"877c000000000000","result":7905,"accuracy":0.005169366,"title":"Azraq+Wheel+43","description":"APAAME_20090917_NQ-0284.dng"}
{"id":4192466562,"url":"http://farm3.staticflickr.com/2709/4192466562_2bd7dbaede.jpg","path":"368/bfa/368bfa525f46410a1e981a983785934.jpg","date":"2009-09-17","year":2009,"month":9,"lon":36.724888,"lat":31.799711,"tags":"amra+wheel+4,flight+1,jordan,wheel","S2CellId":"877c000000000000","result":7905,"accuracy":0.031857297,"title":"Amra+Wheel+4","description":"APAAME_20090917_DLK-0032.dng"}
{"id":4615506437,"url":"http://farm5.staticflickr.com/4003/4615506437_cbb31bcfe5.jpg","path":"66b/4cb/66b4cbbf8d90a62451abf513841aaa.jpg","date":"2010-05-16","year":2010,"month":5,"lon":36.097115,"lat":31.915033,"tags":"aerial+archaeology,aerial+photography,airphoto,ancient+history,flight+1,flying+2010,jordan,levant,middle+east,near+east,qasr","S2CellId":"133bbc0000000000","result":1153,"accuracy":0.11973241,"title":"Qasr+el-Maduna","description":"APAAME_20100516_SES-0015.dng"}
{"id":5248448858,"url":"http://farm6.staticflickr.com/5083/5248448858_ec837913ff.jpg","path":"ae9/188/ae9188a4eb52d4b78444826311b4f82c.jpg","date":"2009-09-17","year":2009,"month":9,"lon":36.87882,"lat":31.95413,"tags":"aerial+archaeology,aerial+photography,air+photo,ancient+history,digital+camera,flight+1,jordan,levant,middle+east,near+east","S2CellId":"877c000000000000","result":7905,"accuracy":0.024680134,"title":"Azraq+Kite+25","description":"APAAME_20090917_KRH-0126.dng"}
{"id":7175885843,"url":"http://farm8.staticflickr.com/7103/7175885843_310c687e17.jpg","path":"56c/46e/56c46ebe18c420ba5a8e5cbda94f38bc.jpg","date":"2012-05-22","year":2012,"month":5,"lon":36.75265,"lat":31.90565,"tags":"aerial+archaeology,aerial+photography,air+photo,ancient+history,archaeology,middle+east","S2CellId":"5494c00000000000","result":6235,"accuracy":0.009817477,"title":"Azraq+Pendant+45","description":"APAAME_20120522_MND-0516.dng"}
{"id":7361088272,"url":"http://farm8.staticflickr.com/7083/7361088272_0190699ef7.jpg","path":"60d/b36/60db36c336ddfd4d034beb235bbb155.jpg","date":"2012-05-22","year":2012,"month":5,"lon":36.702984,"lat":31.918613,"tags":"aerial+archaeology,aerial+photography,air+photo,ancient+history,archaeology,middle+east","S2CellId":"1c70000000000000","result":1446,"accuracy":0.04111897,"title":"Amra+Kite+19","description":"APAAME_20120522_DLK-0510.dng"}
{"id":4342864376,"url":"http://farm5.staticflickr.com/4039/4342864376_488bba05f1.jpg","path":"19b/166/19b166526625a0b71d31f3db76238d5c.jpg","date":"2008-11-02","year":2008,"month":11,"lon":36.7968,"lat":31.937075,"tags":"aerial+archaeology,aerial+photography,air+photo,ancient+history,archaeology,middle+east","S2CellId":"1bc0000000000000","result":1443,"accuracy":0.0075815525,"title":"Azraq+Wheel+232","description":"APAAME_20081102_DLK-0030.dng"}
{"id":3240345657,"url":"http://farm4.staticflickr.com/3421/3240345657_4bb01e503f.jpg","path":"2b9/ef4/2b9ef473e4298c2c826cbcb9c7d28af.jpg","date":"2008-06-09","year":2008,"month":6,"lon":36.7883,"lat":31.2496,"tags":"jordan,middle+east,petra,travel","S2CellId":"38fc000000000000","result":2445,"accuracy":0.088221885,"title":"DSC04195.JPG"}
{"id":5247751483,"url":"http://farm6.staticflickr.com/5005/5247751483_b6d8fdc73d.jpg","path":"a0e/ab9/a0eab9d15b725ec765f433ba399ffaaf.jpg","date":"2009-09-17","year":2009,"month":9,"lon":36.71663,"lat":31.80698,"tags":"aerial+archaeology,aerial+photography,air+photo,ancient+history,digital+camera,flight+1,jordan,levant,middle+east,near+east","S2CellId":"3461000000000000","result":2114,"accuracy":0.01802164,"title":"Corrals+near+Amra+Wheel+3","description":"APAAME_20090917_NQ-0013.dng"}
{"id":9718315902,"url":"http://farm4.staticflickr.com/3808/9718315902_b2ac23349b.jpg","path":"758/e55/758e5560f72c8450e8cdafda4e31d2.jpg","date":"2009-09-21","year":2009,"month":9,"lon":36.733612,"lat":31.784721,"tags":"ancient+history,archaeology,geo%3Acity%3D,geo%3Acountrys%3D,geo%3Astate%3D,ground,jordan,middle+east,roman,tower,uweinid+plateau","S2CellId":"0c30000000000000","result":127,"accuracy":0.16253655,"title":"Qasr+el-Uweinid+2+Tower","description":"APAAMEG_20090921_DLK-0051.dng%0Afrom+Qasr+el-Uweinid+1"}
{"id":6343184339,"url":"http://farm7.staticflickr.com/6221/6343184339_b53175b8b7.jpg","path":"d1b/1b2/d1b1b2d9af36cae388592aa24af8130.jpg","date":"2011-10-27","year":2011,"month":10,"lon":36.941204,"lat":31.893545,"tags":"aerial+archaeology,aerial+photography,air+photo,ancient+history,archaeology,middle+east","S2CellId":"8737000000000000","result":7801,"accuracy":0.029159322,"title":"Azraq+area","description":"APAAME_20111027_REB-0042.jpg"}
{"id":9772283924,"url":"http://farm4.staticflickr.com/3670/9772283924_c5fe1c6025.jpg","path":"c3c/842/c3c8424c10a4739c7aa5ae337df6c8f8.jpg","date":"2006-09-14","year":2006,"month":9,"lon":36.95197,"lat":31.946037,"tags":"ancient+history,archaeology,fort,geo%3Acity%3D,geo%3Acountrys%3D,geo%3Astate%3D,ground,middle+east,roman","S2CellId":"6a90000000000000","result":6587,"accuracy":0.13772415,"title":"Qasr+el-Aseikhim","description":"APAAMEG_20060914_RHB-0017.JPG"}
{"id":8656133686,"url":"http://farm9.staticflickr.com/8118/8656133686_b6463bdbcd.jpg","path":"c09/740/c09740b578854b15c7c5e76954b45163.jpg","date":"2013-04-12","year":2013,"month":4,"lon":36.101276,"lat":31.513226,"tags":"ancient+history,archaeology,ddb,don+boyer,early+islamic,geo%3Acity%3D,geo%3Acountrys%3D,geo%3Astate%3D,ground,late+roman,middle+east","S2CellId":"0e90000000000000","result":638,"accuracy":0.07368416,"title":"Khan+es-Zabib","description":"APAAMEG_20130412_RHB-0012.JPG"}
{"id":8657617039,"url":"http://farm9.staticflickr.com/8114/8657617039_e3605ecdc1.jpg","path":"4ad/8bc/4ad8bc0402bfea86f67b59796fa7e9.jpg","date":"2013-04-16","year":2013,"month":4,"lon":36.10838,"lat":31.807295,"tags":"ancient+history,archaeology,geo%3Acity%3D,geo%3Acountrys%3D,geo%3Astate%3D,ground,mega-j+58371,middle+east,muwaqqer,mwaqer+mosaic+house,reservoir","S2CellId":"151cc00000000000","result":1380,"accuracy":0.08888071,"title":"Muwaqqar+Reservoir+1+and+Small+Building","description":"APAAMEG_20130416_REB-0007.dng"}
{"id":9963384455,"url":"http://farm4.staticflickr.com/3758/9963384455_0b394d1b23.jpg","path":"82f/75c/82f75c09ee0283e48fabea612aefd66.jpg","date":"2013-09-27","year":2013,"month":9,"lon":36.95197,"lat":31.946037,"tags":"ancient+history,archaeology,fort,geo%3Acity%3D,geo%3Astate%3D,ground,jordan,middle+east,roman,scanned+from+slide","S2CellId":"48cd000000000000","result":5785,"accuracy":0.018684419,"title":"Qasr+Aseikhim+-+from+Dam","description":"APAAMEG_1978_DLK-0296.tif"}
{"id":5248377742,"url":"http://farm6.staticflickr.com/5289/5248377742_011b9624e0.jpg","path":"c73/cac/c73cac61feb468e6a7955de84e9883.jpg","date":"2009-09-17","year":2009,"month":9,"lon":36.74869,"lat":31.790104,"tags":"aerial+archaeology,aerial+photography,air+photo,ancient+history,digital+camera,flight+1,jordan,levant,middle+east,near+east","S2CellId":"80b4000000000000","result":7133,"accuracy":0.029962821,"title":"Amra+Kite+7","description":"APAAME_20090917_KRH-0047.dng"}
{"id":5128403798,"url":"http://farm2.staticflickr.com/1133/5128403798_bc16d210cc.jpg","path":"3c3/71c/3c371cd8ff27109f08087c8861fcec7.jpg","date":"2008-11-02","year":2008,"month":11,"lon":36.80011,"lat":31.87953,"tags":"aerial+archaeology,aerial+photography,air+photo,ancient+history,azraq+kite+10,azraq+pendant+6,azraq+pendant+7,azraq+pendant+8,azraq+pendant+9,digital+camera,flight+8,levant,middle+east,near+east","S2CellId":"9114000000000000","result":9597,"accuracy":0.09964764,"title":"Azraq+Kite+10%2C+Azraq+Pendant+6%2C+Azraq+Pendant+7%2C+Azraq+Pendant+8","description":"APAAME_20081102_MJN-0103.dng"}
{"id":7361373746,"url":"http://farm8.staticflickr.com/7244/7361373746_db809253db.jpg","path":"ad1/c26/ad1c268f022f9a6952ed49e9f11c45.jpg","date":"2012-05-22","year":2012,"month":5,"lon":36.950966,"lat":31.94542,"tags":"aerial+archaeology,aerial+photography,air+photo,ancient+history,archaeology,middle+east","S2CellId":"6d6b000000000000","result":6849,"accuracy":0.10724309,"title":"Qasr+Aseikhim","description":"APAAME_20120522_DDB-0701.dng"}
{"id":5077876949,"url":"http://farm5.staticflickr.com/4009/5077876949_c3ec92a59a.jpg","path":"d0e/56c/d0e56c2f7f76b949b0994eb1d4a95e2.jpg","date":"2010-10-02","year":2010,"month":10,"lon":36.0249,"lat":31.831642,"tags":"aerial+archaeology,aerial+photography,air+photo,aja+2010_2,ancient+history,flight+5,jordan,levant,middle+east,near+east","S2CellId":"3e70000000000000","result":2624,"accuracy":0.08869276,"title":"Sahab+New+Hwy+5","description":"APAAME_20101002_RHB-0464.dng"}
{"id":4324582314,"url":"http://farm5.staticflickr.com/4022/4324582314_74fdff6416.jpg","path":"47c/23c/47c23cfacda5a9ebe5a41c48a4205cdc.jpg","date":"2008-10-05","year":2008,"month":10,"lon":36.033226,"lat":31.408026,"tags":"aerial+archaeology,aerial+photography,air+photo,ancient+history,archaeology,middle+east","S2CellId":"5351f00000000000","result":6036,"accuracy":0.033274412,"title":"Siwaqa+Fortlet+and+Tower+1","description":"APAAME_20081005_DLK-0093.dng"}
{"id":7361314228,"url":"http://farm9.staticflickr.com/8141/7361314228_871128b058.jpg","path":"3aa/67c/3aa67c167f4a9e595861e12a9f78a6f5.jpg","date":"2012-05-22","year":2012,"month":5,"lon":36.940254,"lat":31.943596,"tags":"aerial+archaeology,aerial+photography,air+photo,ancient+history,archaeology,middle+east","S2CellId":"9154000000000000","result":9600,"accuracy":0.05501724,"title":"Qasr+Aseikhim","description":"APAAME_20120522_DLK-0630.dng"}
{"id":6972192455,"url":"http://farm8.staticflickr.com/7177/6972192455_26ebbf36f1.jpg","path":"d24/e4b/d24e4b326b24ad5aa7c9b77646a04355.jpg","date":"2011-11-24","year":2011,"month":11,"lon":36.304,"lat":31.2738,"tags":"petra,world+heritage","S2CellId":"1501400000000000","result":1348,"accuracy":0.8615533,"title":"Petra+-+me+on+the+mule%21","description":"Too+far+%26+rough+to+walk+back++Estab.+6thC+BC+as+capital+of+Nabataeans.+Famous+for+rock+cut+architecture.+Now+World+Heritage+Site."}
{"id":6260989661,"url":"http://farm7.staticflickr.com/6113/6260989661_b0d9469d99.jpg","path":"4f3/c69/4f3c69f3cfcc72c66bd69145e2db776.jpg","date":"2011-10-13","year":2011,"month":10,"lon":36.01182,"lat":31.04888,"tags":"aerial+archaeology,aerial+photography,air+photo,ancient+history,archaeology,middle+east","S2CellId":"9114000000000000","result":9597,"accuracy":0.31894678,"title":"Menzil+South+WW1+Trenches","description":"APAAME_20111013_DLK-0042.dng"}
{"id":7361181466,"url":"http://farm8.staticflickr.com/7226/7361181466_05621e696c.jpg","path":"509/013/5090135c2e60d15fdb689e6fc3f8a54d.jpg","date":"2012-05-22","year":2012,"month":5,"lon":36.77297,"lat":31.892723,"tags":"aerial+archaeology,aerial+photography,air+photo,ancient+history,archaeology,middle+east","S2CellId":"876bec4000000000","result":7871,"accuracy":0.0028733735,"title":"Azraq+Pendant+42","description":"APAAME_20120522_MND-0542.dng"}
{"id":4323900369,"url":"http://farm5.staticflickr.com/4024/4323900369_83714aa461.jpg","path":"2d9/340/2d93403a8f14ec447dca331e7b451388.jpg","date":"2008-10-05","year":2008,"month":10,"lon":36.022312,"lat":31.377728,"tags":"aerial+archaeology,aerial+photography,air+photo,ancient+history,archaeology,middle+east","S2CellId":"809f000000000000","result":7130,"accuracy":0.007750702,"title":"Siwaqa+2+Towers+18","description":"APAAME_20081005_DLK-0155.dng"}
{"id":9772086882,"url":"http://farm8.staticflickr.com/7419/9772086882_b5f64d29b4.jpg","path":"b75/559/b755598cc2d65432a48a4de23e89e3.jpg","date":"2006-09-14","year":2006,"month":9,"lon":36.95197,"lat":31.946037,"tags":"ancient+history,archaeology,fort,geo%3Acity%3D,geo%3Acountrys%3D,geo%3Astate%3D,ground,middle+east,roman","S2CellId":"80c5000000000000","result":7222,"accuracy":0.016903987,"title":"Qasr+el-Aseikhim","description":"APAAMEG_20060914_RHB-0015.JPG"}
{"id":8679750774,"url":"http://farm9.staticflickr.com/8531/8679750774_7cc5053bf4.jpg","path":"3bb/86a/3bb86a65a34e9ac53547421f1db9f526.jpg","date":"2013-04-18","year":2013,"month":4,"lon":36.319424,"lat":31.8191,"tags":"aerial+archaeology,aerial+photography,air+photo,ancient+history,archaeology,middle+east","S2CellId":"1c70000000000000","result":1446,"accuracy":0.15723917,"title":"Mushash+Qasr+Mushash+6+Reservoir","description":"APAAME_20130418_MND-0089.jpg"}
{"id":4209798701,"url":"http://farm3.staticflickr.com/2671/4209798701_ab40ec22ba.jpg","path":"6eb/971/6eb9717663ab27d6c853380c5ac8772.jpg","date":"2009-10-22","year":2009,"month":10,"lon":36.073387,"lat":31.890125,"tags":"el-manakhir,flight+7,flying+2009,highway,village","S2CellId":"1503100000000000","result":1355,"accuracy":0.05822348,"title":"El-Manakhir","description":"APAAME_20091022_DLK-0036.dng"}
{"id":9341794397,"url":"http://farm6.staticflickr.com/5448/9341794397_c6354c1666.jpg","path":"6a8/345/6a83459fc1ea6f1ceed520994cb47922.jpg","date":"2013-07-22","year":2013,"month":7,"lon":36.010277,"lat":31.737778,"tags":"aerial+archaeology,aerial+photography,air+photo,ancient+history,archaeology,large+format+film+original,middle+east","S2CellId":"6a40000000000000","result":6586,"accuracy":0.037749298,"title":"Qasr+el-Mshatta","description":"APAAME_19980513_RHB-0069.jpg"}
{"id":6261406808,"url":"http://farm7.staticflickr.com/6100/6261406808_ba88b7232d.jpg","path":"5d7/ba5/5d7ba5179de1ada873e76eae7a2b11.jpg","date":"2011-10-13","year":2011,"month":10,"lon":36.00779,"lat":31.243477,"tags":"aerial+archaeology,aerial+photography,air+photo,ancient+history,archaeology,middle+east","S2CellId":"1c70000000000000","result":1446,"accuracy":0.14745311,"title":"Siwaqa+Ruins+5","description":"APAAME_20111013_DDB-0024.dng"}
{"id":4616135738,"url":"http://farm4.staticflickr.com/3348/4616135738_320632e418.jpg","path":"899/0c4/8990c4eedde511bed48fbeafb22645d.jpg","date":"2010-05-16","year":2010,"month":5,"lon":36.095165,"lat":31.9114,"tags":"aerial+archaeology,aerial+photography,airphoto,ancient+history,flight+1,flying+2010,jordan,levant,middle+east,near+east,qasr","S2CellId":"8737000000000000","result":7801,"accuracy":0.24048099,"title":"Qasr+el-Maduna","description":"APAAME_20100516_DLK-0026.dng"}
{"id":4209654957,"url":"http://farm5.staticflickr.com/4071/4209654957_4a9217c13d.jpg","path":"959/ed1/959ed14bde859b4ed035a0c742adbe9a.jpg","date":"2009-10-08","year":2009,"month":10,"lon":36.750908,"lat":31.798664,"tags":"amra+pendant+1,flight+5,flying+2009,pendant","S2CellId":"8764000000000000","result":7851,"accuracy":0.06709145,"title":"Amra+Pendant+1","description":"APAAME_20091008_RHB-0593.dng"}
{"id":7289478380,"url":"http://farm8.staticflickr.com/7244/7289478380_b05831ac5f.jpg","path":"4b5/463/4b546334aa317a86a718b16653c8051.jpg","date":"2012-05-20","year":2012,"month":5,"lon":36.71256,"lat":31.984797,"tags":"aerial+archaeology,aerial+photography,air+photo,ancient+history,archaeology,middle+east","S2CellId":"2b40000000000000","result":1520,"accuracy":0.02609162,"title":"Amra+Kite+22","description":"APAAME_20120520_MND-0171.dng"}
{"id":5248672790,"url":"http://farm6.staticflickr.com/5288/5248672790_7ff26a690e.jpg","path":"3a8/523/3a85236a8714b8b990553788bea8ada6.jpg","date":"2009-09-17","year":2009,"month":9,"lon":36.931446,"lat":31.89308,"tags":"aerial+archaeology,aerial+photography,air+photo,ancient+history,digital+camera,flight+1,jordan,levant,middle+east,near+east","S2CellId":"8764000000000000","result":7851,"accuracy":0.06397589,"title":"Azraq+Ancient+Village","description":"APAAME_20090917_NQ-0283.dng"}
{"id":4342115259,"url":"http://farm3.staticflickr.com/2600/4342115259_a0173503a2.jpg","path":"793/c21/793c2181f24f08b3027c3b4a9b3da0.jpg","date":"2008-11-02","year":2008,"month":11,"lon":36.327484,"lat":31.8209,"tags":"aerial+archaeology,flight+8,qasr,qasr+mushash+4+qasr+2","S2CellId":"1c70000000000000","result":1446,"accuracy":0.08321333,"title":"Qasr+Mushash+4+Qasr+2","description":"APAAME_20081102_DLK-0009.dng"}
{"id":5127760285,"url":"http://farm2.staticflickr.com/1177/5127760285_1558347e04.jpg","path":"e09/b48/e09b48d129a2445679a4eede3cc83.jpg","date":"2008-11-02","year":2008,"month":11,"lon":36.76913,"lat":31.91972,"tags":"aerial+archaeology,aerial+photography,air+photo,ancient+history,archaeology,middle+east","S2CellId":"1c70000000000000","result":1446,"accuracy":0.017907416,"title":"Azraq+Wheel+Group+C","description":"APAAME_20081102_MJN-0061.dng"}
{"id":6972174939,"url":"http://farm8.staticflickr.com/7055/6972174939_3587a15ee4.jpg","path":"f9a/1f5/f9a1f5f7e29dd0b3a55d5a4a6a1fbac4.jpg","date":"2011-11-24","year":2011,"month":11,"lon":36.304,"lat":31.2738,"tags":"petra,world+heritage","S2CellId":"1501400000000000","result":1348,"accuracy":0.5600186,"title":"Petra+-+carriage","description":"Estab.+6thC+BC+as+capital+of+Nabataeans.+Famous+for+rock+cut+architecture.+Now+World+Heritage+Site."}
{"id":4324587874,"url":"http://farm5.staticflickr.com/4041/4324587874_73b03e3728.jpg","path":"3ae/fb6/3aefb659eba8c8f7e55f76ba78294033.jpg","date":"2008-10-05","year":2008,"month":10,"lon":36.03371,"lat":31.409224,"tags":"aerial+archaeology,aerial+photography,air+photo,ancient+history,archaeology,middle+east","S2CellId":"8734400000000000","result":7797,"accuracy":0.032482818,"title":"Siwaqa+Twin+Cairns","description":"APAAME_20081005_RHB-0069.dng"}
{"id":7176100893,"url":"http://farm8.staticflickr.com/7229/7176100893_ef281a216c.jpg","path":"a2b/479/a2b4796418558c9f7d76c155791a26d.jpg","date":"2012-05-22","year":2012,"month":5,"lon":36.953796,"lat":31.945152,"tags":"aerial+archaeology,aerial+photography,air+photo,ancient+history,archaeology,middle+east","S2CellId":"8737000000000000","result":7801,"accuracy":0.04251078,"title":"Qasr+Aseikhim","description":"APAAME_20120522_DDB-0675.dng"}
{"id":7447269382,"url":"http://farm8.staticflickr.com/7117/7447269382_2bb39f3cf7.jpg","path":"1e4/187/1e41873e346b1fe25a14652e8b41ec3.jpg","date":"2010-10-10","year":2010,"month":10,"lon":36.792778,"lat":31.911112,"tags":"aerial+archaeology,aerial+photography,air+photo,ancient+history,archaeology,middle+east","S2CellId":"6a40000000000000","result":6586,"accuracy":0.08949994,"title":"Azraq+Wheel+Group+B","description":"APAAME_20051003_RHB-0069.tif"}
{"id":7289233242,"url":"http://farm8.staticflickr.com/7235/7289233242_7cff703636.jpg","path":"c2d/dc5/c2ddc5a3c9f78ac59d4e6e25796d3b.jpg","date":"2012-05-20","year":2012,"month":5,"lon":36.722836,"lat":31.988766,"tags":"aerial+archaeology,aerial+photography,air+photo,ancient+history,archaeology,middle+east","S2CellId":"8737000000000000","result":7801,"accuracy":0.042457234,"title":"Amra+Kite+12","description":"APAAME_20120520_MND-0145.dng"}
{"id":4192525402,"url":"http://farm3.staticflickr.com/2743/4192525402_db05caf4bb.jpg","path":"de9/688/de9688c4fd10b6f8157d9f8945c8493.jpg","date":"2009-09-17","year":2009,"month":9,"lon":36.895054,"lat":31.999756,"tags":"aritein+kite+27,flight+1,jordan,kite","S2CellId":"877c000000000000","result":7905,"accuracy":0.07735593,"title":"Aritein+Kite+27","description":"APAAME_20090917_DLK-0206.dng"}
{"id":5128332478,"url":"http://farm2.staticflickr.com/1102/5128332478_7808b0cebb.jpg","path":"446/060/44606073ff8a4584cb46747025d712c7.jpg","date":"2008-11-02","year":2008,"month":11,"lon":36.750046,"lat":31.907585,"tags":"aerial+archaeology,aerial+photography,air+photo,ancient+history,azraq+wheel+13,digital+camera,flight+8,levant,middle+east,near+east,wheel","S2CellId":"8764000000000000","result":7851,"accuracy":0.0927539,"title":"Azraq+Wheel+13","description":"APAAME_20081102_MJN-0028.dng"}
{"id":6343020305,"url":"http://farm7.staticflickr.com/6091/6343020305_2d24ce76b3.jpg","path":"3d3/242/3d3242e90b2dee619f373700ff211f.jpg","date":"2011-10-27","year":2011,"month":10,"lon":36.792824,"lat":31.907593,"tags":"aerial+archaeology,aerial+photography,air+photo,ancient+history,archaeology,middle+east","S2CellId":"9114000000000000","result":9597,"accuracy":0.007967931,"title":"Azraq+Wheel+Group+B%2C+Azraq+Negative+Work+2","description":"APAAME_20111027_DDB-0017.jpg"}
{"id":4321491163,"url":"http://farm5.staticflickr.com/4045/4321491163_e363a9f235.jpg","path":"26e/bff/26ebffe82318726565518d597a46653.jpg","date":"2008-09-09","year":2008,"month":9,"lon":36.819416,"lat":31.832682,"tags":"aerial+archaeology,azraq+shishan+reservoir,flight+1,reservoir","S2CellId":"4644400000000000","result":2807,"accuracy":0.147584,"title":"Azraq+Shishan+Reservoir","description":"APAAME_20080909_IAR-0185.dng"}
{"id":7175976153,"url":"http://farm9.staticflickr.com/8020/7175976153_3ea19c1a98.jpg","path":"32b/e52/32be529fe725dfc9d1b1ed78b62694e.jpg","date":"2012-05-22","year":2012,"month":5,"lon":36.78896,"lat":31.889126,"tags":"aerial+archaeology,aerial+photography,air+photo,ancient+history,archaeology,middle+east","S2CellId":"7954400000000000","result":6868,"accuracy":0.0058344817,"title":"Azraq+Pendant+39","description":"APAAME_20120522_DLK-0564.dng"}
{"id":4666344577,"url":"http://farm5.staticflickr.com/4060/4666344577_2fe7ed58ac.jpg","path":"d96/c2c/d96c2c63f3d99eb312c8e88ddc9e04b.jpg","date":"2010-05-29","year":2010,"month":5,"lon":36.687508,"lat":31.966097,"tags":"aerial+archaeology,aerial+photography,air+photo,ancient+history,flight+4,flying+2010,jordan,levant,middle+east,near+east","S2CellId":"8737000000000000","result":7801,"accuracy":0.03559799,"title":"Amra+Jellyfish+1","description":"APAAME_20100529_DLK-0344.dng"}
{"id":8656321081,"url":"http://farm9.staticflickr.com/8099/8656321081_5c17bf8b6f.jpg","path":"5d1/386/5d13867e564456ed25f016ab143f4918.jpg","date":"2013-04-12","year":2013,"month":4,"lon":36.573112,"lat":31.325602,"tags":"ancient+history,archaeology,geo%3Acity%3D,geo%3Acountrys%3D,geo%3Astate%3D,ground,middle+east,umayyad","S2CellId":"1c70000000000000","result":1446,"accuracy":0.07773558,"title":"Qasr+et-Tuba","description":"APAAMEG_20130412_DDB-0065.dng"}
{"id":4324505518,"url":"http://farm3.staticflickr.com/2756/4324505518_40eee208de.jpg","path":"567/bb1/567bb125841ba46ecf701b2ab07b10bc.jpg","date":"2008-09-25","year":2008,"month":9,"lon":36.77945,"lat":31.92963,"tags":"aerial+archaeology,aerial+photography,air+photo,ancient+history,archaeology,middle+east","S2CellId":"5351f00000000000","result":6036,"accuracy":0.0074951053,"title":"Azraq+Wheel+Group+D","description":"APAAME_20080925_DLK-0358.dng"}
{"id":7417135784,"url":"http://farm8.staticflickr.com/7123/7417135784_5341d466a1.jpg","path":"3ac/c17/3acc17ef52eeefe7732f973a9290ffe9.jpg","date":"2012-05-25","year":2012,"month":5,"lon":36.95233,"lat":31.945875,"tags":"ancient+history,archaeology,geo%3Acity%3D,geo%3Acountrys%3D,geo%3Astate%3D,ground,middle+east","S2CellId":"406c000000000000","result":2660,"accuracy":0.043934207,"title":"Qasr+Aseikhim","description":"APAAMEG_20120525_MND-0109.dng"}
{"id":4322204682,"url":"http://farm5.staticflickr.com/4006/4322204682_ebc9487bc4.jpg","path":"a4a/7c3/a4a7c33c482d3c1913aeada4543db3.jpg","date":"2008-09-09","year":2008,"month":9,"lon":36.747135,"lat":31.794771,"tags":"aerial+archaeology,amra+kite+7,flight+1,kite,prehistory","S2CellId":"877c000000000000","result":7905,"accuracy":0.014797771,"title":"Amra+Kite+7","description":"APAAME_20080909_IAR-0156.dng"}
{"id":5053683584,"url":"http://farm5.staticflickr.com/4092/5053683584_cbf1f53ea5.jpg","path":"e74/369/e7436956979c525c53a2ee3f59b88c.jpg","date":"2010-10-02","year":2010,"month":10,"lon":36.100964,"lat":31.943577,"tags":"aerial+archaeology,aerial+photography,air+photo,aja+2010_2,ancient+history,flight+5,jordan,levant,middle+east,near+east","S2CellId":"80c7000000000000","result":7223,"accuracy":0.016096653,"title":"Sahab+Pendant+3","description":"APAAME_20101002_DLK-0073.dng"}
{"id":8663480226,"url":"http://farm9.staticflickr.com/8252/8663480226_b7699ca902.jpg","path":"49a/6df/49a6df61f86c7ec61fced7771136b37.jpg","date":"2013-04-14","year":2013,"month":4,"lon":36.09528,"lat":31.914248,"tags":"aerial+archaeology,aerial+photography,air+photo,ancient+history,archaeology,middle+east","S2CellId":"877c000000000000","result":7905,"accuracy":0.021354575,"title":"Qasr+el-Maduna","description":"APAAME_20130414_DLK-0026.jpg"}
{"id":5123282178,"url":"http://farm2.staticflickr.com/1051/5123282178_ca40325932.jpg","path":"d13/8ed/d138ed65dbf3b43fca2d6dddc368047.jpg","date":"2008-09-25","year":2008,"month":9,"lon":36.784954,"lat":31.882513,"tags":"aerial+archaeology,aerial+photography,air+photo,ancient+history,archaeology,middle+east","S2CellId":"8737000000000000","result":7801,"accuracy":0.025477162,"title":"Azraq+Wheel+Group+K","description":"APAAME_20080925_DDB-0221.dng"}
{"id":5128667906,"url":"http://farm2.staticflickr.com/1199/5128667906_a162e9658b.jpg","path":"4ef/b47/4efb475abfda0c95aca814ea3a399.jpg","date":"2008-11-02","year":2008,"month":11,"lon":36.979416,"lat":31.959366,"tags":"aerial+archaeology,aerial+photography,air+photo,ancient+history,azraq+kite+71,digital+camera,flight+8,levant,middle+east,near+east","S2CellId":"877c000000000000","result":7905,"accuracy":0.028854785,"title":"Azraq+Kite+71","description":"APAAME_20081102_KHNQ-0449.dng"}
{"id":5053676448,"url":"http://farm5.staticflickr.com/4085/5053676448_9bdab6e9a8.jpg","path":"99b/f20/99bf206d46a885abe46b7a947f462c9.jpg","date":"2010-10-02","year":2010,"month":10,"lon":36.09633,"lat":31.937733,"tags":"aerial+archaeology,aerial+photography,air+photo,aja+2010_2,ancient+history,flight+5,fort,jordan,levant,middle+east,near+east","S2CellId":"872f000000000000","result":7782,"accuracy":0.14938028,"title":"Sahab+Structure+2","description":"APAAME_20101002_RHB-0074.dng"}
{"id":5123224114,"url":"http://farm5.staticflickr.com/4050/5123224114_7bff06aaa0.jpg","path":"7bf/79d/7bf79d06f3c714ee5b9ad5294cd5.jpg","date":"2008-09-25","year":2008,"month":9,"lon":36.829376,"lat":31.928015,"tags":"aerial+archaeology,aerial+photography,air+photo,ancient+history,archaeology,middle+east","S2CellId":"9114000000000000","result":9597,"accuracy":0.059275433,"title":"Circle+10+%28Aritein%29","description":"APAAME_20080925_DDB-0065.dng"}
{"id":5128341682,"url":"http://farm5.staticflickr.com/4063/5128341682_af4128e8f6.jpg","path":"2e7/e5c/2e7e5c8bf2f11f3febc8c18014bcaf74.jpg","date":"2008-11-02","year":2008,"month":11,"lon":36.804405,"lat":31.940126,"tags":"aerial+archaeology,aerial+photography,air+photo,ancient+history,archaeology,middle+east","S2CellId":"1950000000000000","result":1435,"accuracy":0.037369475,"title":"Azraq+Wheel+Group+E","description":"APAAME_20081102_MJN-0036.dng"}
{"id":4322208674,"url":"http://farm3.staticflickr.com/2695/4322208674_03c701bd29.jpg","path":"621/9e2/6219e28d53b98f929726e52aa2d8b14.jpg","date":"2008-09-09","year":2008,"month":9,"lon":36.727882,"lat":31.84068,"tags":"aerial+archaeology,aerial+photography,air+photo,ancient+history,archaeology,middle+east","S2CellId":"9114000000000000","result":9597,"accuracy":0.043437995,"title":"Amra+Wheel+14","description":"APAAME_20080909_IAR-0161.dng"}
{"id":5047340732,"url":"http://farm5.staticflickr.com/4131/5047340732_d07ef14862.jpg","path":"a8f/361/a8f3615df6d9bd3f59fc1de56c1ae9be.jpg","date":"2010-10-02","year":2010,"month":10,"lon":36.07333,"lat":31.889322,"tags":"aerial+archaeology,aerial+photography,air+photo,aja+2010_2,ancient+history,flight+5,jordan,levant,middle+east,near+east","S2CellId":"808f940000000000","result":7049,"accuracy":0.17270893,"title":"El-Manakhir%3B+Sahab+New+Hwy+2","description":"APAAME_20101002_SES-0017.dng"}
{"id":4191698655,"url":"http://farm3.staticflickr.com/2760/4191698655_cd0ac4610f.jpg","path":"865/8e3/8658e3b97576cae1ff2a6a87ac432f3.jpg","date":"2009-09-17","year":2009,"month":9,"lon":36.329044,"lat":31.826147,"tags":"flight+1,jordan,qasr+mushash,qasr+mushash+5","S2CellId":"877c000000000000","result":7905,"accuracy":0.13344076,"title":"Qasr+Mushash+5","description":"APAAME_20090917_DLK-0017.dng"}
{"id":8656410793,"url":"http://farm9.staticflickr.com/8106/8656410793_9b5d8efdd4.jpg","path":"f5e/f83/f5ef83273a6c5b8b7d5a03b679af15.jpg","date":"2013-04-12","year":2013,"month":4,"lon":36.118393,"lat":31.383518,"tags":"ancient+history,archaeology,geo%3Acity%3D,geo%3Acountrys%3D,geo%3Astate%3D,ground,middle+east","S2CellId":"1c70000000000000","result":1446,"accuracy":0.2826234,"title":"APAAMEG_20130412_MND-0091","description":"APAAMEG_20130412_MND-0091.dng"}
{"id":2251984919,"url":"http://farm3.staticflickr.com/2215/2251984919_1a352efac5.jpg","path":"3b6/4a3/3b64a3daba7ffbf6fd82ef485f76d46.jpg","date":"2008-01-26","year":2008,"month":1,"lon":36.816902,"lat":31.828419,"tags":"azraq,river,water,wetland","S2CellId":"40bc000000000000","result":2689,"accuracy":0.40793028,"title":"Azraq+Wetland+Reserve","description":"Jordan"}
{"id":4191717433,"url":"http://farm3.staticflickr.com/2500/4191717433_cd1d507130.jpg","path":"adb/cb4/adbcb41b878f11426389ec8a747c738b.jpg","date":"2009-09-17","year":2009,"month":9,"lon":36.809986,"lat":31.865112,"tags":"azraq+kite+46+%28rees+a%29,flight+1,jordan,kite","S2CellId":"9114000000000000","result":9597,"accuracy":0.01784083,"title":"Azraq+Kite+46+%28Rees+A%29","description":"APAAME_20090917_DLK-0065.dng"}
{"id":5127746667,"url":"http://farm2.staticflickr.com/1378/5127746667_ec07c6bdde.jpg","path":"b3a/ad4/b3aad4921943e4fe0fdfae04277578a.jpg","date":"2008-11-02","year":2008,"month":11,"lon":36.777172,"lat":31.928648,"tags":"aerial+archaeology,aerial+photography,air+photo,ancient+history,archaeology,middle+east","S2CellId":"5351f00000000000","result":6036,"accuracy":0.032905098,"title":"Azraq+Wheel+Group+D","description":"APAAME_20081102_KHNQ-0057.dng"}
{"id":6972187567,"url":"http://farm8.staticflickr.com/7179/6972187567_e4e6da6f1a.jpg","path":"4e3/f20/4e3f205240936c567e67999a3c4ffc7.jpg","date":"2011-11-24","year":2011,"month":11,"lon":36.304,"lat":31.2738,"tags":"donkeys,petra,world+heritage","S2CellId":"1501400000000000","result":1348,"accuracy":0.72575045,"title":"Petra","description":"Estab.+6thC+BC+as+capital+of+Nabataeans.+Famous+for+rock+cut+architecture.+Now+World+Heritage+Site."}
{"id":3240271639,"url":"http://farm4.staticflickr.com/3495/3240271639_8b4ec24076.jpg","path":"f6c/134/f6c1343e03bdd90e74ac1173cfc89.jpg","date":"2008-06-10","year":2008,"month":6,"lon":36.7883,"lat":31.2496,"tags":"jordan,middle+east,petra,travel","S2CellId":"3fb0000000000000","result":2634,"accuracy":0.030927876,"title":"DSC04384.JPG"}
{"id":4191695407,"url":"http://farm3.staticflickr.com/2754/4191695407_6e3c8c0244.jpg","path":"d59/fe6/d59fe682615e258d462cdcc89ca07339.jpg","date":"2009-09-17","year":2009,"month":9,"lon":36.31772,"lat":31.823586,"tags":"flight+1,jordan,mushash+qasr+mushash+6+reservoir,qasr+mushash,reservoir,umayyad","S2CellId":"1c70000000000000","result":1446,"accuracy":0.18298554,"title":"Mushash+Qasr+Mushash+6+Reservoir","description":"APAAME_20090917_DLK-0007.dng"}
{"id":7289145086,"url":"http://farm9.staticflickr.com/8004/7289145086_734fc1df29.jpg","path":"d6c/3f9/d6c3f9d3ed4f34b38d4db1cd82d273.jpg","date":"2012-05-20","year":2012,"month":5,"lon":36.71956,"lat":31.983624,"tags":"aerial+archaeology,aerial+photography,air+photo,ancient+history,archaeology,middle+east","S2CellId":"1c70000000000000","result":1446,"accuracy":0.042918604,"title":"Amra+Kite+12","description":"APAAME_20120520_DLK-0120.dng"}
{"id":5078518364,"url":"http://farm5.staticflickr.com/4048/5078518364_a4b2c94630.jpg","path":"8be/363/8be36373d4568b341fe8246c93aa8b9.jpg","date":"2010-10-02","year":2010,"month":10,"lon":36.015724,"lat":31.99806,"tags":"aerial+archaeology,aerial+photography,air+photo,aja+2010_2,ancient+history,flight+5,jordan,levant,middle+east,near+east","S2CellId":"151cc00000000000","result":1380,"accuracy":0.22667702,"title":"Schneller+School","description":"APAAME_20101002_DLK-0565.dng"}
{"id":8740006487,"url":"http://farm8.staticflickr.com/7292/8740006487_1d19ddba89.jpg","path":"c19/19d/c1919dc86ebb4e9c25b77d6ad54c263.jpg","date":"2013-04-30","year":2013,"month":4,"lon":36.132072,"lat":31.799313,"tags":"ancient+history,archaeology,geo%3Acity%3D,geo%3Acountrys%3D,geo%3Astate%3D,ground,middle+east","S2CellId":"151cc00000000000","result":1380,"accuracy":0.08038,"title":"Muwaqqar+Area","description":"APAAMEG_20130430_REB-0051.dng"}
{"id":5248376898,"url":"http://farm6.staticflickr.com/5164/5248376898_0f81709077.jpg","path":"87f/6c2/87f6c234eec1d7205a38f792a07d91f.jpg","date":"2009-09-17","year":2009,"month":9,"lon":36.744774,"lat":31.792536,"tags":"aerial+archaeology,aerial+photography,air+photo,ancient+history,digital+camera,flight+1,jordan,levant,middle+east,near+east","S2CellId":"809f000000000000","result":7130,"accuracy":0.0030057654,"title":"Amra+Rings+of+Rings+2","description":"APAAME_20090917_KRH-0046.dng"}
