{"id":8465974693,"url":"http://farm9.staticflickr.com/8375/8465974693_ff1cab692c.jpg","path":"4c3/c70/4c3c704c428a956b4f110aab252788.jpg","date":"2013-02-10","year":2013,"month":2,"lon":23.911808,"lat":54.870586,"tags":"2013,aleksotas,botanikos+sodas,kaunas,kauno+botanikos+sodas,mardi+gras,mor%C4%97,u%C5%BEgav%C4%97n%C4%97s","S2CellId":"475d000000000000","result":3308,"accuracy":0.30369827,"title":"U%C5%BEgav%C4%97n%C4%97s","description":"Aleksoto+bendruomen%C4%97s+u%C5%BEgav%C4%97n%C4%97s+Kauno+botanikos+sode"}
{"id":4875645021,"url":"http://farm5.staticflickr.com/4120/4875645021_6c55f24fe7.jpg","path":"772/0f1/7720f1b376c91738defc2f92c6b07135.jpg","date":"2010-08-07","year":2010,"month":8,"lon":23.24979,"lat":54.003178,"tags":"canoe,czarna+ha%C5%84cza,kajak,kayak,sp%C5%82yw,sp%C5%82yw+kajakowy","S2CellId":"5290000000000000","result":5967,"accuracy":0.053049844,"title":"a82010_08079953"}
{"id":3701545999,"url":"http://farm4.staticflickr.com/3040/3701545999_53fdfa3b2a.jpg","path":"fbf/b47/fbfb47b353401d7d59e3c2eaf87c8a1.jpg","date":"2009-07-03","year":2009,"month":7,"lon":23.871918,"lat":54.94337,"tags":"holocaust,kaunas,lietuva,lithuania,nazis,occupation,soviets","S2CellId":"4712900000000000","result":3195,"accuracy":0.046834018,"title":"IX+Fort+barracks"}
{"id":190707685,"url":"http://farm1.staticflickr.com/58/190707685_a0583b04f0.jpg","path":"e88/810/e888102c72e8ac4db4fad932f69e4299.jpg","date":"2006-07-15","year":2006,"month":7,"lon":23.918266,"lat":54.9006,"tags":"kaunas,lithuania","S2CellId":"479e75f400000000","result":3855,"accuracy":0.02175878,"description":"Cathedral+of+Kaunas"}
{"id":5025856002,"url":"http://farm5.staticflickr.com/4133/5025856002_6cf13743b0.jpg","path":"ced/1f3/ced1f31a816339d76921de7776ced2a0.jpg","date":"2010-09-12","year":2010,"month":9,"lon":23.907967,"lat":54.899117,"tags":"kaunas,lietuva,lithuania,summicron28","S2CellId":"47c4700000000000","result":4266,"accuracy":0.018327385,"title":"Sainte-Gertrude+contre+un+mur"}
{"id":4506425098,"url":"http://farm5.staticflickr.com/4007/4506425098_638783bcfd.jpg","path":"ef4/af0/ef4af0f6d0eef33cce5ace483953e11.jpg","date":"2010-04-04","year":2010,"month":4,"lon":23.875383,"lat":54.899494,"tags":"lithuania,litouwen","S2CellId":"4879440000000000","result":5477,"accuracy":0.087829985,"title":"IMG_3368"}
{"id":12360126945,"url":"http://farm8.staticflickr.com/7409/12360126945_46c2e7900d.jpg","path":"6ac/172/6ac172b564a1b3ad1e2d9d9fe322cb7d.jpg","date":"2014-02-07","year":2014,"month":2,"lon":23.914457,"lat":54.890423,"tags":"2014,baskets+akademie+weser+ems,kaunas,litauen,nijt,porsche+bba+ludwigsburg,tag+2","S2CellId":"89e379f000000000","result":9339,"accuracy":0.034524288,"title":"20140207-DSC02258_LR"}
{"id":4876218240,"url":"http://farm5.staticflickr.com/4136/4876218240_8c8dd623d8.jpg","path":"4e9/9ce/4e99cec031a1497d4cbb3d8c98a8aa7.jpg","date":"2010-08-07","year":2010,"month":8,"lon":23.228064,"lat":54.019676,"tags":"canoe,czarna+ha%C5%84cza,kajak,kayak,sp%C5%82yw,sp%C5%82yw+kajakowy","S2CellId":"47c8700000000000","result":4391,"accuracy":0.16490225,"title":"a82010_08079921"}
{"id":7414948918,"url":"http://farm8.staticflickr.com/7277/7414948918_f4e2c06733.jpg","path":"342/c7b/342c7ba13b2f32cddde5b012e1afb.jpg","date":"2012-06-18","year":2012,"month":6,"lon":23.059872,"lat":54.233437,"tags":"baltic+rally,baltichero,latvia,lithuania,poland,warsaw","S2CellId":"87e3000000000000","result":8029,"accuracy":0.013132243,"title":"DSC_1911.jpg"}
{"id":12347531065,"url":"http://farm8.staticflickr.com/7411/12347531065_3ebf9f4254.jpg","path":"f2a/6fd/f2a6fd6cbb3cd127d56462c431d8e61.jpg","date":"2014-02-06","year":2014,"month":2,"lon":23.914457,"lat":54.890423,"tags":"2014,baskets+akademie+weser+ems,bezirk+kaunas,kaunas,litauen,nijt,porsche+bba+ludwigsburg","S2CellId":"0d379c0000000000","result":323,"accuracy":0.008246056,"title":"20140206-DSC02049_LR"}
{"id":5211648636,"url":"http://farm5.staticflickr.com/4152/5211648636_e3306637f9.jpg","path":"5b8/ae4/5b8ae440c5f38a3180fe41872ab96feb.jpg","date":"2010-08-01","year":2010,"month":8,"lon":23.089613,"lat":54.06896,"tags":"*camedolite,kamedu%C5%82%C3%B3w,monastery+klasztor,poland,summer,suwa%C5%82ki,wigry","S2CellId":"0716140000000000","result":87,"accuracy":0.022955045,"title":"_DSC0455.jpg","description":"%C2%A0"}
{"id":4822352254,"url":"http://farm5.staticflickr.com/4140/4822352254_078a6b6cef.jpg","path":"e83/da9/e83da98f634894e5411279d2745e66.jpg","date":"2010-07-17","year":2010,"month":7,"lon":23.081839,"lat":54.052303,"tags":"animals,bird,europa,europe,kormoran,podlaskie,poland,polska,ptak,publiczne,wigry,zwierz%C4%99ta","S2CellId":"866c000000000000","result":7681,"accuracy":0.01668456,"title":"Start+z+wody"}
{"id":8541646272,"url":"http://farm9.staticflickr.com/8247/8541646272_6310c516c0.jpg","path":"533/cb7/533cb7983b4e95b82d878fbcef88afb6.jpg","date":"2013-03-09","year":2013,"month":3,"lon":23.908432,"lat":54.897495,"tags":"instagram+app,iphoneography,square,square+format","S2CellId":"12a4a2f640000000","result":731,"accuracy":0.011052329,"title":"Canele"}
{"id":4876238032,"url":"http://farm5.staticflickr.com/4143/4876238032_90af5b5fdf.jpg","path":"40c/ef8/40cef84cf462ae8e1571e75cefe558c7.jpg","date":"2010-08-07","year":2010,"month":8,"lon":23.23611,"lat":54.007614,"tags":"canoe,czarna+ha%C5%84cza,kajak,kayak,sp%C5%82yw,sp%C5%82yw+kajakowy","S2CellId":"5488c00000000000","result":6153,"accuracy":0.048612382,"title":"a82010_08079939"}
