{"id":4072573940,"url":"http://farm3.staticflickr.com/2592/4072573940_ba8e8b090b.jpg","path":"36a/ecb/36aecbfeeda7ed0c6df236b8173c9e2.jpg","date":"2009-10-04","year":2009,"month":10,"lon":127.056496,"lat":37.487846,"tags":"2009,grafitti,jamie,korea,letsbook,seoul","S2CellId":"9689f00000000000","result":9911,"accuracy":0.067019865,"title":"Sweet+Grafitti"}
{"id":3202735880,"url":"http://farm4.staticflickr.com/3474/3202735880_9a96f9d871.jpg","path":"8db/fca/8dbfcabe9d5e317f62167797721450ed.jpg","date":"2009-01-07","year":2009,"month":1,"lon":127.047844,"lat":37.506172,"tags":"seoul,south+korea","S2CellId":"357ca2f000000000","result":2313,"accuracy":0.12229491,"title":"Newsstand"}
{"id":4508470390,"url":"http://farm3.staticflickr.com/2383/4508470390_70776f4afe.jpg","path":"bd5/e62/bd5e623b46bf4027f38824e31cc53c.jpg","date":"2010-04-10","year":2010,"month":4,"lon":127.07467,"lat":37.525333,"tags":"korea,seoul,tesco","S2CellId":"6018894000000000","result":6464,"accuracy":0.06419761,"title":"Cold+jellyfish+and+vegetable","description":"mouth+watering+ready+meal+from+Tesco+Korea.+Would+be+an+instant+hit+back+in+England+%3A-%29%29%29"}
{"id":10051301173,"url":"http://farm3.staticflickr.com/2831/10051301173_2e02220b2d.jpg","path":"2c6/b6b/2c6b6b2cbf3ae3e0a49eeeed5acc56f.jpg","date":"2013-09-19","year":2013,"month":9,"lon":127.49056,"lat":37.715034,"tags":"%EA%B2%BD%EA%B8%B0%EB%8F%84,%EB%8C%80%ED%95%9C%EB%AF%BC%EA%B5%AD,%EC%81%98%EB%9D%A0%ED%94%84%EB%9E%91%EC%8A%A4,%ED%95%9C%EA%B5%AD,2013,asia,gyeonggi-do,korea,petite+france,september,south+korea","S2CellId":"0d1edc0000000000","result":248,"accuracy":0.07855859,"title":"IMG_7493.jpg"}
{"id":1819900286,"url":"http://farm3.staticflickr.com/2413/1819900286_1bfeb308e0.jpg","path":"4d7/959/4d79598e3740e8cbaf55b0e621cba77.jpg","date":"2007-10-19","year":2007,"month":10,"lon":127.171036,"lat":37.423344,"tags":"exhibition,seoul,travel","S2CellId":"80c2c7f000000000","result":7209,"accuracy":0.09379709,"title":"Boeing+planes"}
{"id":9364113287,"url":"http://farm3.staticflickr.com/2835/9364113287_61cc01b4c7.jpg","path":"f79/8f1/f798f15d99ab7169b8733842dbb33e48.jpg","date":"2013-07-24","year":2013,"month":7,"lon":127.02167,"lat":37.2985,"tags":"%EC%A3%BC%EB%AF%BC%EC%B0%B8%EC%97%AC%EC%98%88%EC%82%B0+%ED%98%84%EC%9E%A5%EB%8B%B5%EC%82%AC,cctv","S2CellId":"357cbc0000000000","result":2320,"accuracy":0.04123837}
{"id":6904624055,"url":"http://farm8.staticflickr.com/7178/6904624055_3341c49731.jpg","path":"e9a/881/e9a88138bbc15cb69893155b2924c66.jpg","date":"2012-02-08","year":2012,"month":2,"lon":127.059166,"lat":37.512165,"tags":"%E1%84%80%E1%85%B5%E1%86%B7%E1%84%92%E1%85%AD%E1%84%92%E1%85%B4,%E1%84%86%E1%85%A2%E1%86%A8%E1%84%8C%E1%85%AE%E1%84%8E%E1%85%A1%E1%86%BC%E1%84%80%E1%85%A9,%E1%84%86%E1%85%A9%E1%84%8B%E1%85%B5%E1%86%B7,%E1%84%8B%E1%85%A5%E1%84%83%E1%85%A9%E1%84%87%E1%85%B5","S2CellId":"880e2cd000000000","result":8129,"accuracy":0.005132613,"title":"%EB%A7%A5%EC%A3%BC%EC%B0%BD%EA%B3%A0+w+%EA%B3%B0%ED%9A%A8%ED%9D%AC+-+05","description":"%EC%96%B4%EB%8F%84%EB%B9%84%EC%BD%94%EB%A6%AC%EC%95%84%EC%9D%98+%EA%B3%B0%ED%9A%A8%ED%9D%AC%EC%94%A8%EC%99%80+%EB%A7%A5%EC%A3%BC%EC%B0%BD%EA%B3%A0+%EC%9D%BC%EC%9E%94"}
{"id":9520840786,"url":"http://farm6.staticflickr.com/5546/9520840786_9ecd600fc2.jpg","path":"5fb/528/5fb528b7f382863244063d62761673d.jpg","date":"2013-08-14","year":2013,"month":8,"lon":127.177986,"lat":37.60891,"tags":"photo+stream","S2CellId":"3442a9b000000000","result":2057,"accuracy":0.03791761}
{"id":6789864764,"url":"http://farm8.staticflickr.com/7049/6789864764_74f48b9345.jpg","path":"92c/ae4/92cae45781631ce335ae356b02222.jpg","date":"2012-02-27","year":2012,"month":2,"lon":127.07433,"lat":37.391,"tags":"azabu,blue,bokeh,cafe,cameraphone,dof,furniture,gyeonggi,gyeonggi-do,hipstakorea,hipstamatic,instagram,iphone,iphonography,korea,light,red,tea","S2CellId":"5f0b2c0000000000","result":6349,"accuracy":0.00707352,"title":"Tea"}
{"id":9520801306,"url":"http://farm8.staticflickr.com/7451/9520801306_aa2df3a7f1.jpg","path":"20c/461/20c461fb72f1f12876a4baea403365de.jpg","date":"2013-08-14","year":2013,"month":8,"lon":127.177925,"lat":37.60899,"tags":"photo+stream","S2CellId":"357cb40000000000","result":2319,"accuracy":0.8492317}
{"id":6444105843,"url":"http://farm8.staticflickr.com/7003/6444105843_d29edf5999.jpg","path":"27b/41c/27b41ce5f69cec9e2223c0b3646f76d5.jpg","date":"2011-10-11","year":2011,"month":10,"lon":127.05976,"lat":37.513893,"tags":"camera,d7000,gangnam,nikkor+afs+12-24mm+f4+g+ed+dx,nikon,seoul,south+korea,travels","S2CellId":"60188be400000000","result":6481,"accuracy":0.03614437,"title":"Gangnam+at+Night"}
{"id":10606407095,"url":"http://farm6.staticflickr.com/5535/10606407095_466d140c8f.jpg","path":"394/329/394329ab8b6ecd62977833db6be76da.jpg","date":"2013-07-16","year":2013,"month":7,"lon":127.0265,"lat":37.4975,"tags":"seoul,south+korea","S2CellId":"88e77e4000000000","result":8673,"accuracy":0.17839962,"title":"IMG_0277.jpg"}
{"id":5505451612,"url":"http://farm6.staticflickr.com/5252/5505451612_6cb66d391a.jpg","path":"707/553/70755338cb765ae6c8523d7cd24857.jpg","date":"2008-10-12","year":2008,"month":10,"lon":127.073105,"lat":37.515003,"tags":"%E5%A4%A7%E9%9F%93%E6%B0%91%E5%9C%8B,%E9%9F%93%E5%9C%8B,%EB%8C%80%ED%95%9C%EB%AF%BC%EA%B5%AD,%EC%84%9C%EC%9A%B8,%ED%95%9C%EA%B5%AD,2008,jamsil,kia,korea,republic+of+korea,seoul,seoul+design+olympiad,south+korea","S2CellId":"880e2b7000000000","result":8112,"accuracy":0.12054776,"title":"Kia+Soul+4U+%28Korea+Domestic%29","description":"A+brand-new+model+just+unveiled+for+Autumn+2008%3A+the+Kia+Soul.+Kia+has+this+promotional+stand+at+Seoul+Design+Olympiad+to+get+the+customers+to+have+a+look.%0A%0AThe+domestic+Soul+can+be+had+in+the+trim+levels+2U+and+4U%2C+and+offers+a+choice+of+three+engines%3A+1.6L+and+2.0L+gasoline+engines%2C+and+a+1.6L+diesel+engine.+Transmissions+are+5-speed+manual+or+4-speed+automatic.%0A%0AI+was+honestly+a+bit+let+down%2C+as+rear+brakes+were+old-fashioned+drums%2C+with+no+disc+brake+availability+upon+launch.%0A%0ASix+months+later%2C+I+would+start+seeing+the+Soul+stateside+as+well%2C+with+many+of+the+deficiencies+well+addressed+for+the+US+market.+In+fact%2C+the+Soul+had+been+designed+in+California+and+was+really+intended+primarily+for+the+US."}
{"id":339048558,"url":"http://farm1.staticflickr.com/139/339048558_daa9946dbd.jpg","path":"5cf/25a/5cf25ac1e7857da266ebefc7d71071f2.jpg","date":"2006-12-30","year":2006,"month":12,"lon":127.09894,"lat":37.511906,"tags":"church,year-end","S2CellId":"3442ac4000000000","result":2082,"accuracy":0.03695219,"title":"%EB%8F%99%ED%98%84%2C+%EC%8A%B9%EB%AA%A9","description":"%EC%A4%91%EA%B5%AD%EC%9A%94%EB%A6%AC+%E3%85%8B"}
{"id":11700664124,"url":"http://farm8.staticflickr.com/7316/11700664124_87cbfd5022.jpg","path":"a07/835/a0783575e3fd1c75bbd3151935318f70.jpg","date":"2014-01-02","year":2014,"month":1,"lon":127.03805,"lat":37.481865,"tags":"instagram+app,iphoneography,square,square+format","S2CellId":"47954f0000000000","result":3742,"accuracy":0.011351846,"title":"2014%EB%85%84+1%EC%9B%94%EC%9E%85%EB%8B%88%EB%8B%A4%21+%2335%EC%84%B8%EB%9D%BC%EB%8B%88+%232014+%23calendar+%23cal+%23jan+%231%EC%9B%94+%23%EB%A0%88%EA%B3%A0+%23lego+%23legos"}
{"id":1171191776,"url":"http://farm2.staticflickr.com/1233/1171191776_fb84bec8c2.jpg","path":"f2d/3c6/f2d3c68811799e9a1cf88b54215a364.jpg","date":"2007-07-02","year":2007,"month":7,"lon":127.038605,"lat":37.55805,"tags":"korea,wangshimni","S2CellId":"60188d3000000000","result":6509,"accuracy":0.02869879,"title":"Good+Ol%27+Wangshimni","description":"A+shot+of+the+street+I+walk+on+just+about+every+day+on+my+way+to+work."}
{"id":4344476313,"url":"http://farm5.staticflickr.com/4014/4344476313_0023a8daf5.jpg","path":"f8d/657/f8d65776ae24fe765658fb139fef255.jpg","date":"2010-02-10","year":2010,"month":2,"lon":127.02567,"lat":37.500164,"tags":"google,googlebuzz,mobile","S2CellId":"357ca10000000000","result":2308,"accuracy":0.14533865}
{"id":8650457779,"url":"http://farm9.staticflickr.com/8263/8650457779_c59c577d6b.jpg","path":"30a/e52/30ae52362f3033db65f2e5fad9e335.jpg","date":"2011-11-05","year":2011,"month":11,"lon":127.118614,"lat":37.2589,"tags":"animals,korea","S2CellId":"4879440000000000","result":5477,"accuracy":0.026968287,"title":"2011-05_KoreaFolkVillage_0014"}
{"id":10051166885,"url":"http://farm6.staticflickr.com/5333/10051166885_b3df955d00.jpg","path":"32c/896/32c896dc23523c571e77f5c8f415.jpg","date":"2013-09-19","year":2013,"month":9,"lon":127.49056,"lat":37.715034,"tags":"%EA%B2%BD%EA%B8%B0%EB%8F%84,%EB%8C%80%ED%95%9C%EB%AF%BC%EA%B5%AD,%EC%81%98%EB%9D%A0%ED%94%84%EB%9E%91%EC%8A%A4,%ED%95%9C%EA%B5%AD,2013,asia,gyeonggi-do,korea,petite+france,september,south+korea","S2CellId":"4772c00000000000","result":3389,"accuracy":0.07994275,"title":"IMG_7464.jpg"}
{"id":4420784841,"url":"http://farm3.staticflickr.com/2774/4420784841_7d869c4c41.jpg","path":"847/5eb/8475ebb6dc74e7142e9f0325fdb8e.jpg","date":"2010-03-10","year":2010,"month":3,"lon":127.03448,"lat":37.4998,"tags":"%EC%97%85%EB%AC%B4,work","S2CellId":"12a498c000000000","result":700,"accuracy":0.008667686}
{"id":3355120789,"url":"http://farm4.staticflickr.com/3587/3355120789_917f411ce6.jpg","path":"4f7/23c/4f723c75958a994404feed571301c.jpg","date":"2009-02-19","year":2009,"month":2,"lon":127.005646,"lat":37.439377,"tags":"national+science+museum,sal-1680z,silver+bell,sony+a350","S2CellId":"357cf00000000000","result":2322,"accuracy":0.03512364,"title":"Bell"}
{"id":8429705677,"url":"http://farm9.staticflickr.com/8188/8429705677_307b77e9e8.jpg","path":"b6f/adf/b6fadf92b4c1f7af7a621831e1463d0.jpg","date":"2013-01-30","year":2013,"month":1,"lon":127.06133,"lat":37.590332,"tags":"korea,nightshot,seoul,south+korea","S2CellId":"346e76c000000000","result":2219,"accuracy":0.03476927,"title":"%EB%A7%9B%EC%A7%91%2C+%EA%B2%BD%EB%B0%9C%EB%A3%A8%2C+%ED%9A%8C%EA%B8%B0%EC%97%AD+%EB%B6%80%EA%B7%BC","description":"%ED%9A%8C%EA%B8%B0%EC%97%AD+%EB%B6%80%EA%B7%BC+%EC%8B%9C%EA%B0%84%EC%9D%B4+%EB%A9%88%EC%B6%94%EC%96%B4+%EB%B2%84%EB%A6%B0+%EC%A4%91%EA%B5%AD%EC%A7%91.%0A%0A%ED%95%9C%EA%B2%B0%EA%B0%99%EC%9D%80+%EC%9A%94%EB%A6%AC%EC%97%90+%EB%8C%80%ED%95%9C+%EB%A7%9B%EA%B3%BC+%EC%9B%90%EC%B9%99%EC%9D%84+%EC%A7%80%EC%BC%9C%EA%B0%80%EB%8A%94+%EA%B9%90%ED%92%8D%EA%B8%B0%EB%A5%BC+%EC%9E%98%ED%95%98%EB%8A%94+%EC%A4%91%EA%B5%AD%EB%B6%84%EC%9D%B4+%ED%95%98%EB%8A%94+%EC%9D%8C%EC%8B%9D%EC%A0%90%EC%9D%B4%EC%97%90%EC%9A%94.+%0A%0A%EA%B2%BD%EB%B0%9C%EB%A3%A8%EC%9D%98+%EA%B9%90%ED%92%8D%EA%B8%B0%EB%A5%BC+%ED%95%9C%EC%9E%85+%EB%A8%B9%EB%8A%94+%EC%88%9C%EA%B0%84...+%0A%EB%8C%80%EB%A7%8C%EC%9C%BC%EB%A1%9C+%EA%B0%84%EB%93%AF%ED%95%9C+%EA%B8%B0%EB%B6%84%EC%9D%B4+%EB%93%A4%EC%97%88%EC%96%B4%EC%9A%94.+%0A%ED%95%9C%EA%B5%AD%ED%99%94%EB%90%9C+%EA%B9%90%ED%92%8D%EA%B8%B0%EA%B0%80+%EC%95%84%EB%8B%8C+%EC%A7%84%EC%A7%9C+%EC%A4%91%EA%B5%AD%EC%8B%9D+%EA%B9%90%ED%92%8D%EA%B8%B0%EC%9E%85%EB%8B%88%EB%8B%A4.+%EC%A3%BC%EB%AC%B8+%EC%A6%89%EC%8B%9C+%EC%9A%94%EB%A6%AC%EB%A5%BC+%ED%95%98%EA%B3%A0+%EB%A7%A4%EC%9A%B0%EB%A9%B4%EC%84%9C%EB%8F%84+%EA%B9%A8%EB%81%97%ED%95%9C+%EB%A7%9B%EC%9D%84+%EB%8A%90%EB%82%84+%EC%88%98+%EC%9E%88%EC%8A%B5%EB%8B%88%EB%8B%A4.+%0A%0A%ED%95%9C%EA%B5%AD%ED%99%94+%EB%90%98%EC%96%B4+%EC%AA%BC%EA%B8%88+%EC%95%84%EC%89%AC%EC%9A%B4%EA%B1%B4+%ED%96%A5%EC%8B%A0%EB%A3%8C%EC%95%BC%EC%B1%84%EA%B0%80+%EC%95%88%EB%93%A4%EC%96%B4%EA%B0%80%EC%84%9C+%ED%95%9C%EA%B5%AD%EC%8B%9D+%EB%A7%9B%EC%9D%B4%EC%A7%80%EB%A7%8C+%EA%B7%B8%EB%9E%98%EC%84%9C+%EB%8D%94+%EC%9D%BC%ED%92%88%EC%9D%B4+%EB%90%9C+%EA%B9%90%ED%92%8D%EA%B8%B0%EC%9E%85%EB%8B%88%EB%8B%A4.%0A%0A%EC%A4%91%EA%B5%AD+%EC%8A%A4%ED%83%80%EC%9D%BC%EC%9D%98+%EB%98%90%EB%8B%A4%EB%A5%B8+%EB%A7%A4%EC%9A%B4%EB%A7%9B%EC%9E%85%EB%8B%88%EB%8B%A4.%0A%0A%EB%98%90%ED%95%9C+%EC%A7%AC%EB%BD%95%EC%97%AD%EC%8B%9C+%EC%A4%91%EA%B5%AD%EC%8A%A4%ED%83%80%EC%9D%BC%EC%9D%98+%ED%9D%B0%EA%B5%AD%EB%AC%BC+%EB%B2%A0%EC%9D%B4%EC%8A%A4%EC%97%90+%EA%B3%A0%EC%B6%94%EC%9D%98+%EB%A7%A4%EC%9A%B4%EB%A7%9B%EC%9D%B4+%EB%93%A4%EC%96%B4%EA%B0%80%EC%9E%88%EC%8A%B5%EB%8B%88%EB%8B%A4.+%ED%95%9C%EA%B5%AD%EA%B3%A0%EC%B6%A7%EA%B0%80%EB%A3%A8%EC%9D%98+%EB%A7%A4%EC%9A%B4%EB%A7%9B%EC%9D%B4+%EC%95%84%EB%8B%88%EB%8B%88+%EA%B2%BD%EB%B0%9C%EB%A3%A8+%EC%8A%A4%ED%83%80%EC%9D%BC%EC%9D%98+%EC%A7%AC%EB%BD%95%EC%9D%84+%EC%A6%90%EA%B2%A8%EC%A3%BC%EC%84%B8%EC%9A%94%7E+%0A%0A*%EC%A3%BC%EC%9D%98.+%ED%98%84%EA%B8%88%EC%9D%84+%EC%B0%BE%EC%95%84%EA%B0%80%EC%85%94%EC%95%BC+%ED%95%A9%EB%8B%88%EB%8B%A4.+%EC%A0%80%EB%85%81+9%EC%8B%9C+%EC%A0%84%EC%97%90+%EA%B0%80%EC%95%BC+%EC%9A%94%EB%A6%AC%EB%A5%BC+%EB%A8%B9%EC%9D%84+%EC%88%98+%EC%9E%88%EC%8A%B5%EB%8B%88%EB%8B%A4.+%0A*%EC%8B%9D%EB%8B%B9+%EC%95%9E+%EC%9D%B4%EB%A9%B4%EB%8F%84%EB%A1%9C+%EC%A3%BC%EC%B0%A8%EB%8A%94+%EC%98%A4%ED%9B%84+7%EC%8B%9C+%EB%84%88%EB%A8%B8%EB%8A%94+%EB%AC%B4%EB%A3%8C%EB%9E%98%EC%9A%94."}
{"id":5158222300,"url":"http://farm2.staticflickr.com/1436/5158222300_53cdc195e4.jpg","path":"5dc/e51/5dce515baadee3f795d4a3ed58e13bad.jpg","date":"2010-11-08","year":2010,"month":11,"lon":127.02883,"lat":37.506165,"tags":"%E9%9F%93%E5%9C%8B,%E9%A6%96%E7%88%BE,2010,korea,seoul","S2CellId":"357ca2f000000000","result":2313,"accuracy":0.021698322,"title":"%E5%85%B6%E5%AF%A6%E6%98%AF%E9%BB%9E%E4%BA%86%E5%85%A9%E9%81%93%E8%80%8C%E5%B7%B2"}
{"id":260625467,"url":"http://farm1.staticflickr.com/85/260625467_74309b220c.jpg","path":"158/5ae/1585aef2cdc14a7a6f75597ca0e2d24e.jpg","date":"2005-10-29","year":2005,"month":10,"lon":127.119026,"lat":37.401527,"tags":"%EA%B7%B8%EB%A6%BC%EC%A0%84,%EC%83%81%EB%A1%9D%EB%86%80%EC%9D%B4%EB%B0%A9,%EC%9E%AC%EC%9B%90%EC%9D%B4","S2CellId":"477b100000000000","result":3439,"accuracy":0.030275753,"title":"STA40433"}
{"id":8285753,"url":"http://farm1.staticflickr.com/5/8285753_91782f1477.jpg","path":"c4a/16e/c4a16ebe30ccaf665ef4e8b353be9cf0.jpg","date":"2005-04-03","year":2005,"month":4,"lon":127.00676,"lat":37.262985,"tags":"asia,folk+village,korea,traditional","S2CellId":"3568900000000000","result":2283,"accuracy":0.19485618,"title":"P1000537"}
{"id":324879206,"url":"http://farm1.staticflickr.com/142/324879206_8c5fa8de33.jpg","path":"d94/366/d9436639f073a7f26c796bd222f9f.jpg","date":"2006-12-17","year":2006,"month":12,"lon":127.056885,"lat":37.647945,"tags":"%23bebouchard%23,city,korea,seoul,winter","S2CellId":"89d4d40000000000","result":9260,"accuracy":0.1451011,"title":"steetlamp"}
{"id":3379258201,"url":"http://farm4.staticflickr.com/3460/3379258201_6de4d2ee92.jpg","path":"228/719/228719ae9f35fd8dfc5cf99457e8a583.jpg","date":"2009-03-21","year":2009,"month":3,"lon":127.044525,"lat":37.73746,"tags":"%EA%B2%BD%EA%B8%B0%EB%8F%84,%EB%8F%84%EB%B6%95%EC%82%B0,%EC%9D%98%EC%A0%95%EB%B6%80,3%EC%9B%94,dobongsan,gyeonggi-do,korea,march,uiijeongbu","S2CellId":"12db000000000000","result":937,"accuracy":0.028314125,"title":"IMG_5737"}
{"id":3752039751,"url":"http://farm3.staticflickr.com/2542/3752039751_556ffd4c8d.jpg","path":"2e6/665/2e66654dcce937df45ea9f56ffe96d5.jpg","date":"2009-07-16","year":2009,"month":7,"lon":127.200645,"lat":37.29133,"tags":"everland,gyeonggi,korea,seoul,south+korea,widy%3Fng-gol","S2CellId":"87d8b54000000000","result":8008,"accuracy":0.015305596,"title":"_MG_7064"}
{"id":8352151249,"url":"http://farm9.staticflickr.com/8323/8352151249_aa12c96fe3.jpg","path":"886/04f/88604ffd8eacaaa65bc1368be1691e13.jpg","date":"2012-10-25","year":2012,"month":10,"lon":127.05617,"lat":37.507168,"tags":"2012,autumn,korea,october,seoul,southkorea","S2CellId":"808f770000000000","result":7015,"accuracy":0.012289676,"title":"2012-10-25+21.08.10+Yahoo%21+Korea","description":"Oct+14+-+Oct+26%2C+%0ASeoul%2C+South+Korea"}
{"id":1202998565,"url":"http://farm2.staticflickr.com/1199/1202998565_4e367f4a97.jpg","path":"a41/d55/a41d55e61589bbc38f9e6cb6886abad8.jpg","date":"2007-08-22","year":2007,"month":8,"lon":127.054825,"lat":37.507275,"tags":"flick+staff,flickr,korea,seoul,yahoo,yahoo+korea","S2CellId":"94ce510000000000","result":9701,"accuracy":0.16591981,"title":"Meeting+with+Flickr+staff"}
{"id":2062592186,"url":"http://farm3.staticflickr.com/2094/2062592186_2457bc9065.jpg","path":"2fa/b55/2fab55647893bb9144fb9b2f2869a97.jpg","date":"2007-11-24","year":2007,"month":11,"lon":127.40278,"lat":37.753548,"tags":"%EA%B0%80%ED%8F%89,%EB%B3%B4%EC%9A%B0,%EC%95%84%EC%B9%A8%EA%B3%A0%EC%9A%94%EC%9B%90%EC%98%88%EC%88%98%EB%AA%A9%EC%9B%90,%ED%96%89%ED%98%84%EB%A6%AC,m.t","S2CellId":"3568900000000000","result":2283,"accuracy":0.17576993,"title":"IMG_3570.JPG"}
{"id":5478702499,"url":"http://farm6.staticflickr.com/5011/5478702499_3f320fc0f3.jpg","path":"029/eb9/029eb9687d05bc495c8e0b280113ff6.jpg","date":"2011-02-25","year":2011,"month":2,"lon":127.05669,"lat":37.506462,"tags":"%C2%AD%C2%BA%C2%BA%C2%B8,%C3%A1%C3%BA%C2%B0%C3%AA,%E9%9F%93%E5%9C%8B,%E9%A6%96%E7%88%BE,korea,seoul","S2CellId":"60188be400000000","result":6481,"accuracy":0.043377016,"title":"%E9%9F%93%E5%9C%8B%E6%95%A3%E6%AD%A5"}
{"id":5587990337,"url":"http://farm6.staticflickr.com/5016/5587990337_2f6a26dd46.jpg","path":"eeb/4c2/eeb4c2392fc659d69236c81d3e7f25d.jpg","date":"2011-04-04","year":2011,"month":4,"lon":127.030945,"lat":37.52324,"tags":"picplz","S2CellId":"3442a96c00000000","result":2041,"accuracy":0.124901175,"title":"Tnm+3%EC%A3%BC%EB%85%84+%ED%8C%8C%ED%8B%B0%EC%97%90+%EC%99%94%EC%8A%B5%EB%8B%88%EB%8B%A4.+%EC%98%A4%ED%94%BC%EC%8A%A4+%EC%A7%81%EC%9B%90%EB%A7%8C+%ED%8B%B0%EB%A5%BC+%EB%A7%9E%EC%B7%84%EB%84%A4%EC%9A%94.+%E3%85%A0%E3%85%A0","description":"Taken+with+%3Ca+href%3D%22http%3A%2F%2Fpicplz.com%22+rel%3D%22nofollow%22%3Epicplz%3C%2Fa%3E+at+%3Ca+href%3D%22http%3A%2F%2Fpicplz.com%2Fpics%2Ftnm%2F%22+rel%3D%22nofollow%22%3Etnm%3C%2Fa%3E."}
{"id":260619938,"url":"http://farm1.staticflickr.com/94/260619938_108c808188.jpg","path":"721/390/721390fe5a454c2346135785a9fc8d77.jpg","date":"2006-04-16","year":2006,"month":4,"lon":127.119026,"lat":37.401527,"tags":"%ED%83%84%EC%B2%9C,%ED%83%84%EC%B2%9C%EC%9D%98+%EB%B4%84","S2CellId":"5f0b2c0000000000","result":6349,"accuracy":0.016860008,"title":"STA40583"}
{"id":6846231019,"url":"http://farm8.staticflickr.com/7186/6846231019_70e47fc2c8.jpg","path":"1fa/84d/1fa84dfc98a34bedafa8ab408518cc40.jpg","date":"2011-05-21","year":2011,"month":5,"lon":127.01667,"lat":37.455666,"tags":"honey","S2CellId":"346f700000000000","result":2233,"accuracy":0.020373493}
{"id":4659539453,"url":"http://farm5.staticflickr.com/4022/4659539453_ae03be0846.jpg","path":"2bb/d40/2bbd40f5b046679d83f8b2763b74d.jpg","date":"2010-05-20","year":2010,"month":5,"lon":127.063835,"lat":37.597572,"tags":"bubble+world,field+trip,korea,seoul","S2CellId":"47b3100000000000","result":4017,"accuracy":0.36828753,"title":"Huge+swing","description":"The+bar+for+the+swing+must+have+been+25+feet+tall.+I+became+the+swing+teacher+just+so+kids+wouldn%27t+kill+each+other+in+their+obliviousness.+Also+turned+out+to+be+fun."}
{"id":11851236894,"url":"http://farm3.staticflickr.com/2832/11851236894_4eab59534c.jpg","path":"f9c/3af/f9c3af5e174daaaa8cae74ad3759826d.jpg","date":"2014-01-08","year":2014,"month":1,"lon":127.02784,"lat":37.498924,"tags":"brilliant+cube,gangnam,jin-yo+mok,jonpasang,korea,seoul","S2CellId":"60185c4000000000","result":6452,"accuracy":0.12324083,"title":"Brilliant+Cube+in+Gangnam","description":"From+the+creative+mind+behind+Shinsegae%27s+beautiful+three-layer+LED+facade+comes+the+Brilliant+Cube%2C+a+kinetic+3D+matrix+comprised+of+576+clear+LED+poles+moving+up+and+down.%0A%0ABrilliant+Cube+is+created+by+renowned+media+artist+Jin-Yo+Mok%2C+in+collaboration+with+Seoul-based+media+artist+group+Jonpasang.%0A%0ALocation%3A+M-Stage%2C+Gangnam+Station%2C+Exit+11+%28map%3A+%3Ca+href%3D%22http%3A%2F%2Fme2.do%2FxnSjOXjg%22+rel%3D%22nofollow%22%3Eme2.do%2FxnSjOXjg%3C%2Fa%3E%29%0A%0ARead+more+about+it+here%3A+%3Ca+href%3D%22http%3A%2F%2Fcnn.it%2F1d1KfQl%22+rel%3D%22nofollow%22%3Ecnn.it%2F1d1KfQl%3C%2Fa%3E"}
{"id":3836732421,"url":"http://farm3.staticflickr.com/2599/3836732421_a36663106f.jpg","path":"04a/71f/04a71ff545398e7e52d34acdaf3ed27.jpg","date":"2009-08-13","year":2009,"month":8,"lon":127.126625,"lat":37.47711,"tags":"%EA%B0%80%EB%93%A05,%EC%84%9C%EC%9A%B8,%EC%86%A1%ED%8C%8C,b%26w,garden5,jangjidong,korea,seoul,songpa","S2CellId":"48761d7000000000","result":5354,"accuracy":0.006915092,"title":"IMG_0005"}
{"id":4923090977,"url":"http://farm5.staticflickr.com/4077/4923090977_5de7f6a4e2.jpg","path":"469/f23/469f231ac789253ee84d9328d428db60.jpg","date":"2010-08-14","year":2010,"month":8,"lon":127.079025,"lat":37.556282,"tags":"cake,d90,fondant,korea,nikon,passport,travel","S2CellId":"0d4228d000000000","result":378,"accuracy":0.090913124,"title":"Gotta+play+with+it%2C+but+it+does+make+your+hands+a+little+black.","description":"And+beware+of+those+toothpicks+coming+out+the+bottom."}
{"id":7394159108,"url":"http://farm6.staticflickr.com/5334/7394159108_92494d4252.jpg","path":"7f1/674/7f1674a77b4b7a150bd70c156fb621.jpg","date":"2011-10-21","year":2011,"month":10,"lon":127.20011,"lat":37.2909,"tags":"%EA%B2%BD%EA%B8%B0%EB%8F%84,%EB%8C%80%ED%95%9C%EB%AF%BC%EA%B5%AD,%EB%93%9C%EB%A6%BC+%EC%98%A4%EB%B8%8C+%EB%9D%BC%EC%8B%9C%EC%96%B8,%EB%B6%88%EA%BD%83%EB%86%80%EC%9D%B4,%EC%97%90%EB%B2%84%EB%9E%9C%EB%93%9C,%EC%9A%A9%EC%9D%B8%EC%8B%9C,draeam+of+laciun,everland,fireworks","S2CellId":"872b090000000000","result":7756,"accuracy":0.0134415915,"title":"Fireworks+%28%EB%B6%88%EA%BD%83%EB%86%80%EC%9D%B4%29"}
{"id":8726800075,"url":"http://farm8.staticflickr.com/7425/8726800075_a1ee582a04.jpg","path":"d72/565/d72565e885e5c3a57616666c56fbe84f.jpg","date":"2012-12-08","year":2012,"month":12,"lon":127.13416,"lat":37.538166,"tags":"%EB%B3%B4%EB%93%9C%EA%B2%8C%EC%9E%84,boardgame","S2CellId":"357ca2f000000000","result":2313,"accuracy":0.025109338,"title":"%EC%95%84%EC%BB%B4+%ED%98%B8%EB%9F%AC+%ED%95%9C%EA%B8%80%ED%8C%90","description":"%EC%95%84%EB%82%B4%EC%99%80+%ED%95%A8%EA%BB%98%ED%95%9C+%EC%95%84%EC%BB%B4+%EC%96%B4%EB%93%9C%EB%B2%A4%EC%B3%90.%0A%EC%89%BD%EB%8B%A4%EB%8A%94+%EC%9D%B4%EA%B7%B8%EB%A5%BC+%EC%9D%B4%EA%B2%BC%EB%8B%A4%21%28%EC%98%A4%ED%98%B8%3F%21+%EB%82%98%EC%A4%91%EC%97%90+%EC%95%8C%EC%95%98%EC%A7%80%EB%A7%8C+%EC%97%90%EB%9F%AC%ED%94%8C%EC%9D%84..%29%0A%0A%EC%A1%B0+%EB%8B%A4%EC%9D%B4%EC%95%84%EB%AA%AC%EB%93%9C%EC%99%80+%EB%A9%94%EB%A6%AC+%EC%88%98%EB%85%80%EC%9D%98+%EC%84%B8%EA%B3%84%EB%A5%BC+%EC%A7%80%ED%82%A4%EA%B8%B0+%EC%9C%84%ED%95%9C+%EC%82%AC%ED%88%AC%21"}
{"id":2680277080,"url":"http://farm4.staticflickr.com/3107/2680277080_522cbc52e4.jpg","path":"156/8fd/1568fd2f2b17413a1a2050bd35419f18.jpg","date":"2008-07-18","year":2008,"month":7,"lon":127.116196,"lat":37.284405,"tags":"folk,korea,korean+folk+village,village","S2CellId":"2dd7000000000000","result":1556,"accuracy":0.03797792,"title":"Korean+Folk+Village"}
{"id":2321540792,"url":"http://farm3.staticflickr.com/2131/2321540792_1cb3d0d8cd.jpg","path":"bbd/51e/bbd51eb7cc4724fe7da25d794d7b0.jpg","date":"2008-02-28","year":2008,"month":2,"lon":127.038605,"lat":37.55805,"tags":"korea,students","S2CellId":"3442a9b000000000","result":2057,"accuracy":0.083479896,"title":"G6"}
{"id":2680279238,"url":"http://farm4.staticflickr.com/3296/2680279238_5cafb647a2.jpg","path":"175/172/175172ce2497d03945a18585864d91f.jpg","date":"2008-07-18","year":2008,"month":7,"lon":127.116196,"lat":37.284405,"tags":"folk,korea,korean+folk+village,village","S2CellId":"357c400000000000","result":2300,"accuracy":0.097379476,"title":"Korean+Folk+Village"}
{"id":4284397159,"url":"http://farm5.staticflickr.com/4012/4284397159_ee1c8eac62.jpg","path":"ae5/0dc/ae50dcfcd53c6f7a70179ed01223e3f2.jpg","date":"2010-01-09","year":2010,"month":1,"lon":127.06684,"lat":37.617302,"tags":"%EA%B0%9C,%EA%B5%AC%EB%A6%84%EC%9D%B4,%EC%8A%88%EB%82%98%EC%9A%B0%EC%A0%80,dog,gurm,sal+1680z,schnauzer,sony+a350","S2CellId":"4889b00000000000","result":5760,"accuracy":0.011493894,"title":"Gurm%27s+Nose+%28%EA%B5%AC%EB%A6%84+%EC%BD%94%29"}
{"id":4863514856,"url":"http://farm5.staticflickr.com/4095/4863514856_6d088892e0.jpg","path":"ef1/d3e/ef1d3e1ee8f86c807b6669d864f4634b.jpg","date":"2010-01-28","year":2010,"month":1,"lon":127.03371,"lat":37.513268,"tags":"dsc_8593-48","S2CellId":"357f000000000000","result":2324,"accuracy":0.028261904,"title":"Happy+to+be+done+with+the+drama"}
{"id":2250789838,"url":"http://farm3.staticflickr.com/2062/2250789838_2f95e8bd23.jpg","path":"83d/4ae/83d4ae23e31f1fd499a32cb9d5214e4f.jpg","date":"2008-02-08","year":2008,"month":2,"lon":127.19239,"lat":37.578003,"tags":"%EC%84%9C%EC%9A%B8,2008,d50,dslr,febuary,korea,nikon,seoul,south","S2CellId":"3724000000000000","result":2419,"accuracy":0.02427785,"title":"han+chae+dang+restaurant"}
{"id":4238781725,"url":"http://farm3.staticflickr.com/2742/4238781725_26070bcf2c.jpg","path":"20f/12b/20f12b399bacffafc81f1c6bf13f63a4.jpg","date":"2010-01-02","year":2010,"month":1,"lon":127.06088,"lat":37.51176,"tags":"30mmf14,art,canonkissx2,canonxsi,clouds,coex,cow,installment,korean,numbers,painting,practice,sky,snow,southkorea,tags,winter,yellow","S2CellId":"47c2500000000000","result":4156,"accuracy":0.0041615465,"title":"numberbovine","description":"CoEX+%40+%EC%82%BC%EC%84%B1+%0A%0AI+accidentally+came+upon+an+art+installation+after+just+purchasing+a+new+lens+in+the+Seoul+area.+There+must+have+been+about+30+steers%2Fcows+spread+all+around+the+exhibition+hall.+This+one+is+probably+my+2nd+favorite+because+of+its+design%2C+color+choice%2C+and+the+fact+that+the+snow+around+this+one+made+the+shot+look+like+it+was+taken+in+the+sky."}
{"id":5460201543,"url":"http://farm6.staticflickr.com/5132/5460201543_0572916fc1.jpg","path":"9f2/1b3/9f21b374e4b92a941223719b9c7b97b.jpg","date":"2011-02-20","year":2011,"month":2,"lon":127.151505,"lat":37.49883,"tags":"instagram+app,iphoneography,nashville,square,square+format","S2CellId":"1319ec0000000000","result":982,"accuracy":0.0049834014,"title":"%EC%A1%B1%EB%B0%9C+%ED%8F%AC%EC%9E%A5+%EC%A4%91...%E3%85%8B%E3%85%8B%E3%85%8B"}
{"id":7524527822,"url":"http://farm9.staticflickr.com/8015/7524527822_88e69be2b8.jpg","path":"3ee/540/3ee5407e5432518cbde6f9dfec49deca.jpg","date":"2012-07-08","year":2012,"month":7,"lon":127.05418,"lat":37.526047,"tags":"amaro,instagram+app,iphoneography,square,square+format","S2CellId":"89c25bae40000000","result":9072,"accuracy":0.01841279,"title":"ellui"}
{"id":1495033171,"url":"http://farm3.staticflickr.com/2275/1495033171_4614937a0f.jpg","path":"a6f/952/a6f952e9815abf5355ba427388fa79d.jpg","date":"2007-10-05","year":2007,"month":10,"lon":127.50252,"lat":37.705826,"tags":"%EB%82%A8%EC%9D%B4%EC%84%AC,%EC%9B%8C%ED%81%AC%EC%83%B5,esp,korea,team,yahoo","S2CellId":"34684c0000000000","result":2155,"accuracy":0.050596293,"title":"%EC%9B%8C%ED%81%AC%EC%83%B587"}
{"id":5473539401,"url":"http://farm6.staticflickr.com/5094/5473539401_441d444757.jpg","path":"ace/ca8/aceca84aff1786174ddb45c244119fc4.jpg","date":"2011-02-24","year":2011,"month":2,"lon":127.022835,"lat":37.5215,"tags":"%E1%84%80%E1%85%A1%E1%84%85%E1%85%A9%E1%84%89%E1%85%AE%E1%84%80%E1%85%B5%E1%86%AF,%E9%9F%93%E5%9C%8B,%E9%A6%96%E7%88%BE,korea,seoul","S2CellId":"6018894000000000","result":6464,"accuracy":0.075694285,"title":"%EB%A7%88%EB%A7%9D%EA%B0%B8%EB%98%90+-+%E8%B6%85%E5%A5%BD%E5%90%83Caramel"}
{"id":8493880964,"url":"http://farm9.staticflickr.com/8505/8493880964_953c81ca53.jpg","path":"84f/a33/84fa335e556bc834ed6d5ef6afec41c.jpg","date":"2013-02-21","year":2013,"month":2,"lon":127.0555,"lat":37.669167,"tags":"photo+stream","S2CellId":"3541900000000000","result":2257,"accuracy":0.025380837}
{"id":9464381174,"url":"http://farm3.staticflickr.com/2880/9464381174_64ddb3b609.jpg","path":"a03/f95/a03f958b318f4fe43b927747b03db3c0.jpg","date":"2013-08-05","year":2013,"month":8,"lon":127.265625,"lat":37.73597,"tags":"%EB%82%A8%EC%82%B0+%EC%95%BC%EC%99%B8%EC%8B%9D%EB%AC%BC%EC%9B%90,%ED%95%9C%EA%B5%AD,array,korea,namsan+botanical+garden,park","S2CellId":"4d54000000000000","result":5954,"accuracy":0.01695374,"title":"15+Namsan+Botanical+Garden"}
{"id":8283346,"url":"http://farm1.staticflickr.com/7/8283346_81e376cd62.jpg","path":"16b/b36/16bb366fb2e3df3f7fca52b2a4d3c2.jpg","date":"2005-04-03","year":2005,"month":4,"lon":127.00676,"lat":37.262985,"tags":"asia,folk+village,korea,traditional","S2CellId":"808f7d4000000000","result":7020,"accuracy":0.033066,"title":"P1000405"}
{"id":3149252695,"url":"http://farm4.staticflickr.com/3252/3149252695_9443cbcf72.jpg","path":"3b2/e93/3b2e934f62648a8bcc884ceb6ca5a674.jpg","date":"2008-12-27","year":2008,"month":12,"lon":127.07114,"lat":37.612225,"tags":"apartment,church,reflection,river,sony+a350","S2CellId":"94eb440000000000","result":9764,"accuracy":0.29820535,"title":"Symmetry"}
{"id":103369667,"url":"http://farm1.staticflickr.com/41/103369667_cd492d8f2c.jpg","path":"169/b57/169b57ed8f8dd64f3945c7c104633a9.jpg","date":"2006-02-01","year":2006,"month":2,"lon":127.1985,"lat":37.29085,"tags":"everland,favorites,korea,yongin","S2CellId":"47e61d1ec0000000","result":4564,"accuracy":0.44820178,"title":"Everland"}
{"id":389939324,"url":"http://farm1.staticflickr.com/150/389939324_598b8d7d2d.jpg","path":"487/c3a/487c3a811e685f8b2ca8d0148dd868.jpg","date":"2006-11-17","year":2006,"month":11,"lon":127.05654,"lat":37.253284,"tags":"%23bebouchard%23,korea","S2CellId":"357c400000000000","result":2300,"accuracy":0.11685621,"title":"Candy+seller","description":"This+guy+was+selling+traditional+Korean+candy+at+the+suwon+folk+village.++The+candy+was+in+white%2C+taffy-like+sticks+that+looked+like+cigarettes."}
{"id":4369753490,"url":"http://farm5.staticflickr.com/4031/4369753490_183597e438.jpg","path":"46f/d76/46fd76054ced8641f1dc2574e681eca.jpg","date":"2010-02-19","year":2010,"month":2,"lon":127.12296,"lat":37.38594,"tags":"google+korea,snap","S2CellId":"6b13400000000000","result":6709,"accuracy":0.0033512744,"title":"YouTube+Cake","description":"YouTube+Korea+Power+user+party"}
{"id":2250005015,"url":"http://farm3.staticflickr.com/2085/2250005015_45c9a95f68.jpg","path":"4c1/c36/4c1c36e6319ed6614a0f5c772db20f5.jpg","date":"2008-02-08","year":2008,"month":2,"lon":127.19202,"lat":37.577698,"tags":"%EC%84%9C%EC%9A%B8,2008,d50,dslr,febuary,korea,nikon,seoul,south","S2CellId":"3568900000000000","result":2283,"accuracy":0.06427315,"title":"DSC_5597","description":"%3Ca+href%3D%22http%3A%2F%2Floc.alize.us%2F%23%2Fflickr%3A2250005015%22%3ESee+where+this+picture+was+taken.%3C%2Fa%3E+%3Ca+href%3D%22http%3A%2F%2Fwww.flickr.com%2Fgroups%2Fgeotagging%2Fdiscuss%2F72157594165549916%2F%22%3E%5B%3F%5D%3C%2Fa%3E"}
{"id":193448862,"url":"http://farm1.staticflickr.com/64/193448862_0316ad7a09.jpg","path":"c87/fa5/c87fa522a9933fed607bfd1f96ea20ba.jpg","date":"2006-07-17","year":2006,"month":7,"lon":127.02409,"lat":37.505028,"tags":"taiwan","S2CellId":"12aebd0000000000","result":789,"accuracy":0.038948793,"title":"IMGP0996"}
{"id":4205234013,"url":"http://farm5.staticflickr.com/4047/4205234013_e4be76ae10.jpg","path":"c41/efc/c41efc74789e0d0fa991c73175877e.jpg","date":"2009-12-22","year":2009,"month":12,"lon":127.100784,"lat":37.50959,"tags":"%EC%95%84%EC%9D%B4%ED%8F%B0,%EC%95%84%EC%9D%B4%ED%8F%B0%EA%B7%B8%EB%9E%98%ED%8D%BC,iphone,iphonegrapher","S2CellId":"132efb7000000000","result":1068,"accuracy":0.0149963265,"title":"%EC%84%B1%ED%83%84%EB%B6%84%EC%9C%84%EA%B8%B0+2+%23iphonegrapher"}
{"id":4421935915,"url":"http://farm5.staticflickr.com/4014/4421935915_148265f640.jpg","path":"abe/c14/abec145dd72eced39997b72af52d2c4.jpg","date":"2010-03-11","year":2010,"month":3,"lon":127.03577,"lat":37.499683,"tags":"work","S2CellId":"3442900000000000","result":2028,"accuracy":0.06368193}
{"id":6958578098,"url":"http://farm9.staticflickr.com/8016/6958578098_71442c8dda.jpg","path":"1a4/5a4/1a45a456661dbfb88f57d30b86224f0.jpg","date":"2012-04-23","year":2012,"month":4,"lon":127.01294,"lat":37.57459,"tags":"drum+circles,instagram,korea,seoul,south+korea,traditional+korea","S2CellId":"6019b00000000000","result":6548,"accuracy":0.019094458,"title":"Sunday+drum+circle+stumbling"}
{"id":8972419109,"url":"http://farm4.staticflickr.com/3691/8972419109_798eafd2c3.jpg","path":"a2d/c54/a2dc54a9a8c865aaae7462f26ca5bb.jpg","date":"2013-04-27","year":2013,"month":4,"lon":127.0277,"lat":37.26572,"tags":"cor%C3%A9e,du,hwaseong,korea,silver,south,sud,suwon,sylvain","S2CellId":"355ab00000000000","result":2274,"accuracy":0.036631994,"title":"DSCF2221","description":"Le+Suwoncheon"}
{"id":450091977,"url":"http://farm1.staticflickr.com/201/450091977_0ea71d18ec.jpg","path":"c98/391/c98391bbfed4f6e1e256f37dda230d7.jpg","date":"2007-04-08","year":2007,"month":4,"lon":127.04649,"lat":37.522457,"tags":"2007,35mm,apgujeong,cloninger,horizon,jaymes,kompakt,korea,seoul","S2CellId":"60188ca400000000","result":6496,"accuracy":0.043085296,"title":"They+Stood+and+Stared+in+Wonder","description":"See+where+this+photo+was+taken+at+%3Ca+href%3D%22http%3A%2F%2Fmaps.yuan.cc%2F%22+rel%3D%22nofollow%22%3Emaps.yuan.cc%2F%3C%2Fa%3E."}
{"id":4177514292,"url":"http://farm3.staticflickr.com/2652/4177514292_ce077d413a.jpg","path":"fc9/efa/fc9efac965a24097fa214f10db3ec54d.jpg","date":"2009-12-10","year":2009,"month":12,"lon":127.00127,"lat":37.569614,"tags":"coffee,coffeehero,ediya,espresso,korea,seoul","S2CellId":"8620a60c00000000","result":7510,"accuracy":0.013235645,"title":"Ediya+Espresso+Coffee","description":"From+the+post+%3Ca+href%3D%22http%3A%2F%2Fcriticalmas.com%2F2009%2F12%2Fcoffee-hunting-in-seoul-south-korea%2F%22+rel%3D%22nofollow%22%3ECoffee+Hunting+in+Seoul%2C+South+Korea%3C%2Fa%3E.%0A%0A**+You+are+free+to+use+this+photo+for+whatever+you+want.++Just+link+to+the+blog+post."}
{"id":5477801779,"url":"http://farm6.staticflickr.com/5132/5477801779_9003d69b0b.jpg","path":"c0a/aa0/c0aaa044d976aabab66b24e056b544b0.jpg","date":"2008-09-27","year":2008,"month":9,"lon":127.122246,"lat":37.519394,"tags":"%E5%A4%A7%E9%9F%93%E6%B0%91%E5%9C%8B,%E9%9F%93%E5%9C%8B,%EB%8C%80%ED%95%9C%EB%AF%BC%EA%B5%AD,%EC%84%9C%EC%9A%B8,%ED%95%9C%EA%B5%AD,1988+summer+olympics,2008,korea,olympic+park,republic+of+korea,seoul,south+korea","S2CellId":"34693d9000000000","result":2183,"accuracy":0.029844282,"title":"Olympic+Park+%EC%98%AC%EB%A6%BC%ED%94%BD%EA%B3%B5%EC%9B%90","description":"Olympic+Park+is+located+in+eastern+Seoul.+It+occupies+the+site+of+a+2%2C000-year-old+earthen+fortress+%28whose+remnants+are+well+incorporated+into+the+modern+park%29.+It+was+developed+in+the+1980s+to+prepare+for+the+24th+Summer+Olympics+that+was+hosted+by+Seoul+in+1988.%0A%0AThe+apartment+buildings+in+the+distance+still+bear+the+logo+of+the+Seoul+Games.+They+served+as+the+Olympic+Village+to+house+the+foreign+athletes%2C+and+after+the+end+of+the+Games%2C+were+put+on+the+market+as+residences."}
{"id":7452838824,"url":"http://farm8.staticflickr.com/7127/7452838824_110767b8ca.jpg","path":"42d/c7e/42dc7ef689d22e224d91524335fd51ab.jpg","date":"2012-03-18","year":2012,"month":3,"lon":127.153435,"lat":37.379913,"tags":"%EA%B2%BD%EA%B8%B0%EB%8F%84,%EB%84%A4%EC%9D%B4%EB%B2%84+%EA%B0%95%EC%82%AC%EB%AA%A8,%EB%8C%80%ED%95%9C%EB%AF%BC%EA%B5%AD,%EC%84%B1%EB%82%A8%EC%8B%9C,%EC%84%B1%EB%82%A8+3.1%EC%9A%B4%EB%8F%99+%EA%B8%B0%EB%85%90%EA%B3%B5%EC%9B%90,%ED%99%94%EC%9D%B4%ED%8A%B8+%ED%85%8C%EB%A6%AC%EC%96%B4,seongnam+3.1+movement+memorial+park,white+terrier","S2CellId":"1e95700000000000","result":1473,"accuracy":0.034936894,"title":"White+terriers+%28%ED%99%94%EC%9D%B4%ED%8A%B8+%ED%85%8C%EB%A6%AC%EC%96%B4%29"}
{"id":11510983076,"url":"http://farm8.staticflickr.com/7456/11510983076_b3db3da392.jpg","path":"a47/5ab/a475ab8e264f7a4377555b0a08e28.jpg","date":"2013-12-17","year":2013,"month":12,"lon":127.20328,"lat":37.292114,"tags":"%E6%84%9B%E5%AF%B6%E6%A8%82%E5%9C%92,%E6%B3%A2%E5%A6%9E,%E6%BC%82%E6%BC%82,%E9%9F%93%E5%9C%8B,3y3m,7y3m,korea","S2CellId":"60187c0000000000","result":6460,"accuracy":0.03756148,"title":"IMG_3376"}
{"id":9461516215,"url":"http://farm3.staticflickr.com/2868/9461516215_d2bb8491da.jpg","path":"692/e8e/692e8e554c9d973116a6129d88c64c75.jpg","date":"2013-05-25","year":2013,"month":5,"lon":127.265625,"lat":37.73597,"tags":"%EA%B2%BD%EB%B3%B5%EA%B6%81,%ED%95%9C%EA%B5%AD,gyeongbokgung,korea","S2CellId":"31da110000000000","result":1836,"accuracy":0.068025514,"title":"Gyeongbokgung+at+night+014","description":"Gyeongbokgung+is+even+more+magnificent+under+the+pale+moonlight.+The+palace+lights+are+turned+on+for+a+limited+time+only.+Full+article+here+%3E%3E+%3Ca+href%3D%22http%3A%2F%2Fbit.ly%2FZ5nbJy%22+rel%3D%22nofollow%22%3Ebit.ly%2FZ5nbJy%3C%2Fa%3E"}
{"id":526981783,"url":"http://farm1.staticflickr.com/198/526981783_9f2bc4cb0c.jpg","path":"992/f43/992f43231925e2dd68b8061351efa46.jpg","date":"2007-05-27","year":2007,"month":5,"lon":127.07353,"lat":37.51531,"tags":"2007,asia,beauty,face,facial,japanese,korean,people,travle,world","S2CellId":"478d400000000000","result":3670,"accuracy":0.06960598,"title":"IMG_9732.jpg","description":"Korean+Baseball+League+2007%0ALG+vs+Lotte%0AJamsil+-+Seoul+Korea"}
{"id":8259912235,"url":"http://farm9.staticflickr.com/8358/8259912235_8cee7a454d.jpg","path":"796/e2f/796e2ff215e3f1f3307f92994dd58337.jpg","date":"2012-12-10","year":2012,"month":12,"lon":127.02755,"lat":37.494648,"tags":"instagram+app,iphoneography,square,square+format,valencia","S2CellId":"5f0b2c0000000000","result":6349,"accuracy":0.027854294,"title":"%ED%9A%8C%EC%82%AC+%EA%B7%BC%EC%B2%98%EC%97%90+%EC%83%9D%EA%B8%B4+%ED%91%B8%EB%93%9C%EC%BD%94%ED%8A%B8.+%EB%A8%B9%EC%9D%84%EA%B1%B0%EB%A6%AC%EA%B0%80+%EC%83%81%EB%8B%B9%ED%9E%88+%EB%8B%A4%EC%96%91%ED%95%B4%EC%84%9C+%EA%B3%A8%EB%9D%BC%EB%A8%B9%EB%8A%94+%EC%9E%AC%EB%AF%B8+%EC%9E%88%EC%9D%84+%EB%93%AF."}
{"id":8280512976,"url":"http://farm9.staticflickr.com/8357/8280512976_a66e2fd681.jpg","path":"ba3/57c/ba357cef28e7edd29ff7d6a7c54495fb.jpg","date":"2012-12-01","year":2012,"month":12,"lon":127.01278,"lat":37.552643,"tags":"%EB%B0%98%EC%B0%AC%EB%A7%8C%EB%93%A4%EA%B8%B0,%EC%9D%8C%EC%8B%9D","S2CellId":"80dd317000000000","result":7376,"accuracy":0.026134014,"title":"2012-12-01+17.58.49.jpg","description":"%EB%B9%84%EB%8B%90%ED%8C%A9+%ED%8F%AC%EC%9E%A5+%ED%9B%84+%EC%A7%80%ED%8D%BC%EB%9D%BD%EC%9C%BC%EB%A1%9C+%ED%95%9C%EB%B2%88+%EB%8D%94+%ED%8F%AC%EC%9E%A5."}
{"id":8492773109,"url":"http://farm9.staticflickr.com/8096/8492773109_18cc395334.jpg","path":"1ec/9a4/1ec9a47e1114256670c8525313fc8db.jpg","date":"2013-02-21","year":2013,"month":2,"lon":127.055336,"lat":37.669167,"tags":"photo+stream","S2CellId":"3568f00000000000","result":2286,"accuracy":0.07036361}
{"id":4602931509,"url":"http://farm2.staticflickr.com/1107/4602931509_5cc83920a8.jpg","path":"27e/c17/27ec17157b60358a73a21c73982a5a6e.jpg","date":"2010-05-13","year":2010,"month":5,"lon":127.122215,"lat":37.361237,"tags":"%EC%95%84%EC%9D%B4%ED%8F%B0","S2CellId":"3135ab4000000000","result":1744,"accuracy":0.035249237,"title":"%EC%95%84%EC%9D%B4%ED%8F%B0+%EC%96%B4%ED%94%8C"}
{"id":10439420833,"url":"http://farm3.staticflickr.com/2886/10439420833_7cbc89d32d.jpg","path":"f48/81d/f4881d15e35ec7cd189b2eceeb4d21e.jpg","date":"2013-09-29","year":2013,"month":9,"lon":127.20901,"lat":37.291393,"tags":"photo+stream","S2CellId":"88dd7e9000000000","result":8624,"accuracy":0.016619103}
{"id":4909684839,"url":"http://farm5.staticflickr.com/4136/4909684839_453067c09d.jpg","path":"9f9/599/9f959949a5253a99435c4826ee2e25.jpg","date":"2010-05-30","year":2010,"month":5,"lon":127.22164,"lat":37.69446,"tags":"%EA%B0%9C,%EB%8F%84%EA%B7%B8%EC%B9%B4%ED%8E%98,%EB%8F%99%EB%AC%BC,%EB%B8%94%EB%9E%99+%EB%9F%AC%EC%8B%9C%EC%95%88+%ED%85%8C%EB%A6%AC%EC%96%B4,animal,black+russian+terrier,dog,dog+cafe,sal+1680z,sony+a350","S2CellId":"80dc0c0000000000","result":7327,"accuracy":0.015814159,"title":"Black+Russian+Terrier+%28%EB%B8%94%EB%9E%99+%EB%9F%AC%EC%8B%9C%EC%95%88+%ED%85%8C%EB%A6%AC%EC%96%B4%29"}
{"id":9851314054,"url":"http://farm3.staticflickr.com/2811/9851314054_08bec56101.jpg","path":"59e/158/59e158839b5854646bc3bdf6ad7787a1.jpg","date":"2013-09-21","year":2013,"month":9,"lon":127.04109,"lat":37.621166,"tags":"%EB%82%98%EB%93%A4%EC%9D%B4,%EB%B6%81%EC%84%9C%EC%9A%B8%EA%BF%88%EC%9D%98%EC%88%B2+%28dream+forest%29","S2CellId":"6019b00000000000","result":6548,"accuracy":0.023963911,"title":"%EB%B6%81%EC%84%9C%EC%9A%B8%EA%BF%88%EC%9D%98+%EC%88%B2"}
{"id":4863499256,"url":"http://farm5.staticflickr.com/4122/4863499256_a27c981965.jpg","path":"524/2c1/5242c1b0b870186b74d2afc5e2ba179c.jpg","date":"2010-01-28","year":2010,"month":1,"lon":127.03371,"lat":37.513268,"tags":"children,hagwon,kid,korea,portrait,school","S2CellId":"5f8b000000000000","result":6361,"accuracy":0.08442974,"title":"Finished%21"}
{"id":5481259690,"url":"http://farm6.staticflickr.com/5056/5481259690_7c79af6136.jpg","path":"a71/c1c/a71c1c76b2704fefacc7735cd66bc28d.jpg","date":"2008-09-29","year":2008,"month":9,"lon":127.00092,"lat":37.583733,"tags":"%E5%A4%A7%E9%9F%93%E6%B0%91%E5%9C%8B,%E9%9F%93%E5%9C%8B,%EB%8C%80%ED%95%9C%EB%AF%BC%EA%B5%AD,%EC%84%9C%EC%9A%B8,%ED%95%9C%EA%B5%AD,2008,daehangno,korea,mcdonald%27s,republic+of+korea,restaurant,seoul,south+korea,tgi+friday%27s","S2CellId":"60188c1c00000000","result":6488,"accuracy":0.20822471,"title":"Daehangno+%EB%8C%80%ED%95%99%EB%A1%9C+%E5%A4%A7%E5%AD%B8%E8%B7%AF","description":"Two+American+eateries+-+TGI+Friday%27s+and+McDonald%27s.%0A%0AI+found+that+while+in+South+Korea%2C+the+only+way+for+me+to+blow+a+small+fortune+and+overeat%2C+as+I+often+do+stateside%2C+was+to+go+to+places+like+TGI+Friday%27s.+I+could+easily+spend+%E2%82%A918%2C000+for+a+lunch.+My+strong+preference+was+to+stick+to+more+traditional+Korean-style+eateries%2C+blow+at+most+%E2%82%A98%2C000%2C+and+eat+a+healthier+meal+of+more+modest+proportions+that+still+left+me+very+full.+Between+the+smaller%2C+healthier+meals+and+extensive+walking%2C+I+lost+significant+body+weight+during+my+Seoul+residence+%28though+sadly+I+gained+it+back+upon+returning+to+Los+Angeles%29.%0A%0AAt+McDonald%27s%2C+I+didn%27t+need+to+spend+a+small+fortune.+My+preference+when+overseas+is+to+visit+McDonald%27s+to+get+a+feel+for+how+the+menu+is+localized.+%28In+South+Korea%2C+I+can+have+a+bulgogi+burger+at+McDonald%27s%2C+for+example.%29+And+for+comparison+purposes%2C+I+like+to+visit+a+local+competitor+to+McDonald%27s+if+I+can+-+Lotteria+is+a+good+example+in+South+Korea%2C+while+Quick+fits+into+that+description+over+in+France."}
{"id":9520636012,"url":"http://farm4.staticflickr.com/3811/9520636012_3774719607.jpg","path":"eee/ef8/eeeef8b43c1b495a8d8a2d182c68d32f.jpg","date":"2013-08-12","year":2013,"month":8,"lon":127.06122,"lat":37.674603,"tags":"photo+stream","S2CellId":"3467fc0000000000","result":2124,"accuracy":0.10112546}
{"id":753976207,"url":"http://farm2.staticflickr.com/1176/753976207_739dace8af.jpg","path":"f26/22f/f2622f874102e2ac0a075a4a1d2c668.jpg","date":"2007-07-05","year":2007,"month":7,"lon":127.059235,"lat":37.511837,"tags":"%EB%A0%88%EC%8B%B1%EA%B1%B8,%EC%84%9C%EC%9A%B8,%ED%95%9C%EA%B5%AD,ace+high,korea,racing+girl,racing+girls,seoul,seoul+auto+salon","S2CellId":"85d2010000000000","result":7483,"accuracy":0.059612613,"title":"Im+Ji+Hye"}
{"id":8282596,"url":"http://farm1.staticflickr.com/5/8282596_03dac8e6b0.jpg","path":"7c3/f35/7c3f35465682298a80dfb29e14dc9d39.jpg","date":"2005-04-02","year":2005,"month":4,"lon":127.01345,"lat":37.26777,"tags":"2005,fortress,korea,suwon,travel","S2CellId":"357b500000000000","result":2297,"accuracy":0.089019,"title":"P1000368"}
{"id":582062962,"url":"http://farm2.staticflickr.com/1005/582062962_2b5ba0538d.jpg","path":"45d/2bd/45d2bd7791a1439d44d14c1339f83a.jpg","date":"2007-05-28","year":2007,"month":5,"lon":127.038605,"lat":37.55805,"tags":"korea,students","S2CellId":"346e774000000000","result":2220,"accuracy":0.06252762,"title":"Hera","description":"This+picture+strikes+me+as+harmonious.++I+don%27t+know+why."}
{"id":123669150,"url":"http://farm1.staticflickr.com/43/123669150_da29766764.jpg","path":"78f/b71/78fb71ffc16e8994859e17776706f81.jpg","date":"2006-04-05","year":2006,"month":4,"lon":127.104774,"lat":37.35542,"tags":"american+montessori+school,korea,migeum,seongnam","S2CellId":"36cc000000000000","result":2408,"accuracy":0.046275236,"title":"Sophie"}
{"id":450079678,"url":"http://farm1.staticflickr.com/169/450079678_46f13d3847.jpg","path":"b4b/94d/b4b94d31bcb430e7199f58c0faec53.jpg","date":"2007-04-08","year":2007,"month":4,"lon":127.05903,"lat":37.512356,"tags":"2007,35mm,aquarium,coex,gift,horizon,korea,panorama,panoramic,seoul,shop","S2CellId":"477eae3000000000","result":3462,"accuracy":0.02044569,"title":"Why+Must+Your+Seafood+Be+So+Terrifying%3F","description":"See+where+this+photo+was+taken+at+%3Ca+href%3D%22http%3A%2F%2Fmaps.yuan.cc%2F%22+rel%3D%22nofollow%22%3Emaps.yuan.cc%2F%3C%2Fa%3E.%0A%0A%3Ca+href%3D%22http%3A%2F%2Fwww.coexaqua.co.kr%2Fenglish%2Fe_main.html%22+rel%3D%22nofollow%22%3ECOEX+Aquarium%3C%2Fa%3E"}
{"id":5567911885,"url":"http://farm6.staticflickr.com/5251/5567911885_d8c4704a1a.jpg","path":"775/694/77569409ae8c3390e426579aca212e.jpg","date":"2011-03-25","year":2011,"month":3,"lon":127.02255,"lat":37.58703,"tags":"asia,color,guard,gyeongbokgung,hdr,korea,palace,pillars,roof,seoul,south,temple","S2CellId":"47e61d1d00000000","result":4562,"accuracy":0.030195015,"title":"Guard"}
{"id":145799877,"url":"http://farm1.staticflickr.com/55/145799877_cf0ee09ad9.jpg","path":"474/cd0/474cd0828e391cb21355eb08d436f.jpg","date":"2006-05-11","year":2006,"month":5,"lon":127.0501,"lat":37.514492,"tags":"2006,coex,couple,korea,omurice,seoul","S2CellId":"35b2707000000000","result":2342,"accuracy":0.013181829,"title":"Fusion+Omelette+Shop"}
{"id":4206718996,"url":"http://farm3.staticflickr.com/2734/4206718996_e4e7d9f46a.jpg","path":"1f9/768/1f9768f672d20af13ad8174bfa54d.jpg","date":"2009-12-23","year":2009,"month":12,"lon":127.040054,"lat":37.52488,"tags":"apkujung,bowling,tweetup,twitter","S2CellId":"89c258f900000000","result":8986,"accuracy":0.04533848,"title":"Twitter+Seoul+Holiday+Party"}
{"id":5026261404,"url":"http://farm5.staticflickr.com/4131/5026261404_9a058f136d.jpg","path":"7e8/cd0/7e8cd0af37974b296419ef41e7a69ce.jpg","date":"2010-09-26","year":2010,"month":9,"lon":127.02466,"lat":37.516167,"tags":"%EC%9D%8C%EC%8B%9D","S2CellId":"0d1ed40000000000","result":247,"accuracy":0.0064868922,"title":"%EA%B5%BD%EB%84%A4%EC%B9%98%ED%82%A8+%ED%8F%AD%EB%A6%BD"}
{"id":3721753033,"url":"http://farm3.staticflickr.com/2541/3721753033_c5d3720e82.jpg","path":"434/952/43495241ef34e2d7fa1d4d9b8e49857.jpg","date":"2009-07-08","year":2009,"month":7,"lon":127.11752,"lat":37.257896,"tags":"folk+village,korea,taebaek,youngin","S2CellId":"89c6bc0000000000","result":9143,"accuracy":0.056478694,"title":"Tightrope+walking","description":"Crazy+old+guy+doing+a+tightrope+walk+involving+stunts"}
{"id":6952365549,"url":"http://farm8.staticflickr.com/7207/6952365549_54f19d9821.jpg","path":"fea/a99/feaa99d0556316a78855ae0b4691f2e.jpg","date":"2012-03-04","year":2012,"month":3,"lon":127.06753,"lat":37.540356,"tags":"optio,s1","S2CellId":"52b5000000000000","result":5996,"accuracy":0.0026556791}
{"id":3198697339,"url":"http://farm4.staticflickr.com/3479/3198697339_8a06cebb1b.jpg","path":"3e6/92f/3e692f7547aea7573ff55941b584ac3f.jpg","date":"2009-01-15","year":2009,"month":1,"lon":127.02959,"lat":37.503326,"tags":"%EB%AF%BC%EC%84%9C%ED%9D%AC,365degrees,beauty,event,face,facial,fashion,girl,hot,idol,korean,model,pinup,portrait,promotion,seoul,show,studio,toughkid,woman","S2CellId":"35b2650000000000","result":2333,"accuracy":0.018756865,"title":"Act+1","description":"%EB%AA%A8%EB%8D%B8+-+%EB%AF%BC%EC%84%9C%ED%9D%AC%0A%0A%EC%9A%B0%EC%97%B0%EC%B0%AE%EC%9D%B4+%EA%B8%B0%ED%9A%8C%EA%B0%80+%EB%90%98%EC%96%B4%EC%84%9C+%EC%8A%A4%ED%8A%9C%EB%94%94%EC%98%A4%EC%97%90%EC%84%9C+%EC%9E%91%EC%97%85%ED%95%98%EA%B2%8C+%EB%90%9C+%EC%8A%B5%EC%9E%91.+%0A%EA%B3%B5%EB%B6%80%EA%B0%80+%EB%A7%8E%EC%9D%B4+%EB%90%9C+%EA%B2%83+%EA%B0%99%EC%95%84+%EB%8B%A4%EC%9D%8C%EC%97%90%EB%8A%94+%EC%A2%80%EB%8D%94+%EC%A2%8B%EC%9D%80+%EA%B7%B8%EB%A6%BC%EC%9D%B4+%EB%82%98%EC%98%AC+%EA%B2%83+%EA%B0%99%EB%8B%A4%EB%8A%94+%EC%9E%90%EC%8B%A0%EA%B0%90%EC%9D%B4+%EC%83%9D%EA%B2%BC%EB%8B%AC%EA%B9%8C."}
{"id":8849107123,"url":"http://farm6.staticflickr.com/5455/8849107123_38d39e5250.jpg","path":"1ae/5ad/1ae5ad1fb52945795dc5f754aeae930.jpg","date":"2013-05-27","year":2013,"month":5,"lon":127.024315,"lat":37.500492,"tags":"instagram+app,iphoneography,normal,square,square+format","S2CellId":"89c25f4000000000","result":9083,"accuracy":0.0040051905,"title":"%EC%83%88%EB%A1%9C%EC%9A%B4+%EA%B3%B3+%EA%B0%9C%EC%B2%99"}
{"id":5853020935,"url":"http://farm4.staticflickr.com/3239/5853020935_28e2bd9f7c.jpg","path":"6ac/67c/6ac67c6daaddf620f8362aea916ea82.jpg","date":"2011-05-24","year":2011,"month":5,"lon":127.03611,"lat":37.52639,"tags":"gourmet,italian,korea,seoul,wiskey","S2CellId":"60188b9000000000","result":6478,"accuracy":0.023089226,"title":"mipiace%27s+single+malt+dinner","description":"we+drank+glen+fiddich+series..+so..+so.."}
{"id":6260465854,"url":"http://farm7.staticflickr.com/6102/6260465854_ffe5d3f01a.jpg","path":"cbb/ad2/cbbad234a9889c35fd577bfa946ae2c.jpg","date":"2011-10-19","year":2011,"month":10,"lon":127.0776,"lat":37.53475,"tags":"instagram+app,iphoneography,normal,square,square+format","S2CellId":"883f400000000000","result":8376,"accuracy":0.011012123,"title":"%EC%9D%B4%EC%A0%9C+%EB%84%88%ED%9D%AC%EB%93%A4%EC%9D%B4+%EC%B6%9C%EB%8F%99%ED%95%A0+%EC%8B%9C%EC%A6%8C%EC%9D%B4%EA%B5%AC%EB%82%98%21+%23%EC%95%84%EC%9D%B4%ED%90%81+%23%EC%9B%94%EB%8F%99%EC%A4%80%EB%B9%84"}
{"id":8163571284,"url":"http://farm8.staticflickr.com/7114/8163571284_693f74154a.jpg","path":"a67/c42/a67c42d51b2b9e357969b354ac2fa2e0.jpg","date":"2012-11-02","year":2012,"month":11,"lon":127.76797,"lat":37.87018,"tags":"actionfigures,artoo,island,korea,nami,southkorea,star,wars","S2CellId":"89e6d00000000000","result":9384,"accuracy":0.0047105453,"title":"Do+you+See+Threepio%3F","description":"Nami+Island%2C+South+Korea"}
{"id":3530625076,"url":"http://farm3.staticflickr.com/2301/3530625076_a940f18d91.jpg","path":"669/23b/66923b3663ffc666f691777f51cd44e.jpg","date":"2009-05-14","year":2009,"month":5,"lon":127.02254,"lat":37.512474,"tags":"south+korea","S2CellId":"344b000000000000","result":2104,"accuracy":0.013486664,"title":"green+and+light","description":"canon+p+test"}
{"id":245881164,"url":"http://farm1.staticflickr.com/49/245881164_d4c34eab50.jpg","path":"6ac/558/6ac558dc3f2940bcfe773ea108558.jpg","date":"2006-09-16","year":2006,"month":9,"lon":127.122116,"lat":37.523273,"tags":"2006,korea,olympic,park,seoul","S2CellId":"4875fc0000000000","result":5180,"accuracy":0.01494454,"title":"One+Scarecrow+Alone+Will+Not+Do+the+Job","description":"See+where+this+photo+was+taken+at+%3Ca+href%3D%22http%3A%2F%2Fmaps.yuan.cc%2F%22+rel%3D%22nofollow%22%3Emaps.yuan.cc%2F%3C%2Fa%3E."}
{"id":9520762856,"url":"http://farm4.staticflickr.com/3697/9520762856_b35aaa8fa4.jpg","path":"8fb/a70/8fba70d14c539f15c5c2e34128702d34.jpg","date":"2013-08-14","year":2013,"month":8,"lon":127.1779,"lat":37.608986,"tags":"photo+stream","S2CellId":"357cb40000000000","result":2319,"accuracy":0.70114136}
{"id":5757831410,"url":"http://farm3.staticflickr.com/2770/5757831410_1b9140b21c.jpg","path":"24d/079/24d07927d35aabb270bc4ba75bf12053.jpg","date":"2011-05-21","year":2011,"month":5,"lon":127.11182,"lat":37.38407,"tags":"daumfoundation,itcanus,sicamp36","S2CellId":"357ca10000000000","result":2308,"accuracy":0.23371445,"title":"2011+SIcamp36+%EC%98%A4%EB%A6%AC%EC%97%94%ED%85%8C%EC%9D%B4%EC%85%98","description":"2011.05.21+%0A2011%EB%85%84+%EC%86%8C%EC%85%9C%EC%9D%B4%EB%85%B8%EB%B2%A0%EC%9D%B4%EC%85%98%EC%BA%A0%ED%94%84+%EC%98%A4%EB%A6%AC%EC%97%94%ED%85%8C%EC%9D%B4%EC%85%98+%0A%3Ca+href%3D%22http%3A%2F%2F2011.sicamp36.org%22+rel%3D%22nofollow%22%3E2011.sicamp36.org%3C%2Fa%3E"}
{"id":3664650005,"url":"http://farm4.staticflickr.com/3655/3664650005_b61f91846b.jpg","path":"6bb/30b/6bb30bfc55851eb3cfb91116db8.jpg","date":"2008-11-18","year":2008,"month":11,"lon":127.04658,"lat":37.58024,"tags":"%E1%84%82%E1%85%A1%E1%86%B7%E1%84%8B%E1%85%B5%E1%84%89%E1%85%A5%E1%86%B7,%E1%84%8C%E1%85%B5%E1%84%92%E1%85%A8,%E1%84%8E%E1%85%A5%E1%86%BC%E1%84%85%E1%85%A3%E1%86%BC%E1%84%85%E1%85%B5,%E1%84%90%E1%85%A2%E1%86%A8%E1%84%8C%E1%85%AE,taekjoo,tj","S2CellId":"60188c1400000000","result":6487,"accuracy":0.025563203,"title":"O+Death","description":"sam+amidon%EC%9D%84+%ED%9D%A5%EC%96%BC%EA%B1%B0%EB%A6%AC%EB%8B%A4%EA%B0%80+%EA%B7%B8%EB%A7%8C.%0A%0A%EB%A1%A4%EB%9E%91+%EB%B0%94%EB%A5%B4%ED%8A%B8%EC%9D%98+%EC%82%AC%EB%9E%91%EC%9D%98+%EB%8B%A8%EC%83%81%EC%9D%84+%EB%8D%94+%EC%9D%B4%EC%83%81+%EC%9D%BD%EC%9C%BC%EB%A9%B4+%EC%95%88%EB%90%98%EA%B2%A0%EB%8B%A4%EB%8A%94+%EC%83%9D%EA%B0%81%EC%9D%84+%ED%96%88%EB%8B%A4.%0A%0A%EB%B3%BC+%EC%88%98%EB%A1%9D+%EB%A7%88%EC%9D%8C%EC%9D%B4+%EC%95%84%ED%8C%8C%EC%99%94%EB%8B%A4.%0A%0A%EB%8B%B9%EC%8B%A0%EC%9D%80%2C+%EB%8B%B9%EC%8B%A0%EC%9D%80."}
{"id":4132817330,"url":"http://farm3.staticflickr.com/2491/4132817330_425017fd91.jpg","path":"740/885/7408853d01f5bbe75c9a5974e12c512.jpg","date":"2009-11-13","year":2009,"month":11,"lon":127.03057,"lat":37.484333,"tags":"food,korea,lightroom,seoul,travel","S2CellId":"88d9b6c000000000","result":8600,"accuracy":0.008065676,"title":"Day+16"}
{"id":5057770326,"url":"http://farm5.staticflickr.com/4122/5057770326_be4c3156fc.jpg","path":"9bf/73a/9bf73a7672362d15c3a4c0776426ace3.jpg","date":"2010-10-06","year":2010,"month":10,"lon":127.03555,"lat":37.5,"tags":"%EA%B5%AC%EA%B8%80,%EB%AA%A8%EB%B0%94%EC%9D%BC,%EC%95%88%EB%93%9C%EB%A1%9C%EC%9D%B4%EB%93%9C,%EC%9D%8C%EC%84%B1%EC%9D%B8%EC%8B%9D","S2CellId":"3442900000000000","result":2028,"accuracy":0.12368871,"title":"2010-10-06+20.32.53"}
{"id":2894566235,"url":"http://farm4.staticflickr.com/3246/2894566235_674a0a6a1a.jpg","path":"ee1/4f5/ee14f5966ed3a9eea56ece928c7f91.jpg","date":"2008-09-27","year":2008,"month":9,"lon":127.11538,"lat":37.518578,"tags":"%EC%84%9C%EC%9A%B8,%EC%86%A1%ED%8C%8C,%EC%B6%95%EC%A0%9C,%ED%95%9C%EC%84%B1%EB%B0%B1%EC%A0%9C%EB%AC%B8%ED%99%94%EC%A0%9C,festival,korea,seoul,songpa","S2CellId":"89c6c62f00000000","result":9152,"accuracy":0.025480412,"title":"IMG_0006"}
{"id":8527920994,"url":"http://farm9.staticflickr.com/8088/8527920994_18f7ca2ecf.jpg","path":"bd1/6ae/bd16aede9dfdcfff0eae6f2efd58.jpg","date":"2013-03-04","year":2013,"month":3,"lon":127.02467,"lat":37.496223,"tags":"instagram+app,iphoneography,normal,square,square+format","S2CellId":"3442ae9000000000","result":2087,"accuracy":0.013271158,"title":"%EC%83%88%EB%A1%9C%EC%9A%B4+%EB%A9%94%EB%89%B4%EC%97%90+%EB%8F%84%EC%A0%84.+%EB%B3%B6%EC%9D%8C+%EC%9A%B0%EB%8F%99"}
{"id":321781525,"url":"http://farm1.staticflickr.com/138/321781525_18d2a4c8eb.jpg","path":"815/f02/815f0272f6b2692b278c9442c4b7b3.jpg","date":"2006-10-03","year":2006,"month":10,"lon":127.146576,"lat":37.423206,"tags":"football,k-league,korea,soccer,sports","S2CellId":"14de400000000000","result":1335,"accuracy":0.09329164,"title":"IMG_1507.jpg"}
{"id":270043040,"url":"http://farm1.staticflickr.com/108/270043040_7d90f24e6a.jpg","path":"261/428/2614285ddbeeae4582c172ee0ea7686.jpg","date":"2006-10-15","year":2006,"month":10,"lon":127.85305,"lat":37.68273,"tags":"%EB%B9%84%EB%B0%9C%EB%94%94%ED%8C%8C%ED%81%AC,%EC%97%AC%ED%96%89,%ED%99%8D%EC%B2%9C","S2CellId":"357cf00000000000","result":2322,"accuracy":0.054107662,"title":"%EC%98%A4%EC%85%98%EC%9B%94%EB%93%9C"}
{"id":5433332441,"url":"http://farm6.staticflickr.com/5016/5433332441_79f9599dd0.jpg","path":"62c/494/62c494d3e6329028334a167ae3b44d80.jpg","date":"2010-10-30","year":2010,"month":10,"lon":127.52449,"lat":37.79622,"tags":"jooyoung,julie,korea,namiisland,namiseom+jooyoung+julie+korea+namiisland+namiseom","S2CellId":"89c2f3c000000000","result":9104,"accuracy":0.06189414,"title":"namiseom"}
{"id":2680272744,"url":"http://farm4.staticflickr.com/3100/2680272744_65a47a79fc.jpg","path":"f9c/639/f9c639f05d3f3ab5b9310872a622ac5.jpg","date":"2008-07-18","year":2008,"month":7,"lon":127.116196,"lat":37.284405,"tags":"folk,korea,korean+folk+village,village","S2CellId":"30da3f0000000000","result":1637,"accuracy":0.21665214,"title":"Korean+Folk+Village"}
{"id":214070409,"url":"http://farm1.staticflickr.com/85/214070409_a7abafc56c.jpg","path":"ede/37d/ede37d327f7fb37183adc1c5dbec9f97.jpg","date":"2006-08-13","year":2006,"month":8,"lon":127.123405,"lat":37.523205,"tags":"korea,lotte,seoul,world","S2CellId":"0d62100000000000","result":532,"accuracy":0.024008375,"title":"Stageshow","description":"See+where+this+photo+was+taken+at+%3Ca+href%3D%22http%3A%2F%2Fmaps.yuan.cc%22+rel%3D%22nofollow%22%3Emaps.yuan.cc%3C%2Fa%3E."}
{"id":5761552904,"url":"http://farm3.staticflickr.com/2083/5761552904_7fe5489765.jpg","path":"acf/599/acf599909b855ab15a97d2a3a529996.jpg","date":"2011-04-21","year":2011,"month":4,"lon":127.02006,"lat":37.430508,"tags":"%ED%81%AC%EB%A1%9C%EC%8A%A4%EB%93%9C%EB%A0%88%EC%84%9C,crossdresser,crossdressing,venusgirl%C2%B4%E2%80%B3%C2%B0%C2%B3%E2%99%A1","S2CellId":"4cc91a5100000000","result":5890,"accuracy":0.03959682,"title":"Glamour-Girl","description":"Crossdresser+-+VenusGirl%C2%B4%E2%80%B3%C2%B0%C2%B3%E2%99%A1%0A%0A%EC%84%B8%EC%83%81%EC%9D%B4+%EC%95%84%EB%A6%84%EB%8B%A4%EC%9A%B4+%EA%B1%B4+%EB%82%B4%EA%B0%80+%EC%9E%88%EA%B8%B0+%EB%95%8C%EB%AC%B8%EC%9D%B4%EC%95%BC..."}
{"id":9464402272,"url":"http://farm4.staticflickr.com/3817/9464402272_030f3f28cf.jpg","path":"94a/66b/94a66b445b679c9d4aaa8f75506a6d.jpg","date":"2013-07-13","year":2013,"month":7,"lon":127.265625,"lat":37.73597,"tags":"%EC%9E%A5%EB%A7%88,%ED%95%9C%EA%B5%AD,jangma,korea,rain,raindrops","S2CellId":"88d0a631cabb5071","result":8563,"accuracy":0.021347426,"title":"P1120726"}
{"id":2533316781,"url":"http://farm3.staticflickr.com/2107/2533316781_ca93fef534.jpg","path":"1d9/790/1d97904e7d9184e09a0a996b5c1389.jpg","date":"2008-05-29","year":2008,"month":5,"lon":127.11784,"lat":37.516975,"tags":"135,2008,35mm,b%26w,black%26white,film,korea,seoul,supersampler","S2CellId":"94ce59f000000000","result":9723,"accuracy":0.059680786,"title":"Is+There+A+Point+When+I+Went+Wrong%3F++Was+There+a+Point+When+I+Was+Ever+Right%3F","description":"See+where+this+photo+was+taken+at+%3Ca+href%3D%22http%3A%2F%2Fmaps.yuan.cc%2F%22+rel%3D%22nofollow%22%3Emaps.yuan.cc%2F%3C%2Fa%3E."}
{"id":7111523855,"url":"http://farm8.staticflickr.com/7177/7111523855_bdfb039b4d.jpg","path":"ddb/73c/ddb73cfe15721867db8a0d5a4434b5.jpg","date":"2012-04-07","year":2012,"month":4,"lon":127.01294,"lat":37.57459,"tags":"exploring,full+moon,korea,seoul,south+korea,traveling","S2CellId":"89c25f4000000000","result":9083,"accuracy":0.026046546,"title":"Full+moon"}
{"id":8547752221,"url":"http://farm9.staticflickr.com/8388/8547752221_e4c023647d.jpg","path":"2e8/023/2e802349f2e9271c8bf4f5671fd3133.jpg","date":"2013-03-11","year":2013,"month":3,"lon":127.104836,"lat":37.799,"tags":"instagram+app,iphoneography,square,square+format","S2CellId":"346c400000000000","result":2192,"accuracy":0.012293569,"title":"%EA%B0%90%EC%8B%A4"}
{"id":10512794523,"url":"http://farm4.staticflickr.com/3733/10512794523_bb7544cf03.jpg","path":"632/aa1/632aa1dc3fefccbd8bbf4f4939d8c15.jpg","date":"2013-10-27","year":2013,"month":10,"lon":127.06651,"lat":37.551914,"tags":"%EA%B0%80%EC%9D%84,%EB%B0%A4,fall,night,original+filter","S2CellId":"80dd311000000000","result":7373,"accuracy":0.0058008707,"title":"Fall+down","description":"Zzzzzzzzz"}
{"id":8340735791,"url":"http://farm9.staticflickr.com/8072/8340735791_f3564decbb.jpg","path":"619/f80/619f80dcd38621f5e11bb788d98274cb.jpg","date":"2013-01-03","year":2013,"month":1,"lon":127.02467,"lat":37.496223,"tags":"instagram+app,iphoneography,normal,square,square+format","S2CellId":"5f0b2c0000000000","result":6349,"accuracy":0.021024635,"title":"%EC%B6%94%EC%9A%B8%EB%95%8C+%EB%94%B0%EB%9C%BB%ED%95%9C%EA%B2%8C+%EC%B5%9C%EA%B3%A0..."}
{"id":306592698,"url":"http://farm1.staticflickr.com/111/306592698_af4c0b047c.jpg","path":"794/164/794164c0748025bbb6d7a56645f03ce5.jpg","date":"2006-11-24","year":2006,"month":11,"lon":127.298065,"lat":37.22828,"tags":"samsung,workshop","S2CellId":"47c9cc0000000000","result":4399,"accuracy":0.007654512,"title":"%EB%AC%B4%EC%96%BC+%EA%B3%A0%EB%A5%BC%EA%B9%8C","description":"%ED%9D%A0%7E%7E"}
{"id":4803461242,"url":"http://farm5.staticflickr.com/4073/4803461242_7629d536f1.jpg","path":"d9b/66f/d9b66f32401c97db1e4e0e7369a792b.jpg","date":"2010-07-09","year":2010,"month":7,"lon":127.05963,"lat":37.511333,"tags":"coex+aquarium,coex+mall,seoul,south+korea","S2CellId":"880e2b7000000000","result":8112,"accuracy":0.05941529,"title":"Prarie+dogs+-+not+aquatic%21"}
{"id":4453768358,"url":"http://farm5.staticflickr.com/4059/4453768358_907ba11963.jpg","path":"fe9/374/fe9374ffa3361db1d5298fd54c4a9f35.jpg","date":"2010-03-22","year":2010,"month":3,"lon":127.02758,"lat":37.498497,"tags":"%EC%B9%B4%EC%B9%B4%EC%98%A4,%EC%B9%B4%EC%B9%B4%EC%98%A4%ED%86%A1","S2CellId":"8852c00000000000","result":8415,"accuracy":0.13214034}
{"id":3546381810,"url":"http://farm4.staticflickr.com/3663/3546381810_0a566ced96.jpg","path":"c5f/afb/c5fafbcc38bc8da9e11c832a45c410.jpg","date":"2009-05-18","year":2009,"month":5,"lon":127.13673,"lat":37.53425,"tags":"%EB%8F%99%EB%8F%99%EC%9D%B4","S2CellId":"0098c00000000000","result":3,"accuracy":0.1462903,"title":"%EC%8C%8D%EC%BB%A4%ED%94%8C%21%21","description":"%EC%95%BD%EA%B0%84+%EC%B0%A1%EA%B7%B8%EB%A6%AC%EA%B3%A0+%EB%88%88%EC%9D%84+%EB%9C%A8%EB%A9%B4+%EC%8C%8D%EC%BB%A4%ED%94%8C%EC%9D%B4+%EC%83%9D%EA%B8%B4%EB%8B%A4.+%0A%EC%84%A4%EB%A7%88+%EC%A3%BC%EB%A6%84%EC%9D%80+%EC%95%84%EB%8B%88%EA%B2%A0%EC%A7%80%3F"}
{"id":8209192101,"url":"http://farm9.staticflickr.com/8484/8209192101_b5145a253e.jpg","path":"ac9/b41/ac9b4137b440dee5671c431e156e439b.jpg","date":"2012-11-22","year":2012,"month":11,"lon":127.71358,"lat":37.87038,"tags":"%EA%B9%80%EB%AF%B8%EA%B2%BD,%EC%8B%9C%EC%9E%A5,%EC%B6%98%EC%B2%9C,%ED%92%8D%EB%AC%BC%EC%8B%9C%EC%9E%A5,5%EC%9D%BC%EC%9E%A5","S2CellId":"357ca2f000000000","result":2313,"accuracy":0.023107847,"title":"%EC%B6%98%EC%B2%9C+%ED%92%8D%EB%AC%BC%EC%8B%9C%EC%9E%A5+5%EC%9D%BC%EC%9E%A5+%287%29"}
{"id":2053060431,"url":"http://farm3.staticflickr.com/2127/2053060431_dde7efae3f.jpg","path":"6f1/e30/6f1e301c41575cccc8ecfd341b5011c7.jpg","date":"2007-11-18","year":2007,"month":11,"lon":127.01122,"lat":37.586758,"tags":"%EA%B0%80%EC%9D%84,%EB%8B%A4%EC%9D%B4%EC%96%B4%EB%A6%AC,%EC%82%BC%EC%B2%AD,%EC%84%9C%EC%9A%B8,%ED%92%8D%EA%B2%BD,autumn,korea,samchung,seoul,toughkidcst","S2CellId":"80bf000000000000","result":7137,"accuracy":0.039034788,"title":"IMG_3901.jpg"}
{"id":466269498,"url":"http://farm1.staticflickr.com/198/466269498_4b35f2cd48.jpg","path":"723/a6c/723a6cefe053dc244bb7448949ea23f.jpg","date":"2007-04-19","year":2007,"month":4,"lon":127.04204,"lat":37.51531,"tags":"%EB%85%BC%ED%98%84%EB%8F%99,apt","S2CellId":"5486717900000000","result":6123,"accuracy":0.040549506,"title":"%EC%8B%A0%EC%98%81+%EC%A7%80%EC%9B%B0"}
{"id":2681915477,"url":"http://farm4.staticflickr.com/3236/2681915477_a2dcf82330.jpg","path":"2ec/db8/2ecdb897669944b998806c7b3bfd96.jpg","date":"2008-07-18","year":2008,"month":7,"lon":127.116196,"lat":37.284405,"tags":"folk+village,korea,korean+folk+village","S2CellId":"6001140000000000","result":6408,"accuracy":0.1471014,"title":"IMG_1081"}
{"id":4547130351,"url":"http://farm5.staticflickr.com/4011/4547130351_ac2f3f8658.jpg","path":"c15/5bc/c155bce3be5f70a27e3c7169338fbce7.jpg","date":"2010-04-24","year":2010,"month":4,"lon":127.10496,"lat":37.51868,"tags":"2010,april,hipstamtic,iphone,korea,seoul,subway","S2CellId":"47e66e1d00000000","result":4590,"accuracy":0.013914903,"title":"In+Every+List+You+Will+Be+at+the+Top"}
{"id":449310262,"url":"http://farm1.staticflickr.com/221/449310262_5fb0d86dd4.jpg","path":"a15/aaf/a15aafd9498671d9dc49e15ea1873810.jpg","date":"2007-04-06","year":2007,"month":4,"lon":127.072075,"lat":37.51667,"tags":"%EA%B0%9C%EB%A7%89%EC%8B%9D,%EB%8C%80%ED%95%9C%EB%AF%BC%EA%B5%AD,%EC%84%9C%EC%9A%B8,%EC%95%BC%EA%B5%AC%EC%9E%A5,%EC%9E%A0%EC%8B%A4,%ED%94%84%EB%A1%9C%EC%95%BC%EA%B5%AC,%ED%95%9C%EA%B5%AD,2007,asia,asian,baseball,capture,face,image,kbl,korea,korean,league,man,opening,people,season,south,sports,woman","S2CellId":"601889d000000000","result":6467,"accuracy":0.09128013,"title":"IMG_5085.jpg"}
{"id":5085488268,"url":"http://farm5.staticflickr.com/4124/5085488268_eac4a78f18.jpg","path":"97a/c39/97ac396e6a741d1269241dbcda5ecf13.jpg","date":"2010-10-10","year":2010,"month":10,"lon":127.152245,"lat":37.37821,"tags":"%EC%98%A4%EB%A6%AC,%EC%9C%A8%EB%8F%99%EA%B3%B5%EC%9B%90,duck,yuldong+park","S2CellId":"89c2570000000000","result":8951,"accuracy":0.03489188,"title":"Duck+%28%EC%98%A4%EB%A6%AC%29"}
{"id":12368506504,"url":"http://farm8.staticflickr.com/7383/12368506504_b357cc1f28.jpg","path":"3c8/82d/3c882db3746dbefd675a1d861d6dc616.jpg","date":"2014-01-17","year":2014,"month":1,"lon":127.00051,"lat":37.572598,"tags":"chongro,gourmet,korea,korean,seoul","S2CellId":"5ff5000000000000","result":6371,"accuracy":0.011959009,"title":"yangji+dakkanmari","description":"korean+style+chicken+soup+in+jongro"}
{"id":751788840,"url":"http://farm2.staticflickr.com/1381/751788840_fa85ae6816.jpg","path":"7e5/323/7e5323af9086ae377a1fe86939e09d65.jpg","date":"2007-07-04","year":2007,"month":7,"lon":127.02684,"lat":37.5717,"tags":"%EB%B3%B4%EC%9A%B0,%EC%84%A0%ED%92%8D%EA%B8%B0,%EC%B1%85%EC%83%81,ipod,kiyong2","S2CellId":"48718ec000000000","result":5061,"accuracy":0.22595139,"title":"IMG_2615.JPG"}
{"id":1171673512,"url":"http://farm2.staticflickr.com/1217/1171673512_3fb57b25a4.jpg","path":"2d2/7b6/2d27b6df2e546f8edc3065dc696d647b.jpg","date":"2007-08-18","year":2007,"month":8,"lon":127.12864,"lat":37.32417,"tags":"%EB%AF%BC%EC%86%8D%EC%B4%8C,classic,korea,people,seoul,toughkidcst,traditional","S2CellId":"886b700000000000","result":8494,"accuracy":0.16356258,"title":"IMG_0820.jpg"}
{"id":2815888887,"url":"http://farm4.staticflickr.com/3020/2815888887_710f681571.jpg","path":"817/55e/81755eb1f348b5b1d91fb9aa514be141.jpg","date":"2008-08-30","year":2008,"month":8,"lon":127.38888,"lat":37.697132,"tags":"%EC%81%98%EB%9D%A0,%ED%94%84%EB%9E%91%EC%8A%A4,france,lovesera,petite","S2CellId":"12a7c00000000000","result":769,"accuracy":0.19971187,"title":"Petite+France+122"}
{"id":5478560284,"url":"http://farm6.staticflickr.com/5298/5478560284_6ef59aa38e.jpg","path":"d52/a47/d52a47c43c67f3668364538cc32dd.jpg","date":"2011-02-25","year":2011,"month":2,"lon":127.01308,"lat":37.28137,"tags":"cor%C3%A9e,khu","S2CellId":"89c25a2700000000","result":9056,"accuracy":0.102715865,"title":"P1090499"}
{"id":2551425422,"url":"http://farm4.staticflickr.com/3276/2551425422_1557dbfb73.jpg","path":"4a5/6cc/4a56ccb84acabecad26de21f53716ce1.jpg","date":"2008-05-31","year":2008,"month":5,"lon":127.086754,"lat":37.28252,"tags":"60mm,animal,bug,closeup,insect,korea,kwangkyo,kyoungki,macro,mountain,suji,toughkid","S2CellId":"6b0d000000000000","result":6662,"accuracy":0.016949268,"title":"a+pair+of+lovers.","description":"%ED%84%B8%EB%B3%B4%EB%B0%94%EA%B5%AC%EB%AF%B8%0Arice+weevil.%0A%0AEnaptorrhinus+granulatus+Pascoe%0A%EB%94%B1%EC%A0%95%EB%B2%8C%EB%A0%88%EB%AA%A9+%EB%B0%94%EA%B5%AC%EB%AF%B8%EA%B3%BC%0A%0A%EB%AA%B8%EA%B8%B8%EC%9D%B4+++++8%7E13mm%0A%EC%B6%9C%ED%98%84%EC%8B%9C%EA%B8%B0+5%7E7%EC%9B%94%0A%ED%95%9C%EC%82%B4%EC%9D%B4++++%EC%95%8C%C2%B7%EC%95%A0%EB%B2%8C%EB%A0%88%C2%B7%EB%B2%88%EB%8D%B0%EA%B8%B0%C2%B7%EC%96%B4%EB%A5%B8%EB%B2%8C%EB%A0%88%EB%A5%BC+%EA%B1%B0%EC%B9%98%EB%8A%94+%EA%B0%96%EC%B6%98%ED%83%88%EB%B0%94%EA%BF%88%0A%EC%84%9C%EC%8B%9D%EC%A7%80++++%EC%82%B0%EC%A7%80%0A%EB%B6%84%ED%8F%AC%EC%A7%80++++%ED%95%9C%EA%B5%AD%C2%B7%EC%A4%91%EA%B5%AD%0A%0AKwangkyo+mountain.+%0ASuji+-+KyoungKi"}
{"id":9477043251,"url":"http://farm3.staticflickr.com/2805/9477043251_9dcd6e04b4.jpg","path":"916/72e/91672e25acb4733818bbb42b712ef3.jpg","date":"2013-08-11","year":2013,"month":8,"lon":127.265625,"lat":37.73597,"tags":"%E6%B0%B4%E6%9E%9C,%EA%B3%BC%EC%9D%BC,food+and+beverage,fruit,summer+fruits","S2CellId":"94cdc00000000000","result":9696,"accuracy":0.031551074,"title":"Summer+Fruits"}
{"id":2680290368,"url":"http://farm4.staticflickr.com/3113/2680290368_fdb240ac77.jpg","path":"94c/e79/94ce795abd218bda2a21f0405d7fce5d.jpg","date":"2008-07-18","year":2008,"month":7,"lon":127.116196,"lat":37.284405,"tags":"folk,korea,korean+folk+village,village","S2CellId":"357b500000000000","result":2297,"accuracy":0.22689606,"title":"Korean+Folk+Village"}
{"id":103369559,"url":"http://farm1.staticflickr.com/32/103369559_a9525d45b7.jpg","path":"54c/116/54c116fccaa69163fea922d6bb7d94d8.jpg","date":"2006-02-01","year":2006,"month":2,"lon":127.1985,"lat":37.29085,"tags":"everland,korea,yongin","S2CellId":"47e61d1d00000000","result":4562,"accuracy":0.40852216,"title":"Everland"}
{"id":2248806078,"url":"http://farm3.staticflickr.com/2058/2248806078_ff5c5f3fb3.jpg","path":"d09/c9f/d09c9f4932179cbe53be37fe851d517.jpg","date":"2007-11-02","year":2007,"month":11,"lon":127.14426,"lat":37.500736,"tags":"asia,autumn,fall,green,korea,nature,seoul,south+korea,trees,yellow","S2CellId":"0d42100000000000","result":347,"accuracy":0.029071443,"title":"Autumn"}
{"id":3779631523,"url":"http://farm3.staticflickr.com/2550/3779631523_778420aa32.jpg","path":"bf0/3b8/bf03b88c48fcd88bc4184eb450f66e.jpg","date":"2009-07-11","year":2009,"month":7,"lon":127.066895,"lat":37.617237,"tags":"flower,fly,korea,sal+1680z,seoul,sony+a350,south+korea","S2CellId":"883c400000000000","result":8355,"accuracy":0.020913398,"title":"Fly+%28%ED%8C%8C%EB%A6%AC%29"}
{"id":1677214971,"url":"http://farm3.staticflickr.com/2263/1677214971_ddf3a09bb7.jpg","path":"cb1/5e2/cb15e23a027a984b91cd7f1bd837.jpg","date":"2007-10-19","year":2007,"month":10,"lon":127.05499,"lat":37.50782,"tags":"hack+day,krhackday2007,y%21k,y%21k+hack+day,yahoo","S2CellId":"357bc00000000000","result":2299,"accuracy":0.0932846,"title":"Y%21K+Korea+2007+first+Hack+Day","description":"Y%21K+Korea+2007+first+Hack+Day"}
{"id":2646863933,"url":"http://farm4.staticflickr.com/3003/2646863933_7344c58dc2.jpg","path":"c47/060/c47060cfbf589f87da748985e1533777.jpg","date":"2008-07-06","year":2008,"month":7,"lon":127.058235,"lat":37.513706,"tags":"seoul,south+korea,stefan+klocek,travel,trip","S2CellId":"357ca24000000000","result":2309,"accuracy":0.18650556,"title":"IMG_2225"}
{"id":4085702264,"url":"http://farm3.staticflickr.com/2551/4085702264_11d1266e8d.jpg","path":"d8b/0bb/d8b0bbe94e2e7d9a79f129cbb39efe6.jpg","date":"2009-10-23","year":2009,"month":10,"lon":127.06684,"lat":37.617302,"tags":"byeol,dog,miniature+schnauzer,sal+1680z,sony+a350","S2CellId":"880e2c4000000000","result":8114,"accuracy":0.023235427,"title":"Byeol+%28%EB%B3%84%29"}
{"id":10180563333,"url":"http://farm6.staticflickr.com/5462/10180563333_789c0a6d5d.jpg","path":"b42/8e5/b428e5c15d26b16645d2e52ddb62ed.jpg","date":"2013-10-09","year":2013,"month":10,"lon":127.0053,"lat":37.576893,"tags":"%EC%9D%B4%ED%99%94%EB%B2%BD%ED%99%94%EB%A7%88%EC%9D%84,ihwa+mural+village,mural","S2CellId":"88d9b6c000000000","result":8600,"accuracy":0.01386078,"title":"Ihwa+Mural+Village"}
{"id":306607816,"url":"http://farm1.staticflickr.com/106/306607816_946d8a220b.jpg","path":"d89/372/d893729c1e33171137a02246f505bd.jpg","date":"2006-11-24","year":2006,"month":11,"lon":127.10598,"lat":37.254723,"tags":"samsung,workshop","S2CellId":"47c9b00000000000","result":4397,"accuracy":0.03914671,"title":"%EB%AF%BC%EC%B2%A0%EC%94%A8","description":"%EC%99%80+%EB%82%98%EB%AC%B4"}
{"id":5126338256,"url":"http://farm2.staticflickr.com/1172/5126338256_23c4cfe9f2.jpg","path":"c75/eb1/c75eb12e7bb787f7be1b2c541ac916.jpg","date":"2010-10-23","year":2010,"month":10,"lon":127.039665,"lat":37.5055,"tags":"%E9%9F%93%E5%9C%8B,%E9%A6%96%E7%88%BE,2010,korea,seoul","S2CellId":"3442ac4000000000","result":2082,"accuracy":0.006095761,"title":"%E6%88%BF%E9%96%93%E4%B8%80%E8%A7%92"}
{"id":7502238726,"url":"http://farm8.staticflickr.com/7254/7502238726_2e6fdb0747.jpg","path":"223/191/22319191cf28a595ce3565e01cbbf9b5.jpg","date":"2012-05-19","year":2012,"month":5,"lon":127.12101,"lat":37.382004,"tags":"%EA%B2%BD%EA%B8%B0%EB%8F%84,%EB%84%A4%EC%9D%B4%EB%B2%84+%EA%B0%95%EC%82%AC%EB%AA%A8,%EB%8C%80%ED%95%9C%EB%AF%BC%EA%B5%AD,%EB%B6%84%EB%8B%B9%EA%B5%AC%EC%B2%AD,%EC%84%B1%EB%82%A8%EC%8B%9C,%EC%95%A0%EA%B2%AC%EA%B0%84%EC%8B%9D,%EC%9E%90%EC%9D%B4%EC%96%B8%ED%8A%B8+%EC%8A%88%EB%82%98%EC%9A%B0%EC%A0%80,%ED%99%94%EC%9D%B4%ED%8A%B8+%EC%8A%88%EB%82%98%EC%9A%B0%EC%A0%80,bundang-gu+office,miniature+schnauzer,white+schnauzer","S2CellId":"4b5b000000000000","result":5824,"accuracy":0.026457421,"title":"It%27s+delicious+%28%EB%A7%9B%EC%9E%88%EC%96%B4%29","description":"White+miniature+schnauzer+%28%ED%99%94%EC%9D%B4%ED%8A%B8+%EB%AF%B8%EB%8B%88%EC%96%B4%EC%B2%98+%EC%8A%88%EB%82%98%EC%9A%B0%EC%A0%80%29"}
{"id":7195780530,"url":"http://farm6.staticflickr.com/5316/7195780530_7116b7f54f.jpg","path":"311/dc5/311dc5b42bcd67722c4de370eafe7b.jpg","date":"2012-05-12","year":2012,"month":5,"lon":127.11774,"lat":37.5181,"tags":"asia,korea,olympic+park,seoul","S2CellId":"6000e10000000000","result":6381,"accuracy":0.025603212,"title":"Walk+in+the+park","description":"%40+Olympic+park%2C+Seoul"}
{"id":5367123072,"url":"http://farm6.staticflickr.com/5247/5367123072_2cc205dc76.jpg","path":"db7/992/db7992e5eb4a5c2cee9e81c8677cc7.jpg","date":"2011-01-15","year":2011,"month":1,"lon":127.02255,"lat":37.58703,"tags":"color,extreme+close,eye,iris,photo+test+macro,pupil,soul,texture","S2CellId":"3755b00000000000","result":2431,"accuracy":0.0052944855,"title":"Macro+Eye+%28take+two%29","description":"580EXII+flash+camera+right.++Two+cheap-o+softboxes+for+fill+camera+left.++You+can+even+see+the+texture+of+her+pupil.++Gotta+love+it."}
{"id":5223875614,"url":"http://farm6.staticflickr.com/5122/5223875614_c1c9907079.jpg","path":"be6/2f9/be62f9e7a0c3454a40955ebaa9a9ab9a.jpg","date":"2010-11-27","year":2010,"month":11,"lon":127.03885,"lat":37.467182,"tags":"garterbelt,panty,stocking,with","S2CellId":"12d5840000000000","result":920,"accuracy":0.1256531,"title":"PSG+%2846%29","description":"Player_Ursate"}
{"id":5917450885,"url":"http://farm7.staticflickr.com/6007/5917450885_653627586c.jpg","path":"c7a/569/c7a569f9c722aa8e8ef217dbc69935a9.jpg","date":"2011-07-09","year":2011,"month":7,"lon":127.05918,"lat":37.512295,"tags":"%EB%8C%80%ED%95%9C%EB%AF%BC%EA%B5%AD,%EC%84%9C%EC%9A%B8,2011%EC%84%9C%EC%9A%B8%EC%98%A4%ED%86%A0%EC%82%B4%EB%A1%B1,korea,saas2011,seoul,seoul+auto+salon+2011","S2CellId":"3397cbc000000000","result":1925,"accuracy":0.10461764,"title":"2011+%EC%84%9C%EC%9A%B8%EC%98%A4%ED%86%A0%EC%82%B4%EB%A1%B1%2FSeoul+Auto+Salon+2011","description":"mR.Son.Photo%40gmail.com"}
{"id":145803601,"url":"http://farm1.staticflickr.com/54/145803601_8400309829.jpg","path":"93a/b9e/93ab9e9b6685133fd3dd839d5536b644.jpg","date":"2006-05-13","year":2006,"month":5,"lon":127.05628,"lat":37.51667,"tags":"2006,black,blur,green,korea,night,orange,pongun-sa,red,seoul,temple","S2CellId":"132f61b700000000","result":1108,"accuracy":0.009258864,"title":"temple+color+blur"}
{"id":294450970,"url":"http://farm1.staticflickr.com/103/294450970_609a07127b.jpg","path":"f07/f22/f07f222cd528c72765fdcd9f9f197417.jpg","date":"2006-11-11","year":2006,"month":11,"lon":127.0132,"lat":37.47915,"tags":"2006,arts,korea,november,performing,performing+arts,seoul","S2CellId":"357ca2f000000000","result":2313,"accuracy":0.09704882,"title":"A+Beautiful+Second+Option","description":"See+where+this+photo+was+taken+at+%3Ca+href%3D%22http%3A%2F%2Fmaps.yuan.cc%2F%22+rel%3D%22nofollow%22%3Emaps.yuan.cc%2F%3C%2Fa%3E.%0A%0A%3Ca+href%3D%22http%3A%2F%2Fwww.sac.or.kr%2Feng%2Fabout%2Fresident.jsp%22+rel%3D%22nofollow%22%3ESeoul+Performing+Arts+Center%3C%2Fa%3E"}
{"id":5145719710,"url":"http://farm2.staticflickr.com/1346/5145719710_acbdd46cc0.jpg","path":"19d/014/19d0148a8e5960c2f88193732b68c9af.jpg","date":"2010-11-04","year":2010,"month":11,"lon":127.061516,"lat":37.57016,"tags":"%EA%B5%90%EC%9C%A1%EA%B2%BD%EC%A0%9C%ED%95%99,%EA%B5%90%EC%9C%A1%EC%8B%AC%EB%A6%AC%ED%95%99,%EA%B5%90%EC%9C%A1%ED%95%99+%EB%B0%8F+%EA%B5%AD%EC%A0%9C%EA%B0%9C%EB%B0%9C%ED%95%99,%EB%9F%B0%EB%8D%98%EB%8C%80%ED%95%99%EA%B5%90+%EC%86%8C%EC%86%8D%EC%9D%98+%EA%B5%90%EC%9C%A1%EC%97%B0%EA%B5%AC%EB%8C%80%ED%95%99%EC%9B%90,%EB%B9%84%EA%B5%90+%EA%B5%90%EC%9C%A1%ED%95%99,edd,education,education+research,english,english+education,ewha+womens+university,institute+of+education,ioe,ioe+london,korea,london+university,masters,phd,postgraduate+school+of+education,research,tesol,uk+edu+centre,university+of+london,world+englishes","S2CellId":"5f8b000000000000","result":6361,"accuracy":0.5902731,"title":"IOE+at+education+exhibition+in+Seoul","description":"The+IOE%27s+stand+was+extremely+busy+during+the+2+days+of+exhibition+in+Seoul.+Professor+Richard+Andrews+was+on+hand+to+give+detailed+advice+on+a+range+of+masters+and+doctoral+options%2C+including+in+the+areas+of+English+Education+and+TESOL.+We+worked+in+close+partnership+with+our+agent+in+Korea%2C+%3Ca+href%3D%22http%3A%2F%2Fwww.ukcentre.co.kr%2F%22+rel%3D%22nofollow%22%3EUK+Edu+Centre%3C%2Fa%3E."}
{"id":2679455775,"url":"http://farm4.staticflickr.com/3018/2679455775_9e22ddcc64.jpg","path":"b0c/04a/b0c04af66a92dc7c1ec4e49f8d1c65.jpg","date":"2008-07-18","year":2008,"month":7,"lon":127.116196,"lat":37.284405,"tags":"folk,korea,korean+folk+village,village","S2CellId":"30d4000000000000","result":1622,"accuracy":0.055942122,"title":"Korean+Folk+Village"}
{"id":4802645377,"url":"http://farm5.staticflickr.com/4094/4802645377_ff69b82d16.jpg","path":"b44/87e/b4487efc5d22c1d9786eec63e515c48a.jpg","date":"2010-07-09","year":2010,"month":7,"lon":127.05963,"lat":37.511333,"tags":"coex+mall,jackie%27s+kitchen,jackie+chan,seoul,south+korea","S2CellId":"6018894000000000","result":6464,"accuracy":0.01529692,"title":"Look%2C+he+was+in+The+Tuxedo%2C+clearly+these+noodles+and+dim+sum+are+of+the+highest+quality%21"}
{"id":3771774486,"url":"http://farm3.staticflickr.com/2490/3771774486_b21eeffdc3.jpg","path":"809/6e8/8096e83df110ab42c5596384c53ab587.jpg","date":"2009-05-01","year":2009,"month":5,"lon":127.01719,"lat":37.4278,"tags":"%EB%8F%99%EB%AC%BC%EC%9B%90","S2CellId":"3468024000000000","result":2126,"accuracy":0.076279275,"title":"%EB%8F%99%EB%AC%BC%EC%9B%90"}
{"id":2062964926,"url":"http://farm3.staticflickr.com/2333/2062964926_f9746e1223.jpg","path":"f46/38f/f4638f3512752168c31aab15e3549af.jpg","date":"2007-11-24","year":2007,"month":11,"lon":127.40278,"lat":37.753548,"tags":"%EA%B0%80%ED%8F%89,%EB%B3%B4%EC%9A%B0,%EC%95%84%EC%B9%A8%EA%B3%A0%EC%9A%94%EC%9B%90%EC%98%88%EC%88%98%EB%AA%A9%EC%9B%90,%ED%96%89%ED%98%84%EB%A6%AC,m.t","S2CellId":"3468700000000000","result":2158,"accuracy":0.19515397,"title":"IMG_3582.JPG"}
{"id":7654625668,"url":"http://farm9.staticflickr.com/8287/7654625668_c6ee35f23a.jpg","path":"c75/431/c75431828c14cd0d2f1485ac1cd91d0.jpg","date":"2012-07-27","year":2012,"month":7,"lon":127.046585,"lat":37.709084,"tags":"2012,asia,korea,seoul","S2CellId":"357cbc0000000000","result":2320,"accuracy":0.066670515,"title":"Uijeongbu%2C+outside+Seoul%2C+Korea"}
{"id":9517924395,"url":"http://farm4.staticflickr.com/3771/9517924395_2dda23b130.jpg","path":"6ec/5d7/6ec5d742d92ee52e6de68d4c9c592ceb.jpg","date":"2013-08-14","year":2013,"month":8,"lon":127.17795,"lat":37.60895,"tags":"photo+stream","S2CellId":"60185f0000000000","result":6456,"accuracy":0.054992277}
{"id":449308018,"url":"http://farm1.staticflickr.com/225/449308018_9123a69646.jpg","path":"18c/5c2/18c5c2f3666979a956925288cd11a.jpg","date":"2007-04-06","year":2007,"month":4,"lon":127.072075,"lat":37.51667,"tags":"%EA%B0%9C%EB%A7%89%EC%8B%9D,%EB%8C%80%ED%95%9C%EB%AF%BC%EA%B5%AD,%EC%84%9C%EC%9A%B8,%EC%95%BC%EA%B5%AC%EC%9E%A5,%EC%9E%A0%EC%8B%A4,%ED%94%84%EB%A1%9C%EC%95%BC%EA%B5%AC,%ED%95%9C%EA%B5%AD,2007,baseball,kbl,korean,league,opening,season,sports","S2CellId":"808de6c000000000","result":6994,"accuracy":0.19263707,"title":"IMG_4997.jpg"}
{"id":2331515166,"url":"http://farm4.staticflickr.com/3146/2331515166_8202afd662.jpg","path":"928/d53/928d53d3bb0454cbbc8288b96f8d66.jpg","date":"2008-03-13","year":2008,"month":3,"lon":127.004654,"lat":37.576553,"tags":"%ED%91%9C,%ED%99%94%EC%84%B1%EC%97%90%EC%84%9C%EC%98%A8%EB%82%A8%EC%9E%90%EA%B8%88%EC%84%B1%EC%97%90%EC%84%9C%EC%98%A8%EC%97%AC%EC%9E%90","S2CellId":"3442abf000000000","result":2081,"accuracy":0.020706087,"title":"IMG_0006"}
{"id":8335556790,"url":"http://farm9.staticflickr.com/8359/8335556790_db4c01ab5f.jpg","path":"6bd/21c/6bd21c56973b7835f7bb91e4f78ea3f9.jpg","date":"2012-12-28","year":2012,"month":12,"lon":127.05617,"lat":37.592167,"tags":"photo+stream","S2CellId":"357c990000000000","result":2304,"accuracy":0.2545347}
{"id":140550266,"url":"http://farm1.staticflickr.com/45/140550266_9fcb1f6403.jpg","path":"253/dd3/253dd34b4cc32a6fb9e010fb841bd62f.jpg","date":"2006-05-04","year":2006,"month":5,"lon":127.104774,"lat":37.35542,"tags":"american+montessori+school,korea,migeum,seongnam","S2CellId":"3554400000000000","result":2267,"accuracy":0.1743551,"title":"Children%27s+Day"}
{"id":145801326,"url":"http://farm1.staticflickr.com/48/145801326_b10f773e07.jpg","path":"1a7/0e1/1a70e1f4317f51ec51ab96ffb40d70.jpg","date":"2006-05-12","year":2006,"month":5,"lon":127.01199,"lat":37.491474,"tags":"2006,flowers,greetings,korea,seoul","S2CellId":"3442a97400000000","result":2042,"accuracy":0.026621653,"title":"Flowers+for+a+newly+opened+business"}
{"id":4586221421,"url":"http://farm5.staticflickr.com/4012/4586221421_f4103a9264.jpg","path":"179/ff8/179ff8927f9825d598f71c77aafeee4.jpg","date":"2010-05-05","year":2010,"month":5,"lon":127.063835,"lat":37.597572,"tags":"andre+francisco,jesus,korea,school,seoul,slp,twins","S2CellId":"3568f00000000000","result":2286,"accuracy":0.07027035,"title":"Twins+in+Jesus+t-shirts","description":"Jen+and+Ann+wearing+their+matching+shirts.+They+don%27t+usually+match%2C+but+in+the+beginning+I+could+only+tell+them+apart+by+who+I+could+imagine+giving+me+a+more+intense+death+stare.+That+one+was+Jen.+They+keep+wearing+these+shirts.+Maybe+it+is+a+camp%3F"}
{"id":5223865454,"url":"http://farm5.staticflickr.com/4152/5223865454_c30b4a4167.jpg","path":"ef7/dc7/ef7dc792de4be45ad2735baa796754.jpg","date":"2010-11-27","year":2010,"month":11,"lon":127.03885,"lat":37.467182,"tags":"garterbelt,panty,stocking,with","S2CellId":"47a7400000000000","result":3897,"accuracy":0.11498981,"title":"PSG+%2833%29","description":"Player_Ursate"}
{"id":1678106286,"url":"http://farm3.staticflickr.com/2022/1678106286_93acc18eae.jpg","path":"d37/b31/d37b31a2d9aadf44c7d1c9f03cbdcf7.jpg","date":"2007-10-19","year":2007,"month":10,"lon":127.05499,"lat":37.50782,"tags":"hack+day,krhackday2007,y%21k,y%21k+hack+day,yahoo","S2CellId":"0d19331000000000","result":217,"accuracy":0.24407825,"title":"Y%21K+Korea+2007+first+Hack+Day","description":"Y%21K+Korea+2007+first+Hack+Day"}
{"id":5693516278,"url":"http://farm6.staticflickr.com/5185/5693516278_e66992554d.jpg","path":"324/0bc/3240bc2b3abe6223cf2c7d2fd572a1ae.jpg","date":"2011-04-21","year":2011,"month":4,"lon":127.014725,"lat":37.44337,"tags":"%ED%81%AC%EB%A1%9C%EC%8A%A4%EB%93%9C%EB%A0%88%EC%84%9C,crossdresser,crossdressing,venusgirl%C2%B4%E2%80%B3%C2%B0%C2%B3%E2%99%A1","S2CellId":"357ca2f000000000","result":2313,"accuracy":0.01881317,"title":"Glamour-Girl","description":"Crossdresser+-+VenusGirl%C2%B4%E2%80%B3%C2%B0%C2%B3%E2%99%A1%0A%0A%EC%84%B8%EC%83%81%EC%9D%B4+%EC%95%84%EB%A6%84%EB%8B%A4%EC%9A%B4+%EA%B1%B4+%EB%82%B4%EA%B0%80+%EC%9E%88%EA%B8%B0+%EB%95%8C%EB%AC%B8%EC%9D%B4%EC%95%BC..."}
{"id":4275960989,"url":"http://farm3.staticflickr.com/2802/4275960989_78a37e3bee.jpg","path":"582/330/582330d6e3c5aeeecd39839fd77395.jpg","date":"2010-01-15","year":2010,"month":1,"lon":127.033264,"lat":37.497845,"tags":"food,korea,rice,seoul,soup","S2CellId":"80c8c43b00000000","result":7240,"accuracy":0.0046967897,"title":"Beef+soup+with+rice"}
{"id":8631059412,"url":"http://farm9.staticflickr.com/8394/8631059412_b1d595cd7a.jpg","path":"75c/b5c/75cb5cc63879667797ae5a9ec011d4.jpg","date":"2013-03-18","year":2013,"month":3,"lon":127.02667,"lat":37.62266,"tags":"%E6%98%8E%E6%B4%9E,%E9%9F%93%E5%9B%BD,korea,seoul","S2CellId":"47d8f40000000000","result":4466,"accuracy":0.008157501,"title":"Seoul+in+Korea%2C+%E6%98%8E%E6%B4%9E"}
{"id":1003934285,"url":"http://farm2.staticflickr.com/1042/1003934285_1b2749a0fb.jpg","path":"d3f/1a7/d3f1a7d2958172d1de185ccaa543491.jpg","date":"2007-08-03","year":2007,"month":8,"lon":127.63418,"lat":37.81602,"tags":"al,gangcheon,korea","S2CellId":"3724000000000000","result":2419,"accuracy":0.033495508,"title":"Gangchon","description":"Dakgalbi%3B+spicy+chicken+goodness."}
{"id":3380078416,"url":"http://farm4.staticflickr.com/3565/3380078416_c9d1096221.jpg","path":"45d/ac3/45dac336b0212662463fe4c8c4a149d3.jpg","date":"2009-03-22","year":2009,"month":3,"lon":127.044525,"lat":37.73746,"tags":"%EA%B2%BD%EA%B8%B0%EB%8F%84,%EB%8F%84%EB%B6%95%EC%82%B0,%EC%9D%98%EC%A0%95%EB%B6%80,3%EC%9B%94,dobongsan,gyeonggi-do,korea,march,uiijeongbu","S2CellId":"3551000000000000","result":2265,"accuracy":0.03160153,"title":"IMG_5804"}
{"id":5014158801,"url":"http://farm5.staticflickr.com/4147/5014158801_d825b22442.jpg","path":"ad9/568/ad9568d4e8fc86dd0f6455f8628d93f.jpg","date":"2010-09-22","year":2010,"month":9,"lon":127.035515,"lat":37.503536,"tags":"me2day,mw_%E1%84%86%E1%85%B5%E1%84%90%E1%85%AE%E1%84%83%E1%85%A6%E1%84%8B%E1%85%B5","S2CellId":"3397d40000000000","result":1928,"accuracy":0.010809819,"title":"MW_%EB%AF%B8%ED%88%AC%EB%8D%B0%EC%9D%B4%282%29"}
{"id":5073679546,"url":"http://farm5.staticflickr.com/4110/5073679546_4eda0195e4.jpg","path":"8ae/be2/8aebe2967bfea8f5b46884de9846105d.jpg","date":"2010-10-11","year":2010,"month":10,"lon":127.004745,"lat":37.61733,"tags":"%E1%84%80%E1%85%A1%E1%86%BC%E1%84%8B%E1%85%A1%E1%84%8C%E1%85%B5,%E1%84%80%E1%85%A2,%E1%84%83%E1%85%AE%E1%84%85%E1%85%B5,dogs,duri,puppy","S2CellId":"80c2cc0000000000","result":7210,"accuracy":0.06203309,"title":"2010.10.11+%EA%B4%80%EC%8B%AC%EB%B0%9B%EA%B3%A0%EC%8B%B6%EC%9D%80+%EB%91%90%EB%A6%AC"}
{"id":9611001121,"url":"http://farm4.staticflickr.com/3678/9611001121_852764a40d.jpg","path":"e0f/7e0/e0f7e03e911cf91729272a1fe624fc1b.jpg","date":"2013-08-28","year":2013,"month":8,"lon":127.05272,"lat":37.496986,"tags":"instagram+app,iphoneography,square,square+format","S2CellId":"32d0000000000000","result":1898,"accuracy":0.40510798,"title":"Palau+hw."}
{"id":3754061991,"url":"http://farm4.staticflickr.com/3494/3754061991_47cf901f3b.jpg","path":"2c8/08d/2c808d4a20124169464f35ce82c410.jpg","date":"2009-07-17","year":2009,"month":7,"lon":127.02641,"lat":37.529648,"tags":"apkuj%3Fngil-tong,gyeongbokgung,korea,palace,seoul,south+korea","S2CellId":"60013c0000000000","result":6413,"accuracy":0.1282775,"title":"_MG_7742"}
{"id":4135223641,"url":"http://farm3.staticflickr.com/2619/4135223641_c9d7bfb9ae.jpg","path":"96e/61e/96e61e7b1f6bb4425875e95cad601838.jpg","date":"2009-08-08","year":2009,"month":8,"lon":127.345276,"lat":37.361973,"tags":"fence,green,ivy,plant","S2CellId":"8893000000000000","result":8521,"accuracy":0.0057096374,"title":"plant"}
{"id":5519837528,"url":"http://farm6.staticflickr.com/5137/5519837528_2e6c5f7917.jpg","path":"d87/7e2/d877e2a29e4f765b786a7eef09e67.jpg","date":"2011-03-12","year":2011,"month":3,"lon":127.21392,"lat":37.31982,"tags":"cor%C3%A9e,everland","S2CellId":"56c4000000000000","result":6318,"accuracy":0.10511952,"title":"IMG_0196"}
{"id":4575860043,"url":"http://farm5.staticflickr.com/4062/4575860043_92b28345e2.jpg","path":"f96/d3f/f96d3fd6352c8a9865396fef424a66.jpg","date":"2010-05-04","year":2010,"month":5,"lon":127.11448,"lat":37.365536,"tags":"%EB%82%A8%EC%9D%B4%EC%84%AC,%EB%8C%80,%EB%8C%80%EC%9E%A5%EC%A0%95,%EC%96%B4,%EC%96%B4%EB%A6%B0%EC%9D%B4%EB%82%A0,2010%EB%85%84","S2CellId":"4779c00000000000","result":3436,"accuracy":0.040251337}
{"id":8629950971,"url":"http://farm9.staticflickr.com/8382/8629950971_48216bf1ce.jpg","path":"6a8/c16/6a8c16c9a239df19ca0e35fd1f555.jpg","date":"2013-03-18","year":2013,"month":3,"lon":127.02667,"lat":37.62266,"tags":"%E6%98%8E%E6%B4%9E,%E9%9F%93%E5%9B%BD,korea,seoul","S2CellId":"88d9b6c000000000","result":8600,"accuracy":0.018275684,"title":"Seoul+in+Korea%2C+%E6%98%8E%E6%B4%9E"}
{"id":8577191358,"url":"http://farm9.staticflickr.com/8094/8577191358_3e96c6c90e.jpg","path":"97b/c44/97bc44a94ee030384ba1d37472d3ca.jpg","date":"2013-03-21","year":2013,"month":3,"lon":127.04605,"lat":37.579853,"tags":"instagram+app,iphoneography,square,square+format","S2CellId":"89e37a7000000000","result":9346,"accuracy":0.025747247,"title":"Ducks+on+the+penthouse+garden+%23duck%23animal%23garden%23lake%23lotte%23cheongnyagny%23seoul%23korea"}
{"id":9520791292,"url":"http://farm3.staticflickr.com/2874/9520791292_04815cd4b7.jpg","path":"e2a/2c6/e2a2c6bb7073179411f18dab3144f7e8.jpg","date":"2013-08-14","year":2013,"month":8,"lon":127.177925,"lat":37.60899,"tags":"photo+stream","S2CellId":"357cb40000000000","result":2319,"accuracy":0.29290512}
{"id":5156824442,"url":"http://farm5.staticflickr.com/4083/5156824442_e7f33da98c.jpg","path":"5b4/9d4/5b49d497de07a3571abf0429e203d86.jpg","date":"2010-11-08","year":2010,"month":11,"lon":127.033424,"lat":37.501556,"tags":"%EC%8A%A4%EB%A7%88%ED%8A%B8%EB%9E%AD%ED%81%AC,%EC%95%B1%EB%9E%AD%ED%82%B9,calcutta+communication,kt,most+wanted","S2CellId":"4785b00000000000","result":3569,"accuracy":0.041278742,"title":"%EC%BF%A1%EC%A1%B4%EC%9A%B4%EC%84%B8","description":"%EB%B3%B8+%EC%9E%90%EB%A3%8C%EB%8A%94+%22%EC%8A%A4%EB%A7%88%ED%8A%B8+%EB%9E%AD%ED%82%B9+Pro%22%EB%B2%84%EC%A0%84%EC%9C%BC%EB%A1%9C+%ED%99%95%EC%9D%B8%ED%95%9C+%EC%95%B1+%EB%9E%AD%ED%82%B9+%EA%B8%B0%EB%A1%9D%EC%9E%85%EB%8B%88%EB%8B%A4%0A%0A%EC%95%B1%EC%8A%A4%ED%86%A0%EC%96%B4%EC%97%90%EC%84%9C+%22%EC%8A%A4%EB%A7%88%ED%8A%B8%EB%9E%AD%ED%82%B9%22+%EC%9D%B4%EB%9D%BC%EA%B3%A0+%EA%B2%80%EC%83%89%ED%95%98%EC%84%B8%EC%9A%94%21"}
{"id":124304205,"url":"http://farm1.staticflickr.com/55/124304205_79ffc43c11.jpg","path":"6f8/464/6f8464d88920c084915f9a1d71da0e2.jpg","date":"2006-04-07","year":2006,"month":4,"lon":127.10546,"lat":37.343277,"tags":"%EC%9D%98%EC%9E%90","S2CellId":"883cae5000000000","result":8363,"accuracy":0.0119297225,"title":"My+broken+chair","description":"%ED%81%B0+%EB%A7%98+%EB%A8%B9%EA%B3%A0+%EB%B9%84%EC%8B%BC+%EB%8F%88%EC%9D%84+%EC%A3%BC%EA%B3%A0+%EA%B5%AC%EC%9E%85%ED%95%9C+%EC%9D%98%EC%9E%90%EB%8F%84+%EA%B2%B0%EA%B5%AD+%EC%9D%B4%EB%9F%B0+%EC%8B%A0%EC%84%B8%EB%A1%9C...++%EC%96%B4%EB%96%A4+%EC%9D%98%EC%9E%90%EA%B0%80+%EB%82%98%EC%9D%98+%EB%AA%B8%EC%9D%84+%EC%A7%80%ED%83%B1%ED%95%B4+%EC%A4%84%EA%B2%83%EC%9D%B8%EA%B0%80..+%EC%82%AC%EB%AC%B4%EC%8B%A4%EC%9D%98%EC%9E%90%EA%B0%80+%EC%A2%8B%EB%8D%98%EB%8D%B0+%24800+%EB%B6%88%EC%9D%B4+%EB%84%98%EB%8A%94+%EB%8B%A4%EA%B3%A0+%ED%95%B4%EC%84%9C+%EC%A2%8C%EC%A0%88..+T_T%0A%0A%EC%A2%8B%EC%9D%80+%EC%9D%98%EC%9E%90+%EC%95%84%EC%8B%9C%EB%8A%94+%EB%B6%84+%EC%B6%94%EC%B2%9C+%EB%B0%94%EB%9E%8C."}
{"id":5210504014,"url":"http://farm6.staticflickr.com/5287/5210504014_882273622b.jpg","path":"19e/1bc/19e1bcb86151632bc9e362f9f4c4b0.jpg","date":"2010-11-15","year":2010,"month":11,"lon":127.02399,"lat":37.699646,"tags":"asia,bukhansan+national+park,hiking,korea,mountains,national+park,south+korea","S2CellId":"357cbc0000000000","result":2320,"accuracy":0.23796238,"title":"Bukhansan+National+Park"}
{"id":4862868015,"url":"http://farm5.staticflickr.com/4119/4862868015_7a4fcd43d2.jpg","path":"e34/dc9/e34dc95e9c85b127de94aaba6195c32.jpg","date":"2010-02-01","year":2010,"month":2,"lon":127.042206,"lat":37.541992,"tags":"carlo+rossi,korea,sign,wine","S2CellId":"357ca3c000000000","result":2315,"accuracy":0.06475712,"title":"Carlo+Rossi+for+about+%2414","description":"And+that+might+just+be+for+a+single+glass...%0AIt%27s+a+sad+state+of+affairs+over+here+in+the+Land+of+the+Morning+Calm."}
{"id":1342015638,"url":"http://farm2.staticflickr.com/1150/1342015638_ccded4c24e.jpg","path":"e68/0d1/e680d14d7ecdf332274574bfe4cd16.jpg","date":"2007-09-07","year":2007,"month":9,"lon":127.09851,"lat":37.51262,"tags":"%EB%B8%94%EB%9E%99%EC%9E%AD,%EC%9E%A1%EB%8F%99%EC%82%AC%EB%8B%88,%ED%9C%B4%EB%8C%80%ED%8F%B0","S2CellId":"882b34cc00000000","result":8250,"accuracy":0.012773843,"title":"PIC-0017.jpg"}
{"id":1471605045,"url":"http://farm2.staticflickr.com/1034/1471605045_7b23537c82.jpg","path":"2a0/9fc/2a09fc708adf35365636e7536512ef.jpg","date":"2007-10-01","year":2007,"month":10,"lon":127.05549,"lat":37.504925,"tags":"%EA%B0%84%EB%8B%B4%ED%9A%8C,%EB%AC%B8%EA%B5%AD%ED%98%84,%EB%B8%94%EB%A1%9C%EA%B1%B0","S2CellId":"80d9535400000000","result":7284,"accuracy":0.08265196,"title":"IMG_3182.jpg"}
{"id":140552017,"url":"http://farm1.staticflickr.com/44/140552017_8cebbb2913.jpg","path":"60f/9ec/60f9ec33fd66e45cd54767ec2671d3.jpg","date":"2006-05-04","year":2006,"month":5,"lon":127.104774,"lat":37.35542,"tags":"american+montessori+school,korea,migeum,seongnam","S2CellId":"3554400000000000","result":2267,"accuracy":0.06478427,"title":"Children%27s+Day"}
{"id":525507518,"url":"http://farm2.staticflickr.com/1109/525507518_900f2e4dcd.jpg","path":"9bd/035/9bd035f2e1f9e3f7aa1664ad23c772e3.jpg","date":"2007-05-25","year":2007,"month":5,"lon":127.01208,"lat":37.574448,"tags":"%EA%B1%B0%EB%A6%AC,%EB%8B%AD%EC%B9%BC%EA%B5%AD%EC%88%98,%EB%8B%AD%ED%95%9C%EB%A7%88%EB%A6%AC,%EB%8F%99%EB%8C%80%EB%AC%B8,%EB%A7%9B%EC%A7%91,%EC%A2%85%EB%A1%9C,%EC%B9%BC%EA%B5%AD%EC%88%98,2007,cook,cuisine,dish,eat,food,recipe,sweet,taste","S2CellId":"80dd317000000000","result":7376,"accuracy":0.034999046,"title":"%EC%A2%85%EB%A1%9C5%EA%B0%80+%EB%8B%AD%EC%B9%BC%EA%B5%AD%EC%88%98%EC%B4%8C+%EA%B3%A8%EB%AA%A9","description":"%EB%8B%AD%EC%9D%B4+%EC%9D%B5%EC%96%B4%EA%B0%91%EB%8B%88%EB%8B%A4."}
{"id":4310822566,"url":"http://farm3.staticflickr.com/2688/4310822566_43b285c56f.jpg","path":"493/876/493876295d57663eeb79ec22529b95e.jpg","date":"2010-01-28","year":2010,"month":1,"lon":127.09506,"lat":37.511227,"tags":"%EC%95%84%EC%9D%B4%ED%8F%B0,%EC%95%84%EC%9D%B4%ED%8F%B0%EA%B7%B8%EB%9E%98%ED%8D%BC,iphone,iphonegrapher","S2CellId":"5f0b2c0000000000","result":6349,"accuracy":0.045185283,"title":"%EC%98%A4%EB%8A%98+%EB%A8%B9%ED%8A%B8%EC%9C%97+%EA%B0%80%EC%AF%94%EB%8F%88+%23iphonegrapher"}
{"id":6592708711,"url":"http://farm8.staticflickr.com/7144/6592708711_26ea051e00.jpg","path":"3d6/54d/3d654d7483134b9c6e33f44514868dc.jpg","date":"2011-12-29","year":2011,"month":12,"lon":127.03642,"lat":37.50083,"tags":"picplz","S2CellId":"47c4337000000000","result":4254,"accuracy":0.020817878,"title":"%EB%AF%B8%ED%8C%85%EC%9D%84+%EA%B8%B0%EB%8B%A4%EB%A6%AC%EB%A9%B0...%EC%96%B8%EC%A0%A0%EA%B0%80+%EB%B6%80%ED%84%B0+%EC%B9%B4%ED%8E%98+%EC%95%A0%EB%B9%84%EB%89%B4%EC%97%90%EC%84%9C+pavan+%EC%B9%B4%ED%8E%98%EB%A1%9C+%EC%9D%B4%EB%A6%84%EC%9D%B4+%EB%B0%94%EB%80%8C%EC%97%88%EB%84%A4%EC%9A%94%7E","description":"Taken+with+%3Ca+href%3D%22http%3A%2F%2Fpicplz.com%22+rel%3D%22nofollow%22%3Epicplz%3C%2Fa%3E+at+%3Ca+href%3D%22http%3A%2F%2Fpicplz.com%2Fpics%2Fcaffe-pavan%2F%22+rel%3D%22nofollow%22%3ECaffe+PAVAN%3C%2Fa%3E."}
{"id":9517813671,"url":"http://farm8.staticflickr.com/7374/9517813671_6b865f8aa8.jpg","path":"41d/195/41d1956abdfac9bd2e88eea141c9c584.jpg","date":"2013-08-12","year":2013,"month":8,"lon":127.06157,"lat":37.67463,"tags":"photo+stream","S2CellId":"3561000000000000","result":2278,"accuracy":0.1498122}
{"id":8285614,"url":"http://farm1.staticflickr.com/7/8285614_78a14e4759.jpg","path":"6a2/1d6/6a21d6892d62c3737fdf8dc8eb94bab.jpg","date":"2005-04-03","year":2005,"month":4,"lon":127.00676,"lat":37.262985,"tags":"asia,folk+village,korea,traditional","S2CellId":"89c4c00000000000","result":9132,"accuracy":0.060351443,"title":"P1000527"}
{"id":8130516169,"url":"http://farm9.staticflickr.com/8195/8130516169_b9df264817.jpg","path":"8ff/13b/8ff13b5b686ca288e992b2eea8b7ee4.jpg","date":"2012-08-07","year":2012,"month":8,"lon":127.027016,"lat":37.742485,"tags":"asie,coree,korea,seoul,travel,voyage","S2CellId":"357cbc0000000000","result":2320,"accuracy":0.6043058,"title":"DSC_8037.jpg","description":"Cor%C3%A9e+2012"}
{"id":8425130895,"url":"http://farm9.staticflickr.com/8214/8425130895_4c0a03ce72.jpg","path":"565/15f/56515f348aff5de3f54595adc74ab27.jpg","date":"2013-01-29","year":2013,"month":1,"lon":127.056335,"lat":37.592167,"tags":"%EA%B0%9C%ED%95%99,%EA%B3%BC%EC%A0%9C,%EB%B0%A9%ED%95%99","S2CellId":"346ecc0000000000","result":2226,"accuracy":0.032951966}
{"id":145800543,"url":"http://farm1.staticflickr.com/48/145800543_3d30c66e54.jpg","path":"ead/822/ead82285d9f52c9ee951381676e70bc.jpg","date":"2006-05-12","year":2006,"month":5,"lon":127.05628,"lat":37.516872,"tags":"2006,korea,lanterns,pongun-sa,seoul,temple,texture","S2CellId":"12a4a2c400000000","result":722,"accuracy":0.014929661,"title":"Pongun-Sa+Temple"}
{"id":318577887,"url":"http://farm1.staticflickr.com/132/318577887_f20612bc47.jpg","path":"f25/e6e/f25e6e8c8a5691f4ed78b4569c4d3b2b.jpg","date":"2006-12-10","year":2006,"month":12,"lon":127.08434,"lat":37.552135,"tags":"2006,december,korea,park,seoul","S2CellId":"80dc740000000000","result":7331,"accuracy":0.094287395,"title":"The+World+of+Tomorrow","description":"See+where+this+photo+was+taken+at+%3Ca+href%3D%22http%3A%2F%2Fmaps.yuan.cc%2F%22+rel%3D%22nofollow%22%3Emaps.yuan.cc%2F%3C%2Fa%3E."}
{"id":2650327209,"url":"http://farm4.staticflickr.com/3199/2650327209_4c552b006b.jpg","path":"4d6/aa0/4d6aa01a83447fa3c251f5fe26c1558.jpg","date":"2008-07-07","year":2008,"month":7,"lon":127.058235,"lat":37.513706,"tags":"korea,seoul,stefan+klocek,travel,trip","S2CellId":"94ce59f000000000","result":9723,"accuracy":0.011032298,"title":"IMG_2419"}
{"id":3958527942,"url":"http://farm3.staticflickr.com/2485/3958527942_00882d8eb8.jpg","path":"3fe/cf1/3fecf1c14d32e73cab347bdaaa425288.jpg","date":"2009-09-27","year":2009,"month":9,"lon":127.02427,"lat":37.5535,"tags":"bau+house,dog,seoul","S2CellId":"48760f9000000000","result":5287,"accuracy":0.014201696,"title":"Eating+treats+off+our+table"}
{"id":6366662761,"url":"http://farm7.staticflickr.com/6056/6366662761_34fd283ef4.jpg","path":"319/c6f/319c6ff42e9639ef67729484b767a45c.jpg","date":"2011-11-20","year":2011,"month":11,"lon":127.837234,"lat":37.022488,"tags":"instagram+app,iphoneography,rise,square,square+format","S2CellId":"34693d9000000000","result":2183,"accuracy":0.011990609,"title":"%EC%98%A4%EB%9E%9C%EB%A7%8C%EC%9D%B4%EB%8B%A4."}
{"id":3754061723,"url":"http://farm4.staticflickr.com/3426/3754061723_650a62b282.jpg","path":"d30/a85/d30a85da23cf626ba7fcdc9f2aa892c.jpg","date":"2009-07-17","year":2009,"month":7,"lon":127.02666,"lat":37.529137,"tags":"apkuj%3Fngil-tong,gyeongbokgung,korea,palace,seoul,south+korea","S2CellId":"357ca2d000000000","result":2312,"accuracy":0.37549517,"title":"_MG_7710"}
{"id":47350505,"url":"http://farm1.staticflickr.com/31/47350505_4b95b89fef.jpg","path":"863/41a/86341a4ab7f7a8bb4d3eff0bde36f.jpg","date":"2005-09-27","year":2005,"month":9,"lon":127.94557,"lat":37.351738,"tags":"korea,wedding","S2CellId":"88c2f40000000000","result":8539,"accuracy":0.06767168,"title":"Kw39"}
{"id":1171687938,"url":"http://farm2.staticflickr.com/1405/1171687938_68b1eacae0.jpg","path":"6ce/bed/6cebed4471c226533de828d3a9fb62.jpg","date":"2007-08-18","year":2007,"month":8,"lon":127.12864,"lat":37.32417,"tags":"%EB%AF%BC%EC%86%8D%EC%B4%8C,classic,korea,people,seoul,toughkidcst,traditional","S2CellId":"94cfc00000000000","result":9742,"accuracy":0.046684958,"title":"IMG_0902.jpg"}
{"id":11510902964,"url":"http://farm4.staticflickr.com/3695/11510902964_6579599b29.jpg","path":"8f7/247/8f7247662944cdc8392e5195a9a791b.jpg","date":"2013-12-17","year":2013,"month":12,"lon":127.20233,"lat":37.297333,"tags":"%E6%84%9B%E5%AF%B6%E6%A8%82%E5%9C%92,%E6%B3%A2%E5%A6%9E,%E6%BC%82%E6%BC%82,%E9%9F%93%E5%9C%8B,3y3m,7y3m,korea","S2CellId":"60187c0000000000","result":6460,"accuracy":0.052289993,"title":"IMG_5142"}
