{"id":4724815785,"url":"http://farm2.staticflickr.com/1359/4724815785_affc26886c.jpg","path":"81e/1a6/81e1a6622767f952938cc14e9aaefe76.jpg","date":"2010-06-18","year":2010,"month":6,"lon":-9.918594,"lat":53.39469,"tags":"2010,ecology,excursion,ireland","S2CellId":"1296400000000000","result":655,"accuracy":0.10553216,"title":"Islands+in+the+Sky"}
{"id":4593887509,"url":"http://farm4.staticflickr.com/3454/4593887509_9af7893c66.jpg","path":"238/c15/238c15502c3bcdceeb68c9834eb1864d.jpg","date":"2009-04-10","year":2009,"month":4,"lon":-9.704541,"lat":53.12362,"tags":"clare,holiday,ireland,uk","S2CellId":"488e400000000000","result":5768,"accuracy":0.059139676,"title":"090410-113745.jpg"}
{"id":3600493231,"url":"http://farm4.staticflickr.com/3645/3600493231_1e6db45e7c.jpg","path":"a37/03a/a3703a20df9d3b0a367d4bcc210b5da.jpg","date":"2009-06-06","year":2009,"month":6,"lon":-9.048193,"lat":53.261963,"tags":"galway,galway+stopover,volvo+ocean+race,vor","S2CellId":"4867040000000000","result":4881,"accuracy":0.109831125,"title":"Green+Dragon+in+the+lead","description":"The+Green+Dragon+leading+at+the+start+of+the+8th+leg+of+the+Volvo+Ocean+Race"}
{"id":2393780364,"url":"http://farm3.staticflickr.com/2181/2393780364_4639084f1b.jpg","path":"144/95e/14495e12bed6f37121b797f4b13e3db0.jpg","date":"2008-04-04","year":2008,"month":4,"lon":-9.635267,"lat":53.31021,"tags":"sunset","S2CellId":"489f000000000000","result":5781,"accuracy":0.20957893,"title":"Encumbered+Sunset","description":"At+the+edge+of+a+%3Ca+href%3D%22http%3A%2F%2Fwww.conamaracottages.com%2F%22%3Ebunch+of+cottages%3C%2Fa%3E+the+sun+is+going+on+to+shed+its+light+further+to+the+Atlantic+ocean."}
{"id":2746882514,"url":"http://farm4.staticflickr.com/3004/2746882514_95479aa893.jpg","path":"137/04a/13704ae42225051f6655770dbd99ae9.jpg","date":"2008-07-13","year":2008,"month":7,"lon":-9.075651,"lat":53.034813,"tags":"ireland,the+burren","S2CellId":"485ec00000000000","result":4836,"accuracy":0.17539956,"title":"7+13+8","description":"the+burren"}
{"id":9381271655,"url":"http://farm4.staticflickr.com/3703/9381271655_f10d6a50cc.jpg","path":"79e/e75/79ee759e5af3d540c18eddea27b28c77.jpg","date":"2013-06-29","year":2013,"month":6,"lon":-9.543514,"lat":53.800144,"tags":"contemporary,electronic,folk,funeral+suits,mayo,rock,roisin+dubh,roots,sean+rowe,westport,westport+festival,westport+festival+290613","S2CellId":"4806400000000000","result":4764,"accuracy":0.2374246,"title":"Westport+Festival+-+2013","description":"These+are+from+the+Westport+Festival%2C+2013+which+took+place+over+the+weekend+of+29th+and+30th+June+in+Westport+House%2C+Westport%2C+Co.+Mayo%2C+Ireland.%0A%0AThis+is+Funeral+Suits+playing+the+Roisin+Dubh+stage."}
{"id":7493161932,"url":"http://farm9.staticflickr.com/8018/7493161932_8edde035b2.jpg","path":"529/f77/529f7785f7c4cc34a737b22b3f6f5a2.jpg","date":"2012-07-03","year":2012,"month":7,"lon":-9.050588,"lat":53.267883,"tags":"boat,galway,ireland,night,race,sailing,volvooceanrace","S2CellId":"14cab9f000000000","result":1319,"accuracy":0.03581346,"title":"IMG_1815"}
{"id":478938687,"url":"http://farm1.staticflickr.com/167/478938687_a48480435a.jpg","path":"95c/cce/95cccec5fb72423926574966a088594e.jpg","date":"2007-03-16","year":2007,"month":3,"lon":-9.048147,"lat":53.27309,"tags":"europe,family,galway,ireland,jimmy,travel","S2CellId":"485d400000000000","result":4830,"accuracy":0.29526177,"title":"Welcome+to+Ireland","description":"When+we+found+our+hotel%2C+Jimmy+got+very+excited.++%22A+hotel+with+a+bar+right+next+to+a+church%3F++Can+I+move+in%3F%22"}
{"id":1265212079,"url":"http://farm2.staticflickr.com/1104/1265212079_f42edbd627.jpg","path":"3ee/230/3ee2301bfd20b53394393f42dade1024.jpg","date":"2007-08-26","year":2007,"month":8,"lon":-9.885194,"lat":53.475945,"tags":"connemara,galway,hiking,ireland,mountain","S2CellId":"4869400000000000","result":4915,"accuracy":0.017476162,"title":"DSC02084"}
{"id":2375275952,"url":"http://farm3.staticflickr.com/2143/2375275952_a0f8858b7c.jpg","path":"7aa/11a/7aa11a112242a76cecec0e76cf233f2.jpg","date":"2004-08-13","year":2004,"month":8,"lon":-9.379148,"lat":53.016125,"tags":"cliffs+of+moher,doolin,europe,ireland,pilgrimage","S2CellId":"0c60500000000000","result":148,"accuracy":0.092008226,"title":"Last+batch+108"}
{"id":1266639324,"url":"http://farm2.staticflickr.com/1158/1266639324_35dd38e065.jpg","path":"ce7/a67/ce7a678eedcd49a9f4911d736513939.jpg","date":"2007-08-27","year":2007,"month":8,"lon":-9.9975,"lat":53.45725,"tags":"coast,connemara,driving,galway,holiday,ireland,summer,west+coast","S2CellId":"485a400000000000","result":4821,"accuracy":0.16791958,"title":"DSC02121"}
{"id":159498653,"url":"http://farm1.staticflickr.com/49/159498653_08cb912597.jpg","path":"daa/81d/daa81db399b448dfd0c3bb3311bb663.jpg","date":"2006-06-03","year":2006,"month":6,"lon":-9.05754,"lat":53.26552,"tags":"basin,big,bird,claddagh,lens,pigeon","S2CellId":"88d0a631cabb5071","result":8563,"accuracy":0.015993692,"title":"Pigeon","description":"Taken+with+my+new+lens+at+the+Claddgh+Basin+and+selectively+coloured+in+the+Gimp.+Pigeons+are+evil.+O.o"}
{"id":4894548751,"url":"http://farm5.staticflickr.com/4075/4894548751_9f34f24753.jpg","path":"bd7/494/bd749415e0ef9d99f34e2bc99b40b175.jpg","date":"2010-07-15","year":2010,"month":7,"lon":-9.709682,"lat":53.59719,"tags":"%E2%88%9E","S2CellId":"4845400000000000","result":4817,"accuracy":0.36015424,"title":"P7151959"}
{"id":5471266192,"url":"http://farm6.staticflickr.com/5216/5471266192_f523480700.jpg","path":"a42/0bb/a420bbc2f37af7fe6b3d53d5673a7aab.jpg","date":"2011-02-20","year":2011,"month":2,"lon":-9.133078,"lat":53.256516,"tags":"connemara,galway,ireland","S2CellId":"880e2b7000000000","result":8112,"accuracy":0.094843596,"title":"I%27m+a+young+Explorer","description":"Acquario+di+Galway"}
{"id":9219268780,"url":"http://farm6.staticflickr.com/5478/9219268780_eaef97ef1c.jpg","path":"311/894/3118949f2c26eb3f3d2df33df10d22.jpg","date":"2013-06-29","year":2013,"month":6,"lon":-9.543514,"lat":53.800144,"tags":"contemporary,ireland,mayo,quality+street,rock,roots,sean+rowe,westport,westport+festival,westport+festival+290613","S2CellId":"4859000000000000","result":4820,"accuracy":0.6583738,"title":"Westport+Festival+2013+Saturday","description":"Quality+Street+play+the+Main+Stage+at+the+Westport+Festival%2C+Co.+Mayo%2C+Ireland+on+Saturday+29th+June+2013"}
{"id":375404911,"url":"http://farm1.staticflickr.com/169/375404911_225ae6cdd7.jpg","path":"67d/7f4/67d7f4787d348ec0bd4ec8d3e1dae3bf.jpg","date":"2006-08-30","year":2006,"month":8,"lon":-9.40567,"lat":53.0201,"tags":"burren,co+clare,crack,doolin,fern,karst,linestone","S2CellId":"5370c00000000000","result":6047,"accuracy":0.01573677,"title":"limestone+crack.JPG","description":"A+crack+in+the+limestone+pavement+near+Doolin+pier%2C+on+the+south-western+edge+of+the+Burren%2C+Co.+Clare"}
{"id":4621618871,"url":"http://farm5.staticflickr.com/4050/4621618871_1816397712.jpg","path":"26b/6be/26b6bebb9ff17caf3bf582d35de1fbe.jpg","date":"2010-05-14","year":2010,"month":5,"lon":-9.802551,"lat":53.525936,"tags":"connemara,irlande,sky+road","S2CellId":"485a400000000000","result":4821,"accuracy":0.23954053,"title":"Sky+Road"}
{"id":6749473131,"url":"http://farm8.staticflickr.com/7033/6749473131_ce02ba92ae.jpg","path":"688/522/68852275319a0c7a62f601a843f66dc.jpg","date":"2009-07-14","year":2009,"month":7,"lon":-9.341792,"lat":53.832764,"tags":"irland","S2CellId":"484c000000000000","result":4819,"accuracy":0.05509448,"title":"IMG_1619","description":"Irland"}
{"id":878632670,"url":"http://farm2.staticflickr.com/1133/878632670_d50a6429e9.jpg","path":"6b7/03a/6b703a9dca70faead483bce23062b88b.jpg","date":"2007-07-23","year":2007,"month":7,"lon":-9.053227,"lat":53.27181,"tags":"galway","S2CellId":"48670e8400000000","result":4889,"accuracy":0.057582498,"title":"Galway+Streets","description":"Galway+is+known+for+keeping+its+medieval%2C+twisting+streets%2C+especially+in+the+city+centre.+This+isn%27t+a+good+example+of+the+twistiness%2C+but+it+is+a+decent+example+of+the+mix+of+the+old+and+the+new.+Also%2C+the+brightly+painted+buildings+are+typical+of+what+we+saw+in+Galway."}
{"id":7493167708,"url":"http://farm8.staticflickr.com/7133/7493167708_a0e94c8740.jpg","path":"321/231/3212310fecb66e5f26730fafc54d392.jpg","date":"2012-07-03","year":2012,"month":7,"lon":-9.050588,"lat":53.267883,"tags":"boat,galway,ireland,night,race,sailing,volvooceanrace","S2CellId":"346e03c000000000","result":2196,"accuracy":0.023279749,"title":"IMG_1813"}
{"id":493075524,"url":"http://farm1.staticflickr.com/200/493075524_418a14446c.jpg","path":"54e/a28/54ea28936aaa60a290bc11e23f5dc4.jpg","date":"2007-04-29","year":2007,"month":4,"lon":-9.289176,"lat":53.539967,"tags":"cong,cong+abbey","S2CellId":"488f700000000000","result":5776,"accuracy":0.14440373,"title":"IMG_1592"}
{"id":6264133286,"url":"http://farm7.staticflickr.com/6048/6264133286_a6d600788e.jpg","path":"3ff/d36/3ffd368fa93536f701d34b81019313d.jpg","date":"2011-08-14","year":2011,"month":8,"lon":-9.845466,"lat":53.511734,"tags":"cielo,clouds,connemara,ireland,irlanda,nuvole,sky","S2CellId":"488b000000000000","result":5763,"accuracy":0.15366998,"title":"Connemara+%232"}
{"id":8377177184,"url":"http://farm9.staticflickr.com/8491/8377177184_c99700bae3.jpg","path":"afb/56a/afb56a8a895f92f87f2fa18ed251936.jpg","date":"2012-07-26","year":2012,"month":7,"lon":-9.913905,"lat":53.565704,"tags":"abbey,ireland,kylemore","S2CellId":"89b7b6c000000000","result":8846,"accuracy":0.0044111097,"title":"Kylemore+Abbey+Grounds","description":"Close-up+of+a+ribbon+round+one+of+the+newly+planted+trees"}
{"id":80071771,"url":"http://farm1.staticflickr.com/39/80071771_e2cca008b3.jpg","path":"894/521/89452162863f7c8074f511786bbfebfb.jpg","date":"2005-12-26","year":2005,"month":12,"lon":-9.682216,"lat":53.776108,"tags":"christmas,ireland","S2CellId":"4cca400000000000","result":5905,"accuracy":0.031719107,"title":"IMG_4136"}
{"id":33875738,"url":"http://farm1.staticflickr.com/22/33875738_cb0776acdd.jpg","path":"bc5/abf/bc5abf2c7867deb11bb9a4f6492d39a.jpg","date":"2005-08-14","year":2005,"month":8,"lon":-9.053313,"lat":53.26814,"tags":"galway,harbour,swans","S2CellId":"4816f00000000000","result":4802,"accuracy":0.22259086,"title":"sunshine+on+the+harbour","description":"Taken+at+Galway%2C+Ireland+in+March+2003"}
{"id":1198132734,"url":"http://farm2.staticflickr.com/1057/1198132734_56ce05c0cb.jpg","path":"e2f/b9a/e2fb9a7ac0b7d8899acb6539dcab539.jpg","date":"2007-08-21","year":2007,"month":8,"lon":-9.822871,"lat":53.567497,"tags":"abbey,ireland,irish,kylemore,pig","S2CellId":"485a400000000000","result":4821,"accuracy":0.91152084,"title":"Kylemore+Abbey","description":"Kylemore+Abbey"}
{"id":3574769112,"url":"http://farm4.staticflickr.com/3590/3574769112_ec65881487.jpg","path":"ab6/845/ab68455aa261839be4495867f1cc531f.jpg","date":"2009-05-18","year":2009,"month":5,"lon":-9.172639,"lat":53.091602,"tags":"burren,clare,ireland","S2CellId":"485bb00000000000","result":4825,"accuracy":0.19200428,"title":"DSC01152"}
{"id":441255004,"url":"http://farm1.staticflickr.com/186/441255004_9de50c5bf9.jpg","path":"146/71a/14671abda7c7d9ad90262b370754f75.jpg","date":"2007-03-20","year":2007,"month":3,"lon":-9.057186,"lat":53.27054,"tags":"alcohol,alcool,beer,drinking,erasmus,f460,finepix,for+a+concert,fujifilm,fujifilm+finepix+f460,galway,hoegaarden,ireland,irlanda,marcello,me,r%C3%B3s%C3%ADn+dubh,ricchiambrello,taken+by+anne-catherine,taken+by+others,travels,viaggi","S2CellId":"48670e8400000000","result":4889,"accuracy":0.013491354,"title":"Cheating+on+Guinness","description":"20th+March+2007%0AR%C3%B3s%C3%ADn+Dubh%2C+Galway%2C+Ireland%0A%0AThanks+to+%3Ca+href%3D%22http%3A%2F%2Fwww.flickr.com%2Fphotos%2F99583349%40N00%2F%22+target%3D%22_blank%22%3E%3Cb%3EAnne-Catherine%3C%2Fb%3E%3C%2Fa%3E"}
{"id":974651606,"url":"http://farm2.staticflickr.com/1150/974651606_29052f6080.jpg","path":"b1b/ac7/b1bac771a1af0fe96846113a2f3a2aa.jpg","date":"2007-07-21","year":2007,"month":7,"lon":-9.407558,"lat":53.01979,"tags":"atlantic+coast,co.+clare,doolin,eire,ireland,sunset","S2CellId":"88d0a631cabb5071","result":8563,"accuracy":0.025722709,"title":"Sunset+over+the+Atlantic+Coast+of+Doolin%2C+Co.+Clare%2C+Eire"}
{"id":4876829491,"url":"http://farm5.staticflickr.com/4120/4876829491_bbc86f0ed3.jpg","path":"f37/28d/f3728daafd64215b2eba3748e9bebb.jpg","date":"2010-08-09","year":2010,"month":8,"lon":-9.918422,"lat":53.396854,"tags":"connemara,galway,harbour,hdr,ireland,roundstone","S2CellId":"488e900000000000","result":5769,"accuracy":0.07987784,"description":"OTT+HDR+with+5+RAW+exposures+combined+in+CS5...%0A%0A%28IMG_5391-5_HDRc%29"}
{"id":394403433,"url":"http://farm1.staticflickr.com/176/394403433_109c89fe41.jpg","path":"334/1bf/3341bf573a8072c4a7308960741fd5e9.jpg","date":"2006-12-27","year":2006,"month":12,"lon":-9.065952,"lat":53.26316,"tags":"beach,galway,ireland,orange,pink,seafront,sunset","S2CellId":"485b900000000000","result":4824,"accuracy":0.15985315,"title":"DSCF5138","description":"Set+of+pictures+taken+on+the+27th+December+2006+in+Galway%2C+Ireland."}
{"id":201786686,"url":"http://farm1.staticflickr.com/77/201786686_35b220eccb.jpg","path":"1b8/0d7/1b80d7c732b7c72f9a94aa8b04492.jpg","date":"2006-07-30","year":2006,"month":7,"lon":-9.053764,"lat":53.27101,"tags":"galway,kellly,mary,protest","S2CellId":"89b7f40000000000","result":8907,"accuracy":0.0093962075,"title":"PIC_7482","description":"Exif_JPEG"}
{"id":2947844638,"url":"http://farm4.staticflickr.com/3169/2947844638_57fef6e37c.jpg","path":"da5/44f/da544fe96bac8d1668fab1e58497e6.jpg","date":"2008-10-16","year":2008,"month":10,"lon":-9.876236,"lat":53.616543,"tags":"centre,dive,harbour,ireland,killary","S2CellId":"488b000000000000","result":5763,"accuracy":0.06938158,"title":"Hat+with+ears"}
{"id":3035899110,"url":"http://farm4.staticflickr.com/3235/3035899110_2ec39b67b9.jpg","path":"98f/2a3/98f2a3c5c2b1172b0bcdaa76dfe5c1f.jpg","date":"2008-10-13","year":2008,"month":10,"lon":-9.949364,"lat":53.55326,"tags":"connemara,iwerddon","S2CellId":"aa74000000000000","result":9950,"accuracy":0.052811936,"title":"DSCF2621"}
{"id":4427585195,"url":"http://farm5.staticflickr.com/4059/4427585195_98bfff4c49.jpg","path":"d6f/81b/d6f81bd6257dd832dd3466d6248434.jpg","date":"2007-06-07","year":2007,"month":6,"lon":-9.280142,"lat":53.542515,"tags":"%E2%80%9Cahenny,%E2%80%9Cashford,%E2%80%9Cathlone,%E2%80%9Cboston,%E2%80%9Cboyle,%E2%80%9Cbru,%E2%80%9Cbunratty,%E2%80%9Cbutterfly,%E2%80%9Ccarrick,%E2%80%9Ccliffs,%E2%80%9Cclonmel,%E2%80%9Cfoynes,%E2%80%9Cgarden,%E2%80%9Cira,%E2%80%9Cjameson,%E2%80%9Ckenmare,%E2%80%9Ckylemore,%E2%80%9Cladies,%E2%80%9Cmolls,%E2%80%9Cmolly,%E2%80%9Creeks,%E2%80%9Cring,%E2%80%9Ctrinity,%E2%80%9Cwaterford,abbey%E2%80%9D,boat,boinne,bridge%E2%80%9D,cashel,castle%E2%80%9D,center%E2%80%9D,circle%E2%80%9D,college%E2%80%9D,craggaunowen,crosses%E2%80%9D,crystal%E2%80%9D,distillery%E2%80%9D,dublin,dublinia,falconry,flying,folk,foxford,gap%E2%80%9D,garden%E2%80%9D,high,kerry%E2%80%9D,macroom,malone%E2%80%9D,memorial,moher%E2%80%9D,museum,museum%E2%80%9D,na,newgrange,park%E2%80%9D,rememberance%E2%80%9D,science%E2%80%9D,sneem,statue%E2%80%9D,stone,sur%E2%80%9D,view%E2%80%9D,westport","S2CellId":"89e6300000000000","result":9379,"accuracy":0.0045121154,"title":"2007+Ireland+Ashford+Castle+021"}
{"id":7527633998,"url":"http://farm9.staticflickr.com/8004/7527633998_1aba2a090a.jpg","path":"96a/d22/96ad2252d1dc6643d4db18688dc113ae.jpg","date":"2012-07-07","year":2012,"month":7,"lon":-9.069224,"lat":53.2631,"tags":"b%C3%B3thar,c%C3%B3sta+garde,canon+eos+7d,coast,discover+ireland,ef+24-70mm+f%2F2.8l+usm,eire,f%C3%A1ilte,failte,groupama,ireland,na,ocean,race,sail,sailboat,sailing,salthill,sanya,sea,seaside,team,tr%C3%A1,tr%C3%A1%E2%80%9D,volvo","S2CellId":"5486100000000000","result":6110,"accuracy":0.0648967,"title":"Volvo+Ocean+Race+2011%2F2012","description":"Discover+Ireland+in-port+race+in+Galway%2C+Ireland."}
{"id":80072399,"url":"http://farm1.staticflickr.com/43/80072399_5f66986be3.jpg","path":"d9a/a3f/d9aa3f18628a522d8ac5f4135dd6c3.jpg","date":"2005-12-26","year":2005,"month":12,"lon":-9.682216,"lat":53.776108,"tags":"christmas,ireland","S2CellId":"4ec0000000000000","result":5959,"accuracy":0.013353924,"title":"IMG_4146"}
{"id":2346647422,"url":"http://farm4.staticflickr.com/3176/2346647422_94b3cc63a6.jpg","path":"bf3/092/bf30925c47fbdf1a293f6869dcff2fe1.jpg","date":"2008-03-17","year":2008,"month":3,"lon":-9.057347,"lat":53.27099,"tags":"galway,stpatricks","S2CellId":"4842c00000000000","result":4807,"accuracy":0.014136526,"title":"dsc00424"}
{"id":2537309068,"url":"http://farm3.staticflickr.com/2051/2537309068_3ca498af39.jpg","path":"878/2f1/8782f1909092a3ac1216344bb88a3764.jpg","date":"2008-05-25","year":2008,"month":5,"lon":-9.110326,"lat":53.157013,"tags":"2008,ireland,travel","S2CellId":"12a4740000000000","result":691,"accuracy":0.0035211442,"title":"%3F%3F%3F"}
{"id":4979429658,"url":"http://farm5.staticflickr.com/4104/4979429658_796c40d944.jpg","path":"236/ad1/236ad16396c9513e123065ae8e9da4.jpg","date":"2010-08-15","year":2010,"month":8,"lon":-9.224052,"lat":53.250015,"tags":"beach,ireland,irlanda,ocean,spiaggia","S2CellId":"89e3300000000000","result":9307,"accuracy":0.07695082,"title":"Ocean"}
{"id":2806704805,"url":"http://farm4.staticflickr.com/3143/2806704805_0a3f3717f7.jpg","path":"f0b/34b/f0b34b136405d448ca91124b5bdc9.jpg","date":"2004-05-23","year":2004,"month":5,"lon":-9.1,"lat":53.05,"tags":"ireland,republic+of+ireland","S2CellId":"485bb00000000000","result":4825,"accuracy":0.80009574,"title":"dscf0230"}
{"id":6922255184,"url":"http://farm8.staticflickr.com/7130/6922255184_27af3daae5.jpg","path":"dd2/736/dd2736697248f4b5f5323876d76399d.jpg","date":"2012-03-18","year":2012,"month":3,"lon":-9.054172,"lat":53.26757,"tags":"cliffs+of+moher,cork,galway,ireland,st+patricks+day,travel","S2CellId":"4816f00000000000","result":4802,"accuracy":0.2737861,"title":"Toned+down"}
{"id":7959540200,"url":"http://farm9.staticflickr.com/8308/7959540200_449a7cbfb5.jpg","path":"321/4be/3214bef96d3a2f968838efa261babee.jpg","date":"2012-03-20","year":2012,"month":3,"lon":-9.660673,"lat":53.76214,"tags":"canon,s90","S2CellId":"4859000000000000","result":4820,"accuracy":0.19920474,"title":"Croagh+Patrick%2C+Ireland"}
{"id":120148974,"url":"http://farm1.staticflickr.com/51/120148974_4de827b24d.jpg","path":"d1f/b5f/d1fb5f98cc3d587563bfceec3ce8aa1a.jpg","date":"2005-07-25","year":2005,"month":7,"lon":-9.538192,"lat":53.793552,"tags":"croaghpatrick,ireland,ireland2005,mayo2005,path,westport","S2CellId":"4845400000000000","result":4817,"accuracy":0.024031347,"title":"Near+Croagh+Patrick","description":"Path+near+Croagh+Patrick+in+Co.+Mayo%2C+Ireland."}
{"id":7839157530,"url":"http://farm9.staticflickr.com/8427/7839157530_03a03c6241.jpg","path":"1f2/faf/1f2faf7397dc59735559b74feca94475.jpg","date":"2012-08-23","year":2012,"month":8,"lon":-9.668076,"lat":53.119762,"tags":"instagram+app,iphoneography,square,square+format","S2CellId":"485a400000000000","result":4821,"accuracy":0.08754978,"title":"Craggy..."}
{"id":2931418627,"url":"http://farm4.staticflickr.com/3008/2931418627_5a149677c0.jpg","path":"1d7/b23/1d7b2395388866b77f6abd34eb4228d9.jpg","date":"2007-10-05","year":2007,"month":10,"lon":-9.054965,"lat":53.271374,"tags":"2008,dublin,gallagher,galway,ireland,michael+gallagher,october,october+2008,vacation","S2CellId":"485b900000000000","result":4824,"accuracy":0.1270969,"title":"IMG_5409"}
{"id":696163747,"url":"http://farm2.staticflickr.com/1220/696163747_4d0243704c.jpg","path":"e4b/0d4/e4b0d4ad9917f12e41d110e3baa928c.jpg","date":"2007-06-30","year":2007,"month":6,"lon":-9.671058,"lat":53.104588,"tags":"aran,doolin,inis,islands,m%C3%B3r,thiar","S2CellId":"485b400000000000","result":4823,"accuracy":0.023534765,"title":"A+fine+wall"}
{"id":1262143657,"url":"http://farm2.staticflickr.com/1389/1262143657_8c13e3339d.jpg","path":"b22/9ea/b229eada94be7ddcaf93876d8e2d48c5.jpg","date":"2007-08-28","year":2007,"month":8,"lon":-9.142513,"lat":53.0949,"tags":"ailwee,burren,clare,drystone,ireland,rock,wall","S2CellId":"485bb00000000000","result":4825,"accuracy":0.13611372,"title":"Drystone+wall+above+Ailwee+Caves"}
{"id":4961762858,"url":"http://farm5.staticflickr.com/4132/4961762858_36c0319805.jpg","path":"a68/b7f/a68b7fb59f6913335f636be7103ad1.jpg","date":"2010-09-03","year":2010,"month":9,"lon":-9.054413,"lat":53.26748,"tags":"dog,galway","S2CellId":"3770000000000000","result":2436,"accuracy":0.024161711,"title":"September+in+Galway"}
{"id":4990421709,"url":"http://farm5.staticflickr.com/4107/4990421709_b894f76e58.jpg","path":"d7d/4cc/d7d4ccf89062a87617b2824adc9e97c6.jpg","date":"2010-07-16","year":2010,"month":7,"lon":-9.916534,"lat":53.392746,"tags":"connemara,donegal,galway,mayo,northwest+ireland","S2CellId":"488e900000000000","result":5769,"accuracy":0.107442915,"title":"16.07.10+zk+The+Pins+from+Roundstone"}
{"id":4593899055,"url":"http://farm2.staticflickr.com/1370/4593899055_52d8186ff6.jpg","path":"70d/a58/70da58ce9c0af1338b76abc5e364d.jpg","date":"2009-04-10","year":2009,"month":4,"lon":-9.704541,"lat":53.12362,"tags":"clare,holiday,ireland,uk","S2CellId":"489f000000000000","result":5781,"accuracy":0.16331011,"title":"090410-153732.jpg"}
{"id":2998866742,"url":"http://farm4.staticflickr.com/3145/2998866742_075369d75e.jpg","path":"172/89d/17289d4a88c4b5e3b8297e2d79b7ae33.jpg","date":"2008-07-17","year":2008,"month":7,"lon":-9.264392,"lat":53.154613,"tags":"sea","S2CellId":"485bb00000000000","result":4825,"accuracy":0.17852189,"title":"Lighthouse+on+the+Burren","description":"The+barren+limestone+rock+outcrop."}
{"id":3573957071,"url":"http://farm3.staticflickr.com/2131/3573957071_c8174a2e03.jpg","path":"3af/d1c/3afd1c4f3ecfb65e4c37f84ffc855828.jpg","date":"2009-05-17","year":2009,"month":5,"lon":-9.282288,"lat":53.53588,"tags":"ashford+castle,castle,cong,ireland,mayo","S2CellId":"3468700000000000","result":2158,"accuracy":0.07642409,"title":"DSC01080"}
{"id":3520636,"url":"http://farm1.staticflickr.com/3/3520636_99c6a8e6f8.jpg","path":"ab6/c7d/ab6c7da84962f095e61972599b3148d.jpg","date":"2004-12-22","year":2004,"month":12,"lon":-9.767189,"lat":53.126637,"tags":"aran+islands,cow,inis+mor,ireland","S2CellId":"485bb00000000000","result":4825,"accuracy":0.081912704,"title":"Cows%21"}
{"id":4621624841,"url":"http://farm4.staticflickr.com/3338/4621624841_e83f2879e5.jpg","path":"3e2/1f6/3e21f65ee91f9a89bb57102cefc06659.jpg","date":"2010-05-14","year":2010,"month":5,"lon":-9.802551,"lat":53.525936,"tags":"connemara,irlande,sky+road","S2CellId":"486e900000000000","result":4974,"accuracy":0.066212185,"title":"Sky+Road"}
{"id":4986211268,"url":"http://farm5.staticflickr.com/4146/4986211268_2fd3c5b05e.jpg","path":"5fb/e43/5fbe4394ec23a3409c8a638884fea.jpg","date":"2010-06-15","year":2010,"month":6,"lon":-9.385027,"lat":53.012356,"tags":"aran+islands+view+from+sea+house+in+doolin+co+clare,cliffs+of+moher","S2CellId":"486b100000000000","result":4922,"accuracy":0.14902578,"title":"Ocean+view+dollin","description":"Clear+day+in+Doolin.+Doolin+is+near+the+Cliffs+of+Moher%2C+teh+Burren+and+the+Aran+Islands.%0A%0ASea+View+House+in+Doolin.+%0A%3Ca+href%3D%22http%3A%2F%2Fwww.seaviewhouse.eu%22+rel%3D%22nofollow%22%3Ewww.seaviewhouse.eu%3C%2Fa%3E%0A%0ASea+View+house+in+Doolin+was+designed+and+built+in+1996.%0AThis+4+star+bed+and+breakfast+in+the+seaside+village+of+Doolin+in+Co+Clare+Ireland%2C+is+set+on+the+side+of+a+hill+overlooking+the+village+of+Doolin+and+the+Atlantic+Ocean."}
{"id":6092187789,"url":"http://farm7.staticflickr.com/6197/6092187789_1b93f4749a.jpg","path":"1bd/337/1bd337f6dcd8c19d0512db03f7e870.jpg","date":"2011-08-22","year":2011,"month":8,"lon":-9.0596,"lat":53.00404,"tags":"burren,ireland,karst,national+park","S2CellId":"487db00000000000","result":5631,"accuracy":0.099358834,"title":"Burren+View"}
{"id":1197265567,"url":"http://farm2.staticflickr.com/1335/1197265567_5fdd8eebe9.jpg","path":"f25/338/f25338eb36df6f404eec68e8aac7d19.jpg","date":"2007-08-21","year":2007,"month":8,"lon":-9.822871,"lat":53.567497,"tags":"donegal,ireland,pig","S2CellId":"12b3000000000000","result":802,"accuracy":0.0140620135,"title":"Donegal","description":"Dongegal%2C+Ireland"}
{"id":4023970524,"url":"http://farm3.staticflickr.com/2588/4023970524_fa7f13096e.jpg","path":"d7a/aa3/d7aaa3b970d883911f536aec73e37924.jpg","date":"2009-10-17","year":2009,"month":10,"lon":-9.062347,"lat":53.270706,"tags":"galway,jes,reunion","S2CellId":"4867500000000000","result":4904,"accuracy":0.11579182,"title":"After+the+match+some+of+us+were+on+our+knees"}
{"id":5605706708,"url":"http://farm5.staticflickr.com/4112/5605706708_daae7a589a.jpg","path":"418/5dc/4185dceaaf44cbd8faf7deaf346c8fe9.jpg","date":"2011-04-01","year":2011,"month":4,"lon":-9.701334,"lat":53.136833,"tags":"inis+m%C3%B3r,inishmore,ireland,nature,outdoors,rock,travel","S2CellId":"485bb00000000000","result":4825,"accuracy":0.13170913,"title":"Water+collector+on+Inis+M%C3%B3r"}
{"id":13944550656,"url":"http://farm6.staticflickr.com/5477/13944550656_a3cd99abf5.jpg","path":"b81/132/b81132455960176c7e7017173e42cf83.jpg","date":"2014-04-20","year":2014,"month":4,"lon":-9.06387,"lat":53.15043,"tags":"ireland,irland","S2CellId":"4860400000000000","result":4839,"accuracy":0.18639258,"title":"DSC01321"}
{"id":3737589194,"url":"http://farm4.staticflickr.com/3536/3737589194_dc6cf218e3.jpg","path":"7fb/2f1/7fb2f13ce29124193d99016a67257dc.jpg","date":"2009-07-13","year":2009,"month":7,"lon":-9.609775,"lat":53.456062,"tags":"%E2%88%9E","S2CellId":"488e400000000000","result":5768,"accuracy":0.26845968,"title":"N59+to+Clifden","description":"Connemara."}
{"id":3778405960,"url":"http://farm3.staticflickr.com/2634/3778405960_dce39b6bb0.jpg","path":"45a/512/45a512571293fa213ea1d83c7c32640.jpg","date":"2009-07-22","year":2009,"month":7,"lon":-9.551067,"lat":53.314854,"tags":"ben,bens,bog,clouds,co.+galway,connemara,county+galway,grass,grasses,grassy,green,greenery,hill,hills,ireland,lake,mountain,mountains,peat,peat+bog,plain,rock,rocks,twelve+pins,water","S2CellId":"488c400000000000","result":5764,"accuracy":0.22501983,"title":"Across+the+bog+toward+the+Twelve+Pins"}
{"id":2865495832,"url":"http://farm4.staticflickr.com/3144/2865495832_fa2a7b17c4.jpg","path":"c35/37a/c3537a61bc3a237dfe80e1d2865e59.jpg","date":"2008-09-14","year":2008,"month":9,"lon":-9.437255,"lat":53.245907,"tags":"connemara,eire,galway,ireland,irland","S2CellId":"485a400000000000","result":4821,"accuracy":0.22949672,"title":"colours","description":"Connemara+%28west+of+Galway%2C+Ireland%29"}
{"id":1005029521,"url":"http://farm2.staticflickr.com/1365/1005029521_75061f7d63.jpg","path":"489/aed/489aedb7f159195a8ead44eef1233c.jpg","date":"2007-08-04","year":2007,"month":8,"lon":-9.997043,"lat":53.899002,"tags":"2007,achill+island,holiday,ireland","S2CellId":"0d49c00000000000","result":409,"accuracy":0.6551598,"title":"p1010254.jpg"}
{"id":227515118,"url":"http://farm1.staticflickr.com/86/227515118_cd81ffc696.jpg","path":"87f/0f0/87f0f0594eb4dba1b8c16753f2fd64.jpg","date":"2006-08-05","year":2006,"month":8,"lon":-9.100799,"lat":53.25782,"tags":"barna,barna+woods,biking,connemara,ireland,wood","S2CellId":"0d50400000000000","result":429,"accuracy":0.05447572,"title":"PICT0791.JPG"}
{"id":516142109,"url":"http://farm1.staticflickr.com/233/516142109_2d68c6ffed.jpg","path":"4eb/5d3/4eb5d33da1957a6b4c402b646ee196f4.jpg","date":"2007-05-26","year":2007,"month":5,"lon":-9.082732,"lat":53.275364,"tags":"15+gleann+dara,adzreil,apai,balok,bbq,boon+wei,chota,europe,gagan,galway,ipin,ireland,kev,malaysians,najmi,nasrul,nuig,phalinn,rahoon,syad,syazwan","S2CellId":"9630000000000000","result":9869,"accuracy":0.09525728,"title":"BBQ","description":"BBQ"}
{"id":4826771458,"url":"http://farm5.staticflickr.com/4116/4826771458_a587c21eb4.jpg","path":"e26/4f3/e264f378af883871922a8a32897af6d.jpg","date":"2010-07-16","year":2010,"month":7,"lon":-9.824523,"lat":53.326157,"tags":"2010,beaches,bernard%27s+50th+birthday,birthdays,connemara,family,ireland","S2CellId":"4859000000000000","result":4820,"accuracy":0.13649002,"title":"the+%22normally+usually%22+place"}
{"id":9438221738,"url":"http://farm3.staticflickr.com/2862/9438221738_e6015a4a37.jpg","path":"138/dca/138dca85a9ca93ac9229b5a8d6162444.jpg","date":"2013-06-29","year":2013,"month":6,"lon":-9.543514,"lat":53.800144,"tags":"contemporary,electronic,folk,mayo,rock,roisin+dubh,roots,sean+rowe,sleep+thieves,westport,westport+festival,westport+festival+290613","S2CellId":"4806400000000000","result":4764,"accuracy":0.39511347,"title":"Westport+Festival+2013","description":"These+are+from+the+Westport+Festival%2C+2013+which+took+place+over+the+weekend+of+29th+and+30th+June+in+Westport+House%2C+Westport%2C+Co.+Mayo%2C+Ireland.%0A%0AThis+is+Sleep+Thieves+on+the+Roisin+Dubh+stage%2C+Saturday%21"}
{"id":212800209,"url":"http://farm1.staticflickr.com/63/212800209_363e114f3f.jpg","path":"7eb/bce/7ebbce71de4c69c88e01d7c67affeed.jpg","date":"2006-08-11","year":2006,"month":8,"lon":-9.057712,"lat":53.272606,"tags":"freedom,galway,protest,speech,violin","S2CellId":"89e37a7000000000","result":9346,"accuracy":0.0156222945,"title":"PIC_7105","description":"Exif_JPEG"}
{"id":449889345,"url":"http://farm1.staticflickr.com/247/449889345_916821b268.jpg","path":"b91/f3a/b91f3a55258e09722ef7487566afd21.jpg","date":"2007-04-07","year":2007,"month":4,"lon":-9.056811,"lat":53.275467,"tags":"abbas,aiyad,bola,bola+sepak,claddagh,europe,galway,galway+bay,ije,ipin,ireland,malaysia,melayu,nuig,paan,phalinn,river+corrib,syad,west","S2CellId":"88fb990000000000","result":8747,"accuracy":0.08716489,"title":"River+Corrib","description":"Galway"}
{"id":4877432514,"url":"http://farm5.staticflickr.com/4135/4877432514_210fa14bc8.jpg","path":"ed7/0d5/ed70d5ab0d541d022aec8808ae2c182.jpg","date":"2010-08-09","year":2010,"month":8,"lon":-9.918626,"lat":53.39655,"tags":"connemara,galway,harbour,ireland,panorama,roundstone","S2CellId":"4867040000000000","result":4881,"accuracy":0.09238701,"title":"Roundstone+Harbour+and+the+12+Pins+Mountains","description":"%28IMG_5389-0c%29"}
{"id":7527345976,"url":"http://farm9.staticflickr.com/8282/7527345976_6a31c7381c.jpg","path":"fcf/967/fcf9673274857a83d659326f7765d1e.jpg","date":"2012-07-07","year":2012,"month":7,"lon":-9.069224,"lat":53.2631,"tags":"b%C3%B3thar,c%C3%B3sta+garde,camper,canon+eos+7d,coast,discover+ireland,ef+24-70mm+f%2F2.8l+usm,eire,f%C3%A1ilte,failte,ireland,na,ocean,race,sail,sailboat,sailing,salthill,sea,seaside,team,telef%C3%B3nica,telefonica,tr%C3%A1,tr%C3%A1%E2%80%9D,volvo","S2CellId":"4889b00000000000","result":5760,"accuracy":0.14996068,"title":"Volvo+Ocean+Race+2011%2F2012","description":"Discover+Ireland+in-port+race+in+Galway%2C+Ireland."}
{"id":6810972305,"url":"http://farm8.staticflickr.com/7152/6810972305_f94081e620.jpg","path":"639/57e/63957e959da8a6ff117d772f605acc2c.jpg","date":"2010-08-09","year":2010,"month":8,"lon":-9.672517,"lat":53.119682,"tags":"aran+island,bird,dock,duck,harbor,ireland,nikond70s%2B17-70,sea,swan","S2CellId":"485b900000000000","result":4824,"accuracy":0.06613059,"title":"Ducks+and+more+ducks"}
{"id":7536185194,"url":"http://farm8.staticflickr.com/7120/7536185194_dd352e2104.jpg","path":"39a/4f4/39a4f483927ead01991bdfc58f21efa.jpg","date":"2012-07-07","year":2012,"month":7,"lon":-9.069224,"lat":53.2631,"tags":"c%C3%B3sta+garde,canon+eos+7d,coast,discover+ireland,ef+24-70mm+f%2F2.8l+usm,eire,f%C3%A1ilte,failte,ireland,ocean,puma,race,sail,sailboat,sailing,sanya,sea,seaside,team,volvo","S2CellId":"485b900000000000","result":4824,"accuracy":0.14040552,"title":"Volvo+Ocean+Race+2011%2F2012","description":"Discover+Ireland+in-port+race+in+Galway%2C+Ireland."}
{"id":7570270984,"url":"http://farm8.staticflickr.com/7267/7570270984_cd55a991d7.jpg","path":"f16/b5a/f16b5ab4e9778daefed3682d50e54eb.jpg","date":"2012-07-14","year":2012,"month":7,"lon":-9.068548,"lat":53.261967,"tags":"aquathon,biathalon,club,galway,salthill,tri,triathalon","S2CellId":"4d5c000000000000","result":5955,"accuracy":0.9232998,"title":"DSC_6383"}
{"id":227504216,"url":"http://farm1.staticflickr.com/68/227504216_64ccd58cb1.jpg","path":"c94/64a/c9464a5b2b4919fb44256eee88171d3.jpg","date":"2006-08-05","year":2006,"month":8,"lon":-9.100799,"lat":53.25782,"tags":"barna,barna+woods,biking,connemara,ireland,wood","S2CellId":"48738c0000000000","result":5085,"accuracy":0.12850063,"title":"PICT0754.JPG"}
{"id":1265927052,"url":"http://farm2.staticflickr.com/1122/1265927052_3dd0b18c82.jpg","path":"a31/e28/a31e288dc0931edad8794e4177444225.jpg","date":"2007-08-26","year":2007,"month":8,"lon":-9.862638,"lat":53.495388,"tags":"connemara,galway,hiking,ireland,mountain","S2CellId":"4865700000000000","result":4876,"accuracy":0.05102473,"title":"DSC02056"}
{"id":6271721637,"url":"http://farm7.staticflickr.com/6093/6271721637_95b38e8a0f.jpg","path":"49f/4b7/49f4b747db5cdb56eb8cdcf1a550d9.jpg","date":"2011-10-04","year":2011,"month":10,"lon":-9.289026,"lat":53.54255,"tags":"cong,ireland,irlanda","S2CellId":"47e0c00000000000","result":4528,"accuracy":0.027270218,"title":"2011-10-04+Irlanda+361+Cong","description":"Cong%2C+Ireland%0A%3Ca+href%3D%22http%3A%2F%2Fen.wikipedia.org%2Fwiki%2FCong%2C_County_Mayo%22+rel%3D%22nofollow%22%3Een.wikipedia.org%2Fwiki%2FCong%2C_County_Mayo%3C%2Fa%3E"}
{"id":227512793,"url":"http://farm1.staticflickr.com/63/227512793_3fac7e0fa4.jpg","path":"d07/03a/d0703ac3e0f54a3ec99f4d532d117a78.jpg","date":"2006-08-05","year":2006,"month":8,"lon":-9.100799,"lat":53.25782,"tags":"barna,barna+woods,biking,connemara,ireland,wood","S2CellId":"0d50400000000000","result":429,"accuracy":0.12439329,"title":"PICT0780.JPG"}
{"id":3520717,"url":"http://farm1.staticflickr.com/2/3520717_598ea7543f.jpg","path":"ec8/8cc/ec88ccded8108710f6f0956b46528779.jpg","date":"2004-12-22","year":2004,"month":12,"lon":-9.701786,"lat":53.127926,"tags":"aran+islands,fortress,inis+mor,ireland,ruin","S2CellId":"487c100000000000","result":5609,"accuracy":0.05846716,"title":"Central+stone+stage+within+Dun+Eochla"}
{"id":2737499667,"url":"http://farm4.staticflickr.com/3213/2737499667_c99e34dd6c.jpg","path":"abf/f77/abff77ed5bbe727bb985a698ed519b.jpg","date":"2008-08-04","year":2008,"month":8,"lon":-9.405584,"lat":53.02005,"tags":"burren,clare,doolin,gimp,ireland,limestone,pavement,reflection,rockpool,seaweed,sky","S2CellId":"130fc00000000000","result":960,"accuracy":0.089855865,"title":"Alien+Landscape","description":"A+crack+in+the+limestone+pavement+at+Doolin+on+Monday.%0A%0A%3Ca+href%3D%22http%3A%2F%2Fwww.cosmicarchive.com%2F2008%2F08%2Falien-landscape.html%22%3EBacklink%3C%2Fa%3E"}
{"id":4757320984,"url":"http://farm5.staticflickr.com/4074/4757320984_6ba89dc64f.jpg","path":"254/a45/254a4597197904e69da3d3d21aa487.jpg","date":"2010-05-15","year":2010,"month":5,"lon":-9.051661,"lat":53.26529,"tags":"dublin,galway,ireland,moher+cliffs","S2CellId":"4860400000000000","result":4839,"accuracy":0.048696995,"title":"Filter+mess"}
{"id":450047686,"url":"http://farm1.staticflickr.com/186/450047686_ff055a0312.jpg","path":"7bd/e5e/7bde5e8bcb70c6d8c56316c243d1f03f.jpg","date":"2007-04-07","year":2007,"month":4,"lon":-9.056811,"lat":53.275467,"tags":"abbas,aiyad,bola,bola+sepak,claddagh,europe,galway,galway+bay,ije,ipin,ireland,malaysia,melayu,nuig,paan,phalinn,river+corrib,syad,west","S2CellId":"488f700000000000","result":5776,"accuracy":0.026538506,"title":"Galway","description":"Galway"}
{"id":4593894075,"url":"http://farm5.staticflickr.com/4031/4593894075_e502306256.jpg","path":"205/df4/205df411306047346e69933f2c5bac1.jpg","date":"2009-04-10","year":2009,"month":4,"lon":-9.704541,"lat":53.12362,"tags":"clare,holiday,ireland,uk","S2CellId":"485a400000000000","result":4821,"accuracy":0.17591287,"title":"090410-123953.jpg"}
{"id":288009035,"url":"http://farm1.staticflickr.com/108/288009035_af94bf8419.jpg","path":"84a/3ea/84a3eaa47a44c26cb759bdb9cbf264ad.jpg","date":"2006-09-25","year":2006,"month":9,"lon":-9.71569,"lat":53.129005,"tags":"aran,europe,inishmore,ireland,island","S2CellId":"485bb00000000000","result":4825,"accuracy":0.34464607,"title":"Inishmore+-+On+The+Road","description":"Riding+a+bike+on+these+roads+is+damn+exhiting.+You+can+start+from+the+back+of+the+old+signal+tower+and+follow+the+%22Ring+of+Aran%22+until+you+reach+a+town+called+Gart+ua+gCapall."}
{"id":2554458346,"url":"http://farm4.staticflickr.com/3113/2554458346_d81c3bb5fe.jpg","path":"c5a/732/c5a7322db65cb1b3b4d3f0299b91d5.jpg","date":"2008-05-17","year":2008,"month":5,"lon":-9.310569,"lat":53.543827,"tags":"ashford,castle,clonbur,count,county,galway,hotel,ireland,irlanda","S2CellId":"4652531c00000000","result":2859,"accuracy":0.027543524,"title":"Window+on+green"}
{"id":4548581836,"url":"http://farm5.staticflickr.com/4013/4548581836_9ace6617e5.jpg","path":"357/66e/35766eac663214b88a1c9d6b6bfa07d.jpg","date":"2010-04-13","year":2010,"month":4,"lon":-9.585571,"lat":53.089745,"tags":"arieti,asini,castelli,cliff+of+moher,cong,connemara,dublino,irlanda,isole+aran,mucche,natura,pecore,viaggio","S2CellId":"486ed00000000000","result":4976,"accuracy":0.00951549,"title":"L%27unico+pub+%28chiuso%29+di+Inishmaan"}
{"id":1265961506,"url":"http://farm2.staticflickr.com/1106/1265961506_f7c1e1ae08.jpg","path":"ada/e31/adae31dfa2e2159b195c29faf36f847a.jpg","date":"2007-08-26","year":2007,"month":8,"lon":-9.875472,"lat":53.494083,"tags":"connemara,galway,hiking,ireland,mountain","S2CellId":"4889100000000000","result":5755,"accuracy":0.022535417,"title":"DSC02062"}
{"id":5408116747,"url":"http://farm6.staticflickr.com/5052/5408116747_23d33cfa3b.jpg","path":"9bd/063/9bd0636d6943b8f34a11b4c91f9ee.jpg","date":"2011-01-05","year":2011,"month":1,"lon":-9.050615,"lat":53.270798,"tags":"5d,boats,canon,contrails,docks,eos,galway,ireland,rebel,river,t2i,water","S2CellId":"4652533000000000","result":2860,"accuracy":0.108919546,"title":"Fuel+ship.+Solent+Fisher.+Leaving+Galway+Docks%2C+backing+towards+the+research+vessel.","description":"Last+Days+in+Galway."}
{"id":9024454769,"url":"http://farm9.staticflickr.com/8547/9024454769_6d9451720e.jpg","path":"eb4/1b8/eb41b8292677d972af8454c05c55f8d0.jpg","date":"2013-06-01","year":2013,"month":6,"lon":-9.04992,"lat":53.274837,"tags":"ireland2013","S2CellId":"4cce05c000000000","result":5918,"accuracy":0.008511602,"title":"20130601_144429"}
{"id":2864212638,"url":"http://farm4.staticflickr.com/3118/2864212638_839f663635.jpg","path":"631/d17/631d175088576264abd3e99c2b51fd8e.jpg","date":"2008-09-01","year":2008,"month":9,"lon":-9.379749,"lat":53.016434,"tags":"doolin,fence,ireland","S2CellId":"485ec00000000000","result":4836,"accuracy":0.063213214,"title":"P1010082"}
{"id":4826774760,"url":"http://farm5.staticflickr.com/4141/4826774760_329aca8675.jpg","path":"6b6/030/6b6030bd72945df3674fdc4a8db9afaf.jpg","date":"2010-07-17","year":2010,"month":7,"lon":-9.824523,"lat":53.326157,"tags":"2010,beaches,bernard%27s+50th+birthday,birthdays,connemara,family,ireland","S2CellId":"4859000000000000","result":4820,"accuracy":0.3990765,"title":"freezing+and+intrepid+on+Moyrus+Strand"}
{"id":5632746676,"url":"http://farm6.staticflickr.com/5101/5632746676_6f65d6b423.jpg","path":"fa5/842/fa584257399e4d5eb6858e946ec288.jpg","date":"2011-03-27","year":2011,"month":3,"lon":-9.285721,"lat":53.534748,"tags":"ashford+castle,big,boris,casio,casio+exilim+ex-fh100,castle,cimg1769,county+of+galway,earai,eire,ex-fh100,exilim,exilim+ex-fh100,failte+eire,failte+eire+-+welcome+to+ireland,guinness,ireland,irish,irska,land,mb,mitendorfer,shadows,sharky,sunset","S2CellId":"4d5c000000000000","result":5955,"accuracy":0.1855132,"title":"Sunset+at+Ashford+Castle","description":"Sunset+at+back+side+of+Ashford+castle."}
{"id":3035230767,"url":"http://farm4.staticflickr.com/3288/3035230767_40ce40aa1f.jpg","path":"13a/d8a/13ad8a7eb8e25a034c8ec2041355c.jpg","date":"2008-10-13","year":2008,"month":10,"lon":-9.949364,"lat":53.55326,"tags":"connemara,iwerddon,rhiannon","S2CellId":"a9d5400000000000","result":9944,"accuracy":0.5151701,"title":"DSCF2688"}
{"id":5719325540,"url":"http://farm3.staticflickr.com/2337/5719325540_46f72d74a5.jpg","path":"7cc/23d/7cc23d331918425ada8ba8022101e3e.jpg","date":"2011-05-14","year":2011,"month":5,"lon":-9.405326,"lat":53.021187,"tags":"irlanda,maggio+2011","S2CellId":"48d7400000000000","result":5814,"accuracy":0.15077744,"title":"cliffs+of+moher","description":"%3Ca+href%3D%22http%3A%2F%2Fit.wikipedia.org%2Fwiki%2FScogliere_di_Moher%22+rel%3D%22nofollow%22%3Eit.wikipedia.org%2Fwiki%2FScogliere_di_Moher%3C%2Fa%3E%0A%3Ca+href%3D%22http%3A%2F%2Fwww.cliffsofmoher.ie%2F%22+rel%3D%22nofollow%22%3Ewww.cliffsofmoher.ie%2F%3C%2Fa%3E"}
{"id":5277311902,"url":"http://farm6.staticflickr.com/5003/5277311902_2414b97f23.jpg","path":"e26/4c5/e264c52e4b36ab6f1e5547df99c9ed.jpg","date":"2010-11-26","year":2010,"month":11,"lon":-9.927561,"lat":53.555077,"tags":"5d,canon,eos,ireland","S2CellId":"485a400000000000","result":4821,"accuracy":0.10104344,"title":"Coming+down+off+Diamond+Mountain"}
{"id":410610878,"url":"http://farm1.staticflickr.com/159/410610878_869ac107d5.jpg","path":"1b1/50e/1b150ea37afef6ff2a90691575b94.jpg","date":"2007-03-03","year":2007,"month":3,"lon":-9.339494,"lat":53.080814,"tags":"burren,ireland,sea","S2CellId":"54f0000000000000","result":6316,"accuracy":0.04208569,"title":"IMG_1749.JPG"}
{"id":7859296398,"url":"http://farm8.staticflickr.com/7132/7859296398_4e964e4969.jpg","path":"8c4/2b8/8c42b820863f9e7e18786c09ed82a.jpg","date":"2012-08-26","year":2012,"month":8,"lon":-9.056801,"lat":53.270306,"tags":"instagram+app,iphoneography,square,square+format","S2CellId":"3e49f00000000000","result":2598,"accuracy":0.011698061,"title":"Puppet."}
{"id":282891563,"url":"http://farm1.staticflickr.com/115/282891563_7ac41a0880.jpg","path":"92b/eb9/92beb9d1aae9a2747c9f1ee6d2d3233.jpg","date":"2006-10-29","year":2006,"month":10,"lon":-9.056811,"lat":53.275467,"tags":"galway,ireland","S2CellId":"6d318a3000000000","result":6816,"accuracy":0.025439885,"title":"Tree","description":"NUIG"}
{"id":2507454535,"url":"http://farm3.staticflickr.com/2364/2507454535_3d82778d7b.jpg","path":"32b/552/32b552275dd5237c416cf7c1257264f3.jpg","date":"2008-05-15","year":2008,"month":5,"lon":-9.388589,"lat":53.549168,"tags":"bert,cabra,campo,clonbur,ireland,irlanda,lana,lydia,maskcottage,oveja,pasto","S2CellId":"4860400000000000","result":4839,"accuracy":0.016882222,"title":"Dolly"}
{"id":2536488769,"url":"http://farm3.staticflickr.com/2165/2536488769_e28df596a3.jpg","path":"99e/178/99e17846461ef04819787ce5aa19b78d.jpg","date":"2008-05-25","year":2008,"month":5,"lon":-9.110326,"lat":53.157013,"tags":"2008,ireland,travel","S2CellId":"4873400000000000","result":5083,"accuracy":0.32362434,"title":"Black+Head"}
{"id":3973286649,"url":"http://farm3.staticflickr.com/2637/3973286649_c9eacdde36.jpg","path":"118/1bb/1181bb5a8cdb2bc8372d167b43da8bc.jpg","date":"2009-08-22","year":2009,"month":8,"lon":-9.122257,"lat":53.486004,"tags":"abbazia,canon,complesso,convento,errily,europa,europe,francescano,gengish,ireland,irish,irlanda,monastico,ross,ruderi,travel,trip,vacation,viaggio","S2CellId":"4873400000000000","result":5083,"accuracy":0.07091799,"title":"Ross+Errily","description":"Complesso+monastico+francescano%2C+tra+i+campi%2C+sulle+rivedel+fiume+Black.+All%27ombre+di+una+snella+torre+campanaria+si+stagliano+gli+edificidel+xiv+exvsecolo%2C+semplici+e+perfetti%3A+%C3%A8+il+monastero+francescano+meglio+conservato+d%27Irlanda.+Ci+sono+molte+tombe+scolpite%2C+vi+si+trovano+anche+enormi+caminetti%2C+grondaie%2C+scivoli+per+il+carbone+e+forni+per+la+cotture+del+pane."}
{"id":931699496,"url":"http://farm2.staticflickr.com/1433/931699496_9684794330.jpg","path":"5b4/c4c/5b4c4cf45383550ff8cb91461fc7c9.jpg","date":"2007-07-28","year":2007,"month":7,"lon":-9.735002,"lat":53.50331,"tags":"connemara,inlaws,ireland,summer","S2CellId":"488ed00000000000","result":5771,"accuracy":0.30006054,"title":"PICT4937.JPG"}
{"id":4826763004,"url":"http://farm5.staticflickr.com/4073/4826763004_ceea51e0e3.jpg","path":"c37/aed/c37aed7d221dc7c8c4e292cc2f1607b.jpg","date":"2010-07-14","year":2010,"month":7,"lon":-9.824523,"lat":53.326157,"tags":"2010,beaches,bernard%27s+50th+birthday,birthdays,connemara,family,ireland","S2CellId":"9630000000000000","result":9869,"accuracy":0.07567774,"title":"Aran+Islands"}
{"id":8966101353,"url":"http://farm8.staticflickr.com/7405/8966101353_8477f45b8b.jpg","path":"78f/33b/78f33b10e952f7f0d8d38f95723a6d7c.jpg","date":"2012-06-23","year":2012,"month":6,"lon":-9.543514,"lat":53.800144,"tags":"ireland,june+2012,mayo,sean+rowe,westport,westport+festival,westport+festival+2012,westport+house","S2CellId":"132efb5000000000","result":1067,"accuracy":0.2147311,"title":"Westport+Festival+2012","description":"These+were+taken+at+the+Westport+Festival+2012%2C+which+took+place+in+the+grounds+of+the+fabulous+Westport+House+over+the+weekend+of+23rd+and+24th+June+2012.+This+is+Lloyd+Cole+performing+on+the+Acoustic+Stage."}
{"id":371231031,"url":"http://farm1.staticflickr.com/109/371231031_97bc8c2182.jpg","path":"a7b/522/a7b52258f5c135ebd842d602ecb4142.jpg","date":"2007-01-27","year":2007,"month":1,"lon":-9.063377,"lat":53.282227,"tags":"football,galway,malaysia,soccer","S2CellId":"4877630000000000","result":5430,"accuracy":0.16129702,"title":"Football","description":"Football"}
{"id":2155845988,"url":"http://farm3.staticflickr.com/2230/2155845988_cd0c413b0a.jpg","path":"723/b7a/723b7a56de3ec6a13f23c31456a462f.jpg","date":"2007-12-26","year":2007,"month":12,"lon":-9.962453,"lat":53.373253,"tags":"beach,galway,gurteen+bay,hdr,ireland,qtpfsgui,roundstone,sand,tessie","S2CellId":"486b100000000000","result":4922,"accuracy":0.037374634,"title":"Tessie","description":"Tessie+looking+out+over+Gurteen+Bay+on+St.+Stephen%27s+day.%0A%0AThis+is+probably+the+photo+that+I%27m+happiest+with+that+I%27ve+taken+lately%2C+and+finally+a+HDR+that+I%27m+happy+with+too%21%0A%0AIt%27s+a+combination+of+two+%22tone+mapping+operators%22+in+Qtpfsgui.+The+sky+is+from+Fattal+and+the+foreground+is+Mantiuk"}
{"id":3874766721,"url":"http://farm3.staticflickr.com/2431/3874766721_2580683424.jpg","path":"5ac/1d3/5ac1d317491972bd798319e1f4a4797c.jpg","date":"2009-08-14","year":2009,"month":8,"lon":-9.882324,"lat":53.56149,"tags":"abbey,church+interior,county+galway,galway,gothic+church,ireland,kylemore,kylemore+abbey,neo-gothic","S2CellId":"4872500000000000","result":5080,"accuracy":0.06853157,"title":"interior+of+church+at+kylemore"}
{"id":3700089389,"url":"http://farm4.staticflickr.com/3507/3700089389_45b0c5afea.jpg","path":"bfb/b79/bfbb795a8d2ed1f1a67198c89cce252.jpg","date":"2009-07-08","year":2009,"month":7,"lon":-9.915161,"lat":53.38906,"tags":"coastline,ireland,panoramic,sailing","S2CellId":"536c000000000000","result":6045,"accuracy":0.18154795,"title":"Roundstone+village","description":"To+see+the+context+of+this+picture%2C+visit%0A%3Ca+href%3D%22http%3A%2F%2Fwww.ariadnetrue.co.uk%22+rel%3D%22nofollow%22%3Ewww.ariadnetrue.co.uk%3C%2Fa%3E%0Aand+the+bLog+at%0A%3Ca+href%3D%22http%3A%2F%2Fwww.ariadnetrue.co.uk%2Fatblog.html%22+rel%3D%22nofollow%22%3Ewww.ariadnetrue.co.uk%2Fatblog.html%3C%2Fa%3E"}
{"id":4991089970,"url":"http://farm5.staticflickr.com/4112/4991089970_70550cdc97.jpg","path":"3f3/17d/3f317dd329fd3d1c2cfc6a90a6e6ec8b.jpg","date":"2010-08-27","year":2010,"month":8,"lon":-9.112402,"lat":53.53942,"tags":"abbey,moorgagagh","S2CellId":"135ac00000000000","result":1183,"accuracy":0.03528357,"title":"IMG_0098"}
{"id":3258433038,"url":"http://farm4.staticflickr.com/3467/3258433038_1322b8445d.jpg","path":"b37/a45/b37a45b5b464876b2ace8340cfb664a6.jpg","date":"2009-02-05","year":2009,"month":2,"lon":-9.052562,"lat":53.274708,"tags":"february,ireland,travel,winter","S2CellId":"880b000000000000","result":8105,"accuracy":0.006249741,"title":"P1010309"}
{"id":3592585581,"url":"http://farm4.staticflickr.com/3368/3592585581_29e6eb8b5e.jpg","path":"c35/151/c35151ba89b34da33cf774d66f136b.jpg","date":"2009-05-30","year":2009,"month":5,"lon":-9.887437,"lat":53.764214,"tags":"afri,doo+lough,ireland,mayo,sligo","S2CellId":"485a400000000000","result":4821,"accuracy":0.14059505,"title":"Reek"}
{"id":13964476502,"url":"http://farm8.staticflickr.com/7219/13964476502_13abb09e11.jpg","path":"bdc/7ab/bdc7abb4725c63c466e1619224b09096.jpg","date":"2014-04-20","year":2014,"month":4,"lon":-9.4595,"lat":53.508163,"tags":"ireland,irland","S2CellId":"4845400000000000","result":4817,"accuracy":0.13203478,"title":"DSC01311"}
{"id":627271367,"url":"http://farm2.staticflickr.com/1396/627271367_a543f45187.jpg","path":"5a8/097/5a8097cfe0df5a9d58dfe35523690d7.jpg","date":"2007-06-14","year":2007,"month":6,"lon":-9.284563,"lat":53.53791,"tags":"ireland,kathleen","S2CellId":"9630000000000000","result":9869,"accuracy":0.21145429,"title":"Kathleen%2C+on+the+grounds+of+Ashford+Castle"}
{"id":16443063,"url":"http://farm1.staticflickr.com/12/16443063_ce91945462.jpg","path":"fe1/677/fe16773bd24022dfb81ec2db98c81680.jpg","date":"2005-05-25","year":2005,"month":5,"lon":-9.89583,"lat":53.5631,"tags":"carra,ireland,jim,kylemore+abbey","S2CellId":"485a400000000000","result":4821,"accuracy":0.42036048,"title":"Carra+and+Jim+at+Kylemore+Abbey%2C+Galway","description":"%3Ca+href%3D%22http%3A%2F%2Fwww.geobloggers.com%22%3Egeotagged%3C%2Fa%3E"}
{"id":371733031,"url":"http://farm1.staticflickr.com/172/371733031_c7ac411631.jpg","path":"74c/41a/74c41a12b43da6beb8bac7ce0ea9cc4.jpg","date":"2007-01-27","year":2007,"month":1,"lon":-9.063377,"lat":53.282227,"tags":"cork,dbs,football,galway,ireland,malaysia,nuig,soccer,tcd,ucc,ucd","S2CellId":"487b640000000000","result":5568,"accuracy":0.07694643,"title":"Football","description":"Football"}
{"id":221972711,"url":"http://farm1.staticflickr.com/96/221972711_3c78b12cf1.jpg","path":"356/afb/356afb5ae21c6bd555c650d7ed2aa8.jpg","date":"2005-08-07","year":2005,"month":8,"lon":-9.967002,"lat":53.550526,"tags":"connemara,galway,hisgett,ireland,lake,letterfrack","S2CellId":"488e400000000000","result":5768,"accuracy":0.24979983,"title":"Letterfrack"}
{"id":5276665659,"url":"http://farm6.staticflickr.com/5289/5276665659_92f010e6f1.jpg","path":"129/f34/129f34a9ec72774fc061a32b18e5e7f5.jpg","date":"2010-11-26","year":2010,"month":11,"lon":-9.927561,"lat":53.555077,"tags":"5d,canon,clouds,eos,ireland,rainbow","S2CellId":"48650c0000000000","result":4871,"accuracy":0.013478409,"title":"Rainbow+and+Kylemore+Abbey+from+the+top+of+Diamond+Mountain.+Letterfrack%2C+Ireland."}
{"id":8144680937,"url":"http://farm9.staticflickr.com/8325/8144680937_b44deb812b.jpg","path":"3f3/cc0/3f3cc092a3d32edb81c1953507fd8db.jpg","date":"2012-11-01","year":2012,"month":11,"lon":-9.565305,"lat":53.337788,"tags":"instagram+app,iphoneography,rise,square,square+format","S2CellId":"4889300000000000","result":5756,"accuracy":0.11874085,"title":"Connemara"}
{"id":351510989,"url":"http://farm1.staticflickr.com/151/351510989_a005e1dd49.jpg","path":"906/a5f/906a5fa1be73e170a92fba8ed0bb94c7.jpg","date":"2007-01-07","year":2007,"month":1,"lon":-9.305934,"lat":53.43628,"tags":"connemara,ireland,sky+road","S2CellId":"488b000000000000","result":5763,"accuracy":0.21596554,"title":"Hill+of+Doon+%282%29","description":"Digital+StillCamera"}
{"id":4826761726,"url":"http://farm5.staticflickr.com/4078/4826761726_1533fe9018.jpg","path":"17e/8c8/17e8c8ce6299b776818f87c18691127.jpg","date":"2010-07-14","year":2010,"month":7,"lon":-9.824523,"lat":53.326157,"tags":"2010,beaches,bernard%27s+50th+birthday,birthdays,connemara,family,ireland","S2CellId":"488b000000000000","result":5763,"accuracy":0.20404643,"title":"Aran+Islands","description":"."}
{"id":138665135,"url":"http://farm1.staticflickr.com/48/138665135_b473774604.jpg","path":"7fa/218/7fa21832ae549754f40acbcb1ee1f7.jpg","date":"2006-05-01","year":2006,"month":5,"lon":-9.678096,"lat":53.113297,"tags":"aran+island,inishmore,ireland,irish,island","S2CellId":"47e67d9000000000","result":4681,"accuracy":0.027821273,"title":"ARAN2_IMG_0530"}
{"id":2698850470,"url":"http://farm4.staticflickr.com/3138/2698850470_4a074b61f4.jpg","path":"8ac/d38/8acd38f964b0ae78c374ceac11ff981.jpg","date":"2008-04-05","year":2008,"month":4,"lon":-9.770965,"lat":53.12643,"tags":"aran,inishmore,ireland,islands","S2CellId":"7c06c00000000000","result":6897,"accuracy":0.02110731,"title":"DSC01885"}
{"id":371971167,"url":"http://farm1.staticflickr.com/123/371971167_167a74f11c.jpg","path":"29f/33e/29f33e36e0c517ede842f82cf480c388.jpg","date":"2007-01-28","year":2007,"month":1,"lon":-9.063377,"lat":53.282227,"tags":"cork,dbs,football,galway,ireland,malaysia,nuig,soccer,tcd,ucc,ucd","S2CellId":"47c4100000000000","result":4245,"accuracy":0.09035932,"title":"Football","description":"Football"}
{"id":5822469106,"url":"http://farm4.staticflickr.com/3040/5822469106_ffbc74cefd.jpg","path":"e38/ff8/e38ff8cb6eae91ed837bb58c92fc1dd.jpg","date":"2010-11-01","year":2010,"month":11,"lon":-9.889755,"lat":53.76292,"tags":"autumn,eire,ireland,ireland+west+coast,mayo","S2CellId":"9aab000000000000","result":9926,"accuracy":0.06245869,"title":"Roonagh+Point%2C+Co+Mayo"}
{"id":5376396554,"url":"http://farm6.staticflickr.com/5168/5376396554_c6c28ec550.jpg","path":"536/5b5/5365b5ff6512877359e36e5788bf.jpg","date":"2010-12-20","year":2010,"month":12,"lon":-9.054433,"lat":53.26893,"tags":"5d,boats,canon,eos,galway,ireland,water","S2CellId":"4810c00000000000","result":4791,"accuracy":0.019333242,"title":"Boats+tied+to+the+Claddagh+Docks%2C+Galway."}
{"id":3034694507,"url":"http://farm4.staticflickr.com/3232/3034694507_b03373cc5a.jpg","path":"387/e37/387e37b899b7a57717f12ee0e4c8652.jpg","date":"2007-09-21","year":2007,"month":9,"lon":-9.159679,"lat":53.076805,"tags":"castle,chloe,ireland,the+burren","S2CellId":"5240000000000000","result":5966,"accuracy":0.14758763,"description":"this+might+be+better+than+the+other+one+i+originally+uploaded.++that+happens+sometimes%2C+because+i%27m+stupid.%0A%0A%7C+%3Ca+href%3D%22http%3A%2F%2Ffarm4.static.flickr.com%2F3232%2F3034694507_2ff5d0ea18_o.jpg%22%3E%2B+%2B%3C%2Fa%3E+%7C"}
{"id":130753072,"url":"http://farm1.staticflickr.com/54/130753072_f39e11f4ca.jpg","path":"90a/3a3/90a3a3d345c7f2e112b1b24b2d242fa.jpg","date":"2006-04-16","year":2006,"month":4,"lon":-9.06475,"lat":53.263363,"tags":"gr%C3%A1inne,ian,maeve,s%C3%ADle","S2CellId":"4876440000000000","result":5361,"accuracy":0.050934643,"title":"Mama%2C+Gr%C3%A1inne%2C+Maeve%2C+Ian+and+S%C3%ADle+with+a+tank+of+Dorys."}
{"id":221818752,"url":"http://farm1.staticflickr.com/89/221818752_4b3fcab872.jpg","path":"6e6/3cd/6e63cda092189cad81334fc55266158.jpg","date":"2006-02-25","year":2006,"month":2,"lon":-9.056811,"lat":53.275467,"tags":"athenry,galway,ireland,phalinn","S2CellId":"5486718c00000000","result":6128,"accuracy":0.0149564175,"title":"Ducks","description":"River+Corrib+Galway"}
{"id":1219296954,"url":"http://farm2.staticflickr.com/1061/1219296954_29770e9cb6.jpg","path":"7ee/b7f/7eeb7f527cf1388cdb19cd1168a3556.jpg","date":"2007-08-19","year":2007,"month":8,"lon":-9.298338,"lat":53.10768,"tags":"beach,clare,fanore,ireland,irlanda,spiaggia,trip,viaggio","S2CellId":"0730000000000000","result":95,"accuracy":0.055832993,"title":"Angelo+e+Katiuscia+alla+Spiaggia+di+Fanore"}
{"id":1224941719,"url":"http://farm2.staticflickr.com/1187/1224941719_687880c59b.jpg","path":"efd/46e/efd46e5b6c49306c562c822b1f381b4.jpg","date":"2007-08-12","year":2007,"month":8,"lon":-9.404125,"lat":53.014473,"tags":"ireland","S2CellId":"485b400000000000","result":4823,"accuracy":0.18372448,"title":"p1090507.jpg"}
{"id":9044994205,"url":"http://farm6.staticflickr.com/5510/9044994205_32ceee4eec.jpg","path":"f2e/b3c/f2eb3c4f168a9266c4f53438314414e.jpg","date":"2013-04-02","year":2013,"month":4,"lon":-9.357476,"lat":53.529007,"tags":"ireland","S2CellId":"485cc00000000000","result":4829,"accuracy":0.08474263,"title":"Lough+Corrib"}
{"id":3975451637,"url":"http://farm3.staticflickr.com/2463/3975451637_a5976ef0c9.jpg","path":"587/a7e/587a7ee08543e62197bcd3eb21d57d1.jpg","date":"2009-09-20","year":2009,"month":9,"lon":-9.919452,"lat":53.396584,"tags":"%C3%B6utdoor,europe,ireland,landscape,palmtree,photography,tree,western+ireland","S2CellId":"9aab000000000000","result":9926,"accuracy":0.21450908,"title":"092009+Ireland+day+4-96","description":"no+one+ever+mentioned+palm+trees+in+Ireland"}
{"id":6749509743,"url":"http://farm8.staticflickr.com/7147/6749509743_4c60451404.jpg","path":"9e8/138/9e8138f1a114fb65218fd5719ccf53.jpg","date":"2009-07-14","year":2009,"month":7,"lon":-9.33212,"lat":53.840565,"tags":"irland","S2CellId":"488dc00000000000","result":5767,"accuracy":0.23800786,"title":"IMG_1636","description":"Irland"}
{"id":2234625560,"url":"http://farm3.staticflickr.com/2238/2234625560_047414306d.jpg","path":"2a9/9e4/2a99e4bd929c1f884c5b3a44ef5a70.jpg","date":"2008-02-01","year":2008,"month":2,"lon":-9.066381,"lat":53.268017,"tags":"galway,ireland,snow,spring","S2CellId":"47df1c0000000000","result":4514,"accuracy":0.002066726,"title":"Snow+in+Ireland+%28First+Day+of+Spring%29"}
{"id":7187204999,"url":"http://farm8.staticflickr.com/7217/7187204999_bc9d5b7948.jpg","path":"d81/ffe/d81ffe8b3b8a4012d88112608cc768c5.jpg","date":"2012-06-04","year":2012,"month":6,"lon":-9.975775,"lat":53.802692,"tags":"2012,clare+island,ireland,june,lumia","S2CellId":"488dc00000000000","result":5767,"accuracy":0.24102704,"title":"NOKIA+Lumia+800_000079"}
{"id":4961817468,"url":"http://farm5.staticflickr.com/4102/4961817468_ccf685db81.jpg","path":"3c5/181/3c5181af92a62e371262819a03b9cc5.jpg","date":"2010-09-04","year":2010,"month":9,"lon":-9.053512,"lat":53.272507,"tags":"galway","S2CellId":"0d126c1c00000000","result":191,"accuracy":0.005783987,"title":"September+in+Galway"}
{"id":4719811539,"url":"http://farm5.staticflickr.com/4063/4719811539_5d3b6ddb2b.jpg","path":"dc3/024/dc302482c2d736dceb72f17b2c5092e3.jpg","date":"2010-06-21","year":2010,"month":6,"lon":-9.092066,"lat":53.25656,"tags":"acqua,beach,blackrock,blu,blue,cielo,finepix,fujifilm,galway,mare,ocean,oceano,s1000fd,salthill,sea,sky,spiaggia,water","S2CellId":"4873a10000000000","result":5088,"accuracy":0.049570628,"title":"Everybody+on+the+beach","description":"Salthill+on+20%2F06%2F2010"}
{"id":4023953198,"url":"http://farm4.staticflickr.com/3513/4023953198_1edb59051a.jpg","path":"b01/9a5/b019a5fb6027ef2419f06ac9d6121ada.jpg","date":"2009-10-18","year":2009,"month":10,"lon":-9.067926,"lat":53.267292,"tags":"galway,jes,reunion","S2CellId":"548ff00000000000","result":6177,"accuracy":0.0155039895,"title":"No+more+photographs+for+the+Paparazzi"}
{"id":395256802,"url":"http://farm1.staticflickr.com/150/395256802_df8b233a60.jpg","path":"ba7/eea/ba7eeaa0cf4057f57f1aaa2ea872278b.jpg","date":"2007-02-17","year":2007,"month":2,"lon":-9.322757,"lat":53.429787,"tags":"oughterard","S2CellId":"0d48400000000000","result":403,"accuracy":0.026416227,"title":"Downriver%2C+between+the+bridges+in+town","description":"Owenriff+River%2C+Oughterard"}
{"id":30423537,"url":"http://farm1.staticflickr.com/21/30423537_fbd47192d8.jpg","path":"3a4/f7c/3a4f7c48bf031d88fbdbe6aff3bfca7.jpg","date":"2005-08-01","year":2005,"month":8,"lon":-9.363698,"lat":53.065926,"tags":"climbing,ireland","S2CellId":"4cad000000000000","result":5833,"accuracy":0.015198877,"title":"Belay","description":"Relaxing+%0A%0A%3Ca+href%3D%22http%3A%2F%2Fwww.geobloggers.com%22%3EGeoTagged%3C%2Fa%3E"}
{"id":7527644044,"url":"http://farm9.staticflickr.com/8154/7527644044_f1a68a7f68.jpg","path":"efe/0d6/efe0d6f51ba332b36666c37ab4a9347d.jpg","date":"2012-07-07","year":2012,"month":7,"lon":-9.069224,"lat":53.2631,"tags":"b%C3%B3thar,c%C3%B3sta+garde,canon+eos+7d,coast,discover+ireland,ef+24-70mm+f%2F2.8l+usm,eire,f%C3%A1ilte,failte,ireland,na,ocean,puma,race,sail,sailboat,sailing,salthill,sea,seaside,team,telef%C3%B3nica,telefonica,tr%C3%A1,tr%C3%A1%E2%80%9D,volvo","S2CellId":"4889b00000000000","result":5760,"accuracy":0.26714674,"title":"Volvo+Ocean+Race+2011%2F2012","description":"Discover+Ireland+in-port+race+in+Galway%2C+Ireland."}
{"id":9435887508,"url":"http://farm4.staticflickr.com/3686/9435887508_7e3f299b97.jpg","path":"985/c12/985c12dbb7de866f02bd12af55cc.jpg","date":"2013-06-29","year":2013,"month":6,"lon":-9.543514,"lat":53.800144,"tags":"contemporary,electronic,folk,in+their+thousands,mayo,rock,roots,sean+rowe,westport,westport+festival,westport+festival+290613","S2CellId":"548f749000000000","result":6168,"accuracy":0.27046806,"title":"Westport+Festival+2013","description":"These+are+from+the+Westport+Festival%2C+2013+which+took+place+over+the+weekend+of+29th+and+30th+June+in+Westport+House%2C+Westport%2C+Co.+Mayo%2C+Ireland.This+is+In+Their+Thousands+on+the+Roisin+Dubh+stage%2C+Saturday."}
{"id":6108125002,"url":"http://farm7.staticflickr.com/6181/6108125002_feeece9bf0.jpg","path":"e01/38a/e0138a68763215f38723b1266b388.jpg","date":"2011-08-21","year":2011,"month":8,"lon":-9.73241,"lat":53.503025,"tags":"august,bencorrbeg,connemara,county+galway,ireland,lakes,landscapes,lough+inagh,mountains,peat","S2CellId":"485a400000000000","result":4821,"accuracy":0.2738084,"title":"Lough+Inagh","description":"Peat+drying+at+Lough+Inagh%2C+Bencorrbeg+in+the+background.+Connemara%2C+County+Galway%2C+Ireland"}
{"id":418697427,"url":"http://farm1.staticflickr.com/158/418697427_4f4e7759d0.jpg","path":"6bf/93d/6bf93dee4a228a7bb769b64c8c4.jpg","date":"2007-03-10","year":2007,"month":3,"lon":-9.803238,"lat":53.5297,"tags":"15+km+e+of+clifden,clifden,connemara,erasmus,galway,hike,hiking,international,ireland,maynooth,students,tramping,walking","S2CellId":"48d6c00000000000","result":5813,"accuracy":0.025333129,"title":"DSC04678"}
{"id":3967427220,"url":"http://farm3.staticflickr.com/2449/3967427220_5aa1568c63.jpg","path":"24a/845/24a845eb70a7dba965254cdfaf63b87.jpg","date":"2009-09-01","year":2009,"month":9,"lon":-9.977302,"lat":53.88613,"tags":"2009,achill,atlantic+drive,holiday,ireland,mayo,sheep,walk","S2CellId":"489f000000000000","result":5781,"accuracy":0.1464851,"title":"Ain%27t+Never+Gonna+Break+My+Stride"}
{"id":8357189369,"url":"http://farm9.staticflickr.com/8361/8357189369_c3c186bbca.jpg","path":"1e3/31f/1e331fc18c4417d8660c2bb48f3a77c.jpg","date":"2012-06-07","year":2012,"month":6,"lon":-9.504149,"lat":53.575077,"tags":"ireland,landscape,mayo,mountains,panorama","S2CellId":"4889300000000000","result":5756,"accuracy":0.19426379,"title":"Finney-Panorama","description":"view+from+Finney%2C+Co.+Mayo%2C+Ireland"}
{"id":3772306536,"url":"http://farm4.staticflickr.com/3541/3772306536_bd614168a6.jpg","path":"436/3bc/4363bc6c1533e95c496ec63cacd1b57.jpg","date":"2009-07-21","year":2009,"month":7,"lon":-9.236669,"lat":53.1107,"tags":"black+and+white,black+white,burren,bw,co.+clare,county+clare,dry+stone+wall,ireland,limestone,rock,rocks,stone,stone+wall,stones,the+burren,wall","S2CellId":"485bb00000000000","result":4825,"accuracy":0.19984789,"title":"Yes%2C+I+like+dry+stone+walls","description":"Last+shot+of+one+for+now%2C+I+think.++At+least+in+the+Burren."}
{"id":9486088804,"url":"http://farm6.staticflickr.com/5544/9486088804_7dc79f61f8.jpg","path":"29d/d8a/29dd8a6c58d6129f294df68267b771b1.jpg","date":"2013-08-08","year":2013,"month":8,"lon":-9.787142,"lat":53.898434,"tags":"ireland,irl","S2CellId":"488e900000000000","result":5769,"accuracy":0.10899356,"title":"20130808-112610_03_DxO.jpg"}
