{"id":2143887318,"url":"http://farm3.staticflickr.com/2292/2143887318_e16fa3ff9b.jpg","path":"96c/dfb/96cdfba9738fc86d842535b10564993.jpg","date":"2007-08-18","year":2007,"month":8,"lon":141.35336,"lat":43.064358,"tags":"coca+cola,hokkaido,japan,sapporo,vending+machine","S2CellId":"60188cd700000000","result":6505,"accuracy":0.08186063,"title":"3529"}
{"id":2647574397,"url":"http://farm4.staticflickr.com/3072/2647574397_75e997d096.jpg","path":"968/e31/968e31997ee8c08253fbc7fec112414.jpg","date":"2006-09-30","year":2006,"month":9,"lon":141.34769,"lat":43.06011,"tags":"sapporo","S2CellId":"60188cd700000000","result":6505,"accuracy":0.10177332,"title":"20060930DSC_0002"}
{"id":6272537206,"url":"http://farm7.staticflickr.com/6092/6272537206_6ab6d4bb02.jpg","path":"dc2/5ee/dc25ee68c3c4b7023fa6ad564df7cf7.jpg","date":"2011-08-16","year":2011,"month":8,"lon":142.48026,"lat":43.76859,"tags":"%CE%B1100,%E5%8C%97%E6%B5%B7%E9%81%93,%E6%97%AD%E5%B1%B1%E5%8B%95%E7%89%A9%E5%9C%92","S2CellId":"89c8037000000000","result":9187,"accuracy":0.059531383,"title":"%E7%8C%BF"}
{"id":4014123842,"url":"http://farm3.staticflickr.com/2640/4014123842_9f28f664ac.jpg","path":"682/e36/682e36897327670693b796756b742ff.jpg","date":"2009-10-15","year":2009,"month":10,"lon":141.65811,"lat":42.809887,"tags":"source_public","S2CellId":"4878440000000000","result":5451,"accuracy":0.06487091,"title":"IMG_7838"}
{"id":8177982732,"url":"http://farm9.staticflickr.com/8483/8177982732_883d991590.jpg","path":"2db/136/2db136d835bbb177e52a3b45298c73b.jpg","date":"2012-09-21","year":2012,"month":9,"lon":142.8287,"lat":43.66409,"tags":"hokkaido,japan","S2CellId":"4789b00000000000","result":3640,"accuracy":0.069099516,"title":"%E9%8F%A1%E6%B1%A0","description":"%40%E6%97%AD%E5%B2%B3%E8%87%AA%E7%84%B6%E6%8E%A2%E5%8B%9D%E8%B7%AF"}
{"id":229247650,"url":"http://farm1.staticflickr.com/63/229247650_ced0bc63b9.jpg","path":"f64/4b8/f644b8317f803b167f6294998515fb4.jpg","date":"2006-08-30","year":2006,"month":8,"lon":141.2911,"lat":43.051754,"tags":"c1,sanyo,wide,wideconversion","S2CellId":"883b340000000000","result":8350,"accuracy":0.021740835,"title":"Bobsled","description":"%3Ca+href%3D%22http%3A%2F%2Fclip.alpslab.jp%2Fbin%2Frd%3Fflickr%3D229247650%22+target%3D%22_blank%22%3E%5B%E5%9C%B0%E5%9B%B3%E3%82%92%E8%A1%A8%E7%A4%BA%5D%3C%2Fa%3E"}
{"id":3819870741,"url":"http://farm3.staticflickr.com/2675/3819870741_a1d84d1281.jpg","path":"885/b45/885b45c8176b6bebcb7bfa6f5eedabd2.jpg","date":"2009-08-14","year":2009,"month":8,"lon":141.41566,"lat":43.118942,"tags":"source_public","S2CellId":"346c400000000000","result":2192,"accuracy":0.016114607,"title":"IMG_3552"}
{"id":6626452079,"url":"http://farm8.staticflickr.com/7010/6626452079_6928d60bae.jpg","path":"8b9/2f3/8b92f3bcbc7c48e46fad1cc79a722b9f.jpg","date":"2012-01-03","year":2012,"month":1,"lon":141.30779,"lat":43.05412,"tags":"bw,hokkaido,japan,k-7,sapporo,snow,white","S2CellId":"80dcd7d100000000","result":7349,"accuracy":0.10411413,"title":"%E5%8C%97%E6%B5%B7%E9%81%93%E7%A5%9E%E5%AE%AE%28Hokkaido+Jingu%29"}
{"id":2647525895,"url":"http://farm4.staticflickr.com/3222/2647525895_c1d6b052e0.jpg","path":"dd4/db5/dd4db532c5e5a815ac1e98dffe4af8.jpg","date":"2006-09-30","year":2006,"month":9,"lon":142.35535,"lat":43.76812,"tags":"asahikawa,family,japan,sep2006,trip,zoo","S2CellId":"6018e30000000000","result":6528,"accuracy":0.13500722,"title":"20060930DSC_0055"}
{"id":8820904284,"url":"http://farm4.staticflickr.com/3725/8820904284_8864b072d0.jpg","path":"40f/793/40f793045647482d26a3f32e39d7c63.jpg","date":"2013-05-24","year":2013,"month":5,"lon":141.33911,"lat":43.06161,"tags":"%E3%82%A2%E3%82%A4%E3%83%8C,%E5%8C%97%E6%B5%B7%E9%81%93,%E6%97%A5%E6%9C%AC,%E6%9C%AD%E5%B9%8C,ainu,history,hokkaido,hut,japan,museum,sapporo","S2CellId":"8833c00000000000","result":8303,"accuracy":0.05596276,"title":"Ainu+Museum+Trip"}
{"id":5455653588,"url":"http://farm6.staticflickr.com/5135/5455653588_6ebdf2eee0.jpg","path":"44c/a4c/44ca4c754d621921a84f2582e478b3ec.jpg","date":"2011-02-15","year":2011,"month":2,"lon":141.3479,"lat":43.06397,"tags":"canon+ef+16-35mm+f%2F2.8l+ii+usm,sapporo","S2CellId":"5f0b2c0000000000","result":6349,"accuracy":0.9043199,"title":"Old+Hakkaido+Government+House"}
{"id":7272552616,"url":"http://farm8.staticflickr.com/7090/7272552616_e18faf1809.jpg","path":"e05/afc/e05afcd0b2ee694ecf4a2024b63bbe95.jpg","date":"2012-05-21","year":2012,"month":5,"lon":143.20369,"lat":42.919224,"tags":"%E3%81%8A%E3%81%B3%E3%81%B2%E3%82%8D%E5%8B%95%E7%89%A9%E5%9C%92,%E3%83%9B%E3%83%83%E3%82%AD%E3%83%A7%E3%82%AF%E3%82%B0%E3%83%9E","S2CellId":"60188c3000000000","result":6489,"accuracy":0.08198104,"title":"20120521_152238_ObihiroTKN","description":"%E3%81%8A%E3%81%B3%E3%81%B2%E3%82%8D%E5%8B%95%E7%89%A9%E5%9C%92"}
{"id":243787362,"url":"http://farm1.staticflickr.com/79/243787362_6966877764.jpg","path":"10a/123/10a123711b1ce829736ec638e4bb8f.jpg","date":"2005-09-15","year":2005,"month":9,"lon":142.33337,"lat":43.786957,"tags":"hokkaido,hokkaido-06,stage-2,symmetrics","S2CellId":"1325f40000000000","result":999,"accuracy":0.05669306,"title":"Hokkaido+Stage+2"}
{"id":2170585645,"url":"http://farm3.staticflickr.com/2257/2170585645_3d7af17da0.jpg","path":"c97/121/c971217ea4c4642285a61cfeef5cb029.jpg","date":"2007-12-28","year":2007,"month":12,"lon":141.35594,"lat":43.061424,"tags":"%E5%A4%A7%E9%80%9A%E5%85%AC%E5%9C%92,%E6%9C%AD%E5%B9%8C,hokkaido,jpapn","S2CellId":"60188bb000000000","result":6479,"accuracy":0.61721355,"title":"%E6%9C%AD%E5%B9%8C%E9%9B%BB%E8%A6%96%E5%A1%94"}
{"id":4011696342,"url":"http://farm3.staticflickr.com/2568/4011696342_2dfa6378c2.jpg","path":"55f/479/55f479661b3d25de247b322293e51511.jpg","date":"2009-10-12","year":2009,"month":10,"lon":141.324,"lat":43.030945,"tags":"source_public","S2CellId":"88d0a631cabb5071","result":8563,"accuracy":0.02216087,"title":"%E5%AE%9F"}
{"id":8471614706,"url":"http://farm9.staticflickr.com/8505/8471614706_bd5829fd61.jpg","path":"619/102/6191024a68a9c74feee39a3cae2acec.jpg","date":"2013-02-10","year":2013,"month":2,"lon":141.34651,"lat":43.0599,"tags":"%E3%81%95%E3%81%A3%E3%81%BD%E3%82%8D%E9%9B%AA%E3%81%BE%E3%81%A4%E3%82%8A,sapporo+snow+festival,sapporo+trip","S2CellId":"60185c4000000000","result":6452,"accuracy":0.060586534,"title":"YOUR+FACE."}
{"id":106804223,"url":"http://farm1.staticflickr.com/50/106804223_ff00e2a12e.jpg","path":"4a3/a49/4a3a49eff3e670047e97ad9432bc95.jpg","date":"2006-02-12","year":2006,"month":2,"lon":141.3434,"lat":43.071396,"tags":"2006,hokkaido","S2CellId":"8801000000000000","result":8067,"accuracy":0.12980697,"title":"DAY2_A026"}
{"id":6015676538,"url":"http://farm7.staticflickr.com/6144/6015676538_d24bc4b128.jpg","path":"511/848/511848699508837bc6b35ceeb519a9.jpg","date":"2011-08-06","year":2011,"month":8,"lon":142.42183,"lat":43.410934,"tags":"%E3%83%92%E3%83%9E%E3%83%AF%E3%83%AA,%E4%B8%AD%E5%AF%8C%E8%89%AF%E9%87%8E,%E5%8C%97%E6%B5%B7%E9%81%93,%E5%90%91%E6%97%A5%E8%91%B5,%E7%94%BA%E5%96%B6%E3%83%A9%E3%83%99%E3%83%B3%E3%83%80%E3%83%BC%E5%9C%92,hokkaido,nakafurano,sunflower","S2CellId":"5f0d000000000000","result":6352,"accuracy":0.02966724,"title":"%E7%94%BA%E5%96%B6%E3%83%A9%E3%83%99%E3%83%B3%E3%83%80%E3%83%BC%E5%9C%92"}
{"id":9576221706,"url":"http://farm4.staticflickr.com/3779/9576221706_ba7534ff1b.jpg","path":"79d/976/79d976b85feaf94231e9fe74d36ac20.jpg","date":"2013-08-23","year":2013,"month":8,"lon":142.40445,"lat":44.159664,"tags":"instagram+app,iphoneography,square,square+format","S2CellId":"5491100000000000","result":6228,"accuracy":0.024895217,"title":"%E5%A3%AB%E5%88%A5%E3%81%AB%E6%9D%A5%E3%81%9F%E3%80%82%E9%A1%94%E3%81%8C%E9%BB%92%E3%81%84%E3%82%B5%E3%83%95%E3%82%A9%E3%83%BC%E3%82%AF%E7%A8%AE%E3%80%82"}
{"id":1401604643,"url":"http://farm2.staticflickr.com/1135/1401604643_b574a99275.jpg","path":"19c/97a/19c97a1436d2bc35d53c4eb790302ab5.jpg","date":"2007-09-14","year":2007,"month":9,"lon":142.47972,"lat":43.76948,"tags":"asahikawa,asahiyama,hokkaido,japan,zoo","S2CellId":"6000ec0000000000","result":6388,"accuracy":0.18545948,"title":"IMG_9970"}
{"id":6272025913,"url":"http://farm7.staticflickr.com/6093/6272025913_4cb09ff22b.jpg","path":"40f/547/40f5479f1c5ba41d4fee85eff798a16.jpg","date":"2011-08-16","year":2011,"month":8,"lon":142.47931,"lat":43.76861,"tags":"%CE%B1100,%E5%8C%97%E6%B5%B7%E9%81%93,%E6%97%AD%E5%B1%B1%E5%8B%95%E7%89%A9%E5%9C%92","S2CellId":"60188c3000000000","result":6489,"accuracy":0.03870052,"title":"%E7%99%BD%E7%86%8A"}
{"id":4690364565,"url":"http://farm5.staticflickr.com/4006/4690364565_2278235599.jpg","path":"184/976/184976c76cffa1370e287a6bc891cdf.jpg","date":"2010-06-11","year":2010,"month":6,"lon":141.34824,"lat":43.070988,"tags":"%E5%8C%97%E6%B5%B7%E9%81%93,%E6%9C%AD%E5%B9%8C,%E6%9C%AD%E5%B9%8C%E9%A7%85,%E6%9D%B1%E6%A8%AA,%E6%9D%B1%E6%A8%AA%E3%82%A4%E3%83%B3,%E6%9D%B1%E6%A8%AAinn,%E8%A5%BF%E5%8F%A3%E5%8C%97%E5%A4%A7%E5%89%8D,hokkaido,hotel,inn,sapporo,toyoko","S2CellId":"89b7b7b400000000","result":8869,"accuracy":0.029519636,"title":"%E6%9D%B1%E6%A8%AA%E3%82%A4%E3%83%B3%E6%9C%AD%E5%B9%8C%E9%A7%85%E8%A5%BF%E5%8F%A3%E5%8C%97%E5%A4%A7%E5%89%8D"}
{"id":5455026067,"url":"http://farm6.staticflickr.com/5255/5455026067_baf8cf5c1b.jpg","path":"773/1c2/7731c25a6d8948ecd93b2a3f8e7737.jpg","date":"2011-02-12","year":2011,"month":2,"lon":141.2345,"lat":43.1183,"tags":"canon+ef+16-35mm+f%2F2.8l+ii+usm,sapporo","S2CellId":"1458540000000000","result":1213,"accuracy":0.06306289,"title":"Expensive+Cold+Coco+%40+JR+Tower"}
{"id":3944469186,"url":"http://farm3.staticflickr.com/2518/3944469186_c50e91bacb.jpg","path":"8bf/884/8bf884b9e3d924e052cdc27aec39d94.jpg","date":"2009-09-20","year":2009,"month":9,"lon":141.31017,"lat":43.05686,"tags":"source_public","S2CellId":"94f7000000000000","result":9773,"accuracy":0.012163014,"title":"%E3%82%AB%E3%83%A1%E3%83%A0%E3%82%B7"}
{"id":4432474264,"url":"http://farm5.staticflickr.com/4030/4432474264_68342b6dac.jpg","path":"31a/280/31a280895516e10326eb84f80eaa895.jpg","date":"2010-02-10","year":2010,"month":2,"lon":141.34666,"lat":43.0645,"tags":"express,niseko,ski","S2CellId":"5f70000000000000","result":6358,"accuracy":0.16110983,"title":"Aboard+Niseko+Ski+Express","description":"Day+trip+to+Niseko+ski+resort%2C+Hokkaido"}
{"id":7369266124,"url":"http://farm6.staticflickr.com/5332/7369266124_227c48b86b.jpg","path":"c37/e2d/c37e2d25d53224f3e6df85fd08b5.jpg","date":"2012-06-11","year":2012,"month":6,"lon":141.91104,"lat":43.330826,"tags":"%E5%8C%97%E6%B5%B7%E9%81%93%E3%80%80%E3%82%A2%E3%83%AB%E3%83%86%E3%83%94%E3%82%A2%E3%83%83%E3%83%84%E3%82%A1%E7%BE%8E%E5%94%84%E3%80%80%E5%AE%89%E7%94%B0%E4%BE%83,%E5%8C%97%E6%B5%B7%E9%81%93%E3%80%80%E3%82%A2%E3%83%AB%E3%83%86%E3%83%94%E3%82%A2%E3%83%83%E3%83%84%E3%82%A1%E7%BE%8E%E5%94%84+%E5%AE%89%E7%94%B0%E4%BE%83,%E5%AE%89%E7%94%B0%E4%BE%83,hokkaido,kan,kan+yasuda,the+arte+piazza+bibai,yasuda","S2CellId":"89c2d00000000000","result":9097,"accuracy":0.014870449,"title":"DSC06060.jpg","description":"Arte+piazza+bibai"}
{"id":106818689,"url":"http://farm1.staticflickr.com/52/106818689_d00c45e5b1.jpg","path":"3be/a62/3bea62ccd89a62e0c12748eeb7cc594.jpg","date":"2006-02-13","year":2006,"month":2,"lon":141.33997,"lat":43.05992,"tags":"2006,hokkaido,train","S2CellId":"5f0b2c0000000000","result":6349,"accuracy":0.057768606,"title":"DAY3_B033"}
{"id":12746815774,"url":"http://farm8.staticflickr.com/7388/12746815774_20546266a9.jpg","path":"415/c85/415c8554b98c45d0d9e2d8632520b779.jpg","date":"2013-07-23","year":2013,"month":7,"lon":141.35,"lat":43.056667,"tags":"%E5%8C%97%E6%B5%B7%E9%81%93,%E7%8F%AE%E7%8F%AE,friendly.flickr,megan","S2CellId":"151d4cc000000000","result":1387,"accuracy":0.014970252,"title":"2013+July+%E5%8C%97%E6%B5%B7%E9%81%93"}
{"id":106802862,"url":"http://farm1.staticflickr.com/51/106802862_9553ea10c6.jpg","path":"1bf/746/1bf7462cb19b2a6655ec66d87ebafce6.jpg","date":"2006-02-11","year":2006,"month":2,"lon":141.35353,"lat":43.063118,"tags":"2006,hokkaido","S2CellId":"5f0b2c0000000000","result":6349,"accuracy":0.028334856,"title":"DAY1_C016"}
{"id":230225206,"url":"http://farm1.staticflickr.com/73/230225206_7cd18c137d.jpg","path":"9ea/9b2/9ea9b232f010e05e766d6d959449fe14.jpg","date":"2006-08-24","year":2006,"month":8,"lon":143.90617,"lat":44.106632,"tags":"2006,hokkaido,motorcycle,sunrise,touring","S2CellId":"4b5f000000000000","result":5826,"accuracy":0.015693255,"title":"R0015154"}
{"id":2737156929,"url":"http://farm4.staticflickr.com/3144/2737156929_a7c5cc0a2a.jpg","path":"2e5/01b/2e501b718f56e12cc8cf045aa20da57.jpg","date":"2008-08-01","year":2008,"month":8,"lon":142.4646,"lat":43.52959,"tags":"%E5%8C%97%E6%B5%B7%E9%81%93,%E5%9B%9B%E5%AD%A3%E5%BD%A9%E4%B9%8B%E4%B8%98,%E7%BE%8E%E7%91%9B,hokkaido,japan","S2CellId":"4b5f000000000000","result":5826,"accuracy":0.041393932,"title":"%E5%9B%9B%E5%AD%A3%E5%BD%A9%E4%B9%8B%E4%B8%98%E5%A4%A7%E9%96%80%E5%B0%8D%E9%9D%A2%E7%9A%84%E6%88%BF%E5%AD%90"}
{"id":4890043943,"url":"http://farm5.staticflickr.com/4102/4890043943_d96d50057a.jpg","path":"4b8/fbf/4b8fbf9f7e6fd4653f6f8bd81872af.jpg","date":"2010-08-13","year":2010,"month":8,"lon":141.34012,"lat":42.940166,"tags":"source_public","S2CellId":"4652340000000000","result":2846,"accuracy":0.018652737,"title":"58.+%E3%81%AE%E3%81%A9%E3%81%A1%E3%82%93%E3%81%93%E3%81%A8%E3%81%AF%E3%81%AA%E3%81%AE%E3%81%82%E3%81%AA","description":"%E4%BD%9C%E8%80%85%3A+%E5%A0%80%E5%86%85+%E6%AD%A3%E5%92%8C"}
{"id":484665367,"url":"http://farm1.staticflickr.com/225/484665367_14d553d82c.jpg","path":"6a8/5d8/6a85d8d3c6141a25c5d1829e4ed365.jpg","date":"2004-04-30","year":2004,"month":4,"lon":141.35696,"lat":43.140953,"tags":"japan","S2CellId":"89c9900000000000","result":9208,"accuracy":0.028448967,"title":"126-2601_IMG"}
{"id":2262594195,"url":"http://farm3.staticflickr.com/2363/2262594195_bea112437e.jpg","path":"164/176/16417610e926914b7fc7b455837a79a.jpg","date":"2008-02-11","year":2008,"month":2,"lon":141.36955,"lat":43.071445,"tags":"hokkaido,japan,sapporo,winter","S2CellId":"4cb8950000000000","result":5865,"accuracy":0.1634105,"title":"R0010529","description":"Exif_JPEG_PICTURE"}
{"id":2813723909,"url":"http://farm4.staticflickr.com/3164/2813723909_174bb3716e.jpg","path":"25b/373/25b37356285b4261eadda3f16a93812.jpg","date":"2008-08-22","year":2008,"month":8,"lon":141.6711,"lat":42.793888,"tags":"%E3%82%A8%E3%83%90%E3%83%BC%E8%88%AA%E7%A9%BA,%E5%85%A8%E6%97%A5%E7%A9%BA,%E5%8C%97%E6%B5%B7%E9%81%93,%E5%8F%B0%E6%B9%BE,%E6%96%B0%E5%8D%83%E6%AD%B3%E7%A9%BA%E6%B8%AF,%E6%97%A5%E6%9C%AC%E8%88%AA%E7%A9%BA,%E7%A9%BA%E6%B8%AF,%E9%A3%9B%E8%A1%8C%E6%A9%9F,air,airport,ana,chitose,ctj,cts,eir,evar,hokaido,hokkaido,jal,japan,line,nh,nippon,port,rjcc","S2CellId":"47bd0b0000000000","result":4083,"accuracy":0.394475,"title":"CIMG3749"}
{"id":5383519229,"url":"http://farm6.staticflickr.com/5215/5383519229_ae2c62aab3.jpg","path":"7e3/2cc/7e32ccf9c795314ec9701f9a6814102d.jpg","date":"2008-10-14","year":2008,"month":10,"lon":142.47595,"lat":43.768597,"tags":"%E5%8C%97%E6%B5%B7%E9%81%93,%E6%97%AD%E5%B1%B1%E5%8B%95%E7%89%A9%E5%9C%92,%E6%97%AD%E5%B7%9D","S2CellId":"88e5b40000000000","result":8655,"accuracy":0.048562694,"title":"IMG_0208"}
{"id":6056186040,"url":"http://farm7.staticflickr.com/6210/6056186040_3a8a2bcc3a.jpg","path":"681/a58/681a58b8c80988a8fb6b4ace9cde5e9.jpg","date":"2006-01-23","year":2006,"month":1,"lon":141.35634,"lat":42.990795,"tags":"flickred","S2CellId":"89d4d40000000000","result":9260,"accuracy":0.026538596}
{"id":9251445363,"url":"http://farm4.staticflickr.com/3738/9251445363_603a1f0527.jpg","path":"52e/28e/52e28e5667cc07054376a62586574d.jpg","date":"2013-06-26","year":2013,"month":6,"lon":141.02238,"lat":43.199944,"tags":"hokkaido,hokkaido+japan+2013+otaru,japan,otaru,travel","S2CellId":"0d25f00000000000","result":275,"accuracy":0.23996548,"title":"Otaru-4441","description":"Hokkaido+trip+day+1+and+2"}
{"id":106801225,"url":"http://farm1.staticflickr.com/19/106801225_29b3ba4c1f.jpg","path":"cab/c12/cabc1286c5c6faad641f2c416d2812.jpg","date":"2006-02-11","year":2006,"month":2,"lon":141.34563,"lat":43.058918,"tags":"2006,hokkaido","S2CellId":"88dd7ef000000000","result":8627,"accuracy":0.016593177,"title":"DAY1_B024"}
{"id":196945605,"url":"http://farm1.staticflickr.com/57/196945605_6a2d4b00bc.jpg","path":"216/282/216282b28ecce89c3df33b938451b65.jpg","date":"2006-07-22","year":2006,"month":7,"lon":141.14839,"lat":42.498047,"tags":"2006,2nd,hokkaido,summer","S2CellId":"8859400000000000","result":8434,"accuracy":0.078592986,"title":"2006_2nd%E5%8C%97%E6%B5%B7%E9%81%93%E4%B9%8B%E6%97%85_Day4_032.J","description":"%E9%81%A0%E6%96%B9%E5%B0%8F%E8%B7%AF"}
{"id":3653166321,"url":"http://farm4.staticflickr.com/3602/3653166321_97b361e570.jpg","path":"396/d76/396d7624cf17f22588e6caf765fc26.jpg","date":"2009-06-20","year":2009,"month":6,"lon":141.38493,"lat":43.05475,"tags":"a350,dslr-a350,hokkaido,japan,sal1680z,sapporo","S2CellId":"0d4228d000000000","result":378,"accuracy":0.028202329,"title":"DSC09656"}
{"id":4013947665,"url":"http://farm4.staticflickr.com/3499/4013947665_22dc92cae4.jpg","path":"b4c/b27/b4cb275bdd3c144de8c34d2e5b98c880.jpg","date":"2009-10-15","year":2009,"month":10,"lon":141.65947,"lat":42.832695,"tags":"source_public","S2CellId":"46920a3000000000","result":2985,"accuracy":0.033786375,"title":"IMG_8348"}
{"id":6349051323,"url":"http://farm7.staticflickr.com/6041/6349051323_299b911b22.jpg","path":"222/d1b/222d1b565fdc2593cdc2ccccb0d27e8c.jpg","date":"2011-08-24","year":2011,"month":8,"lon":142.91634,"lat":43.660545,"tags":"%E5%8C%97%E6%B5%B7%E9%81%93,%E5%A4%8F,%E5%A4%A7%E9%9B%AA%E5%B1%B1,%E6%97%A5%E6%9C%AC,daisetsuzan,ep2,fog,group,hokkaido,japan,landscape,mountain,nature,olympus,summer,trail","S2CellId":"6d6b000000000000","result":6849,"accuracy":0.05430731,"title":"2011.08.24+%E5%8C%97%E6%B5%B7%E9%81%93+062"}
{"id":217704698,"url":"http://farm1.staticflickr.com/83/217704698_3e081ddcf2.jpg","path":"8d4/529/8d45295c973b288eccac46e6b3c94bd.jpg","date":"2006-08-14","year":2006,"month":8,"lon":141.34752,"lat":43.056095,"tags":"hokkaido,night,night+view,sapporo,w41s","S2CellId":"5f0b2c0000000000","result":6349,"accuracy":0.09022922,"title":"20060814_214834","description":"%E3%81%99%E3%81%99%E3%81%8D%E3%81%AE%E3%81%AB%E8%A6%B3%E8%A6%A7%E8%BB%8A%E3%81%8C%21%21"}
{"id":4693475014,"url":"http://farm2.staticflickr.com/1306/4693475014_f237505ae8.jpg","path":"c58/1a1/c581a1dfad3a7787d2a74581368e5b6.jpg","date":"2010-06-12","year":2010,"month":6,"lon":141.34789,"lat":43.07096,"tags":"%E5%8C%97%E6%B5%B7%E9%81%93,%E6%9C%AD%E5%B9%8C,%E6%9C%AD%E5%B9%8C%E9%A7%85,%E6%9D%B1%E6%A8%AA,%E6%9D%B1%E6%A8%AA%E3%82%A4%E3%83%B3,%E6%9D%B1%E6%A8%AAinn,%E8%A5%BF%E5%8F%A3%E5%8C%97%E5%A4%A7%E5%89%8D,hokkaido,hotel,inn,sapporo,toyoko","S2CellId":"60188e9000000000","result":6514,"accuracy":0.04901078,"title":"%E6%9D%B1%E6%A8%AA%E3%82%A4%E3%83%B3%E6%9C%AD%E5%B9%8C%E9%A7%85%E8%A5%BF%E5%8F%A3%E5%8C%97%E5%A4%A7%E5%89%8D"}
{"id":6417454875,"url":"http://farm8.staticflickr.com/7033/6417454875_d7f1051069.jpg","path":"cb2/b17/cb2b17c95e68e21e30cc8ab0d7fcd594.jpg","date":"2011-09-24","year":2011,"month":9,"lon":142.06454,"lat":44.81667,"tags":"%E4%B8%AD%E5%B7%9D%E7%94%BA,%E5%8C%97%E6%B5%B7%E9%81%93,%E6%97%A5%E6%9C%AC,hokkaido,japan,nakagawa-cho,sign","S2CellId":"3551000000000000","result":2265,"accuracy":0.035142735,"title":"SDC16120"}
{"id":2262538359,"url":"http://farm3.staticflickr.com/2114/2262538359_ca789fb65f.jpg","path":"d4d/8ed/d4d8edb30831df54b4415cd817cfd13.jpg","date":"2008-02-10","year":2008,"month":2,"lon":142.62662,"lat":43.063442,"tags":"architect,architecture,church+on+the+water,hokkaido,japan,japanese,resort,sapporo,ski,tadao+ando,tomamu,winter","S2CellId":"4d2b000000000000","result":5941,"accuracy":0.014811892,"title":"R0010255","description":"Exif_JPEG_PICTURE"}
{"id":4339972987,"url":"http://farm5.staticflickr.com/4040/4339972987_31a1b3afcd.jpg","path":"72f/75e/72f75e995d3c1b816229639f074d577.jpg","date":"2010-02-06","year":2010,"month":2,"lon":142.63576,"lat":43.06535,"tags":"a900,dslr-a900,hokkaid%C5%8D,japan,sal50f14,tomamu","S2CellId":"880e2cd000000000","result":8129,"accuracy":0.002891901,"title":"DSC01289"}
{"id":4456586407,"url":"http://farm5.staticflickr.com/4023/4456586407_95fee672ec.jpg","path":"77b/aad/77baad6d8b82f370da73adc4ec6c6014.jpg","date":"2009-11-30","year":2009,"month":11,"lon":141.11818,"lat":42.509945,"tags":"d50,hokkaido,nikon","S2CellId":"5351f00000000000","result":6036,"accuracy":0.24747051,"title":"DSC_9523"}
{"id":3885809059,"url":"http://farm3.staticflickr.com/2460/3885809059_3c37a1061e.jpg","path":"176/249/1762494a7c32121367e685af4b43052.jpg","date":"2009-09-04","year":2009,"month":9,"lon":141.75955,"lat":43.2039,"tags":"iphone,source_public","S2CellId":"48761ab000000000","result":5304,"accuracy":0.034169186,"title":"%E5%B2%A9%E8%A6%8B%E6%B2%A2%E9%A7%85%EF%BC%88%E5%8C%97%E6%B5%B7%E9%81%93%EF%BC%89","description":"%E5%B2%A9%E8%A6%8B%E6%B2%A2%E3%81%AA%E3%81%86%E3%80%82%E4%B9%97%E3%82%8A%E6%8F%9B%E3%81%88"}
{"id":4144275450,"url":"http://farm3.staticflickr.com/2547/4144275450_5ae890af76.jpg","path":"e7b/3ca/e7b3cad4e5498cc736874d6c187382.jpg","date":"2009-08-23","year":2009,"month":8,"lon":141.35347,"lat":43.05535,"tags":"hokkaido,japan","S2CellId":"6000e74000000000","result":6386,"accuracy":0.1578459,"title":"IMGP3371"}
{"id":6127733938,"url":"http://farm7.staticflickr.com/6076/6127733938_1c50bfcf5a.jpg","path":"3c2/dd2/3c2dd23e8429e5d30ecaaffb261fb.jpg","date":"2011-08-08","year":2011,"month":8,"lon":142.06454,"lat":44.81667,"tags":"%E4%B8%AD%E5%B7%9D%E7%94%BA%E3%80%80%E5%8C%97%E6%B5%B7%E9%81%93%E3%80%80%E6%97%A5%E6%9C%AC,hokkaido,japan,nakagawa","S2CellId":"47e6900000000000","result":4686,"accuracy":0.016965393,"title":"SDC15571"}
{"id":7161387017,"url":"http://farm8.staticflickr.com/7105/7161387017_6c6691640b.jpg","path":"4d8/6ff/4d86ff97782d5c71b55b189b2f303e1.jpg","date":"2012-05-23","year":2012,"month":5,"lon":141.31989,"lat":43.05553,"tags":"%E5%86%86%E5%B1%B1%E5%8B%95%E7%89%A9%E5%9C%92","S2CellId":"8824cc0000000000","result":8228,"accuracy":0.053699102,"title":"20120523_111658_MaruyamaTKN","description":"%E5%86%86%E5%B1%B1%E5%8B%95%E7%89%A9%E5%9C%9220120523"}
{"id":3244306460,"url":"http://farm4.staticflickr.com/3264/3244306460_90aae013da.jpg","path":"f72/90b/f7290bbee4af39cefb483a8dc27a1b.jpg","date":"2009-02-01","year":2009,"month":2,"lon":141.43034,"lat":43.12216,"tags":"%E3%82%B9%E3%83%8E%E3%83%BC%E3%82%B9%E3%82%B1%E3%83%BC%E3%83%97,%E3%83%A2%E3%82%A8%E3%83%AC,%E6%9C%AD%E5%B9%8C,maroan+el+sani,moere,nina+fischer,sapporo,scape,snow","S2CellId":"152b000000000000","result":1396,"accuracy":0.052416913,"title":"_DSC1296"}
{"id":3496405677,"url":"http://farm4.staticflickr.com/3354/3496405677_db43f863ee.jpg","path":"a68/6b0/a686b0a264f5bb617448554fa8f1ca4.jpg","date":"2009-05-02","year":2009,"month":5,"lon":141.30766,"lat":43.049694,"tags":"%E8%8A%B1,source_public","S2CellId":"89b7b71000000000","result":8847,"accuracy":0.069786765,"title":"%E6%A1%9C"}
{"id":8178244506,"url":"http://farm9.staticflickr.com/8347/8178244506_4cc1817000.jpg","path":"612/c58/612c584819f9ee4ce0cfa94fdd654d99.jpg","date":"2012-09-21","year":2012,"month":9,"lon":142.45662,"lat":43.60523,"tags":"hokkaido,japan","S2CellId":"5f0d000000000000","result":6352,"accuracy":0.6901212,"title":"%E5%8C%97%E8%A5%BF%E3%81%AE%E4%B8%98%E5%B1%95%E6%9C%9B%E5%85%AC%E5%9C%92"}
{"id":8821505220,"url":"http://farm8.staticflickr.com/7379/8821505220_cfa4e7b0db.jpg","path":"234/34e/23434e3a153b67394f5fc61e860.jpg","date":"2013-05-24","year":2013,"month":5,"lon":141.33911,"lat":43.06161,"tags":"%E5%8C%97%E6%B5%B7%E9%81%93,%E6%97%A5%E6%9C%AC,%E6%9C%AD%E5%B9%8C,2006,hokkaido,hotel,japan,sapporo","S2CellId":"53a0224000000000","result":6072,"accuracy":0.011008767,"title":"Sapporo+Hotel","description":"No%2C+I+don%27t+know+which+hotel."}
{"id":2716437034,"url":"http://farm4.staticflickr.com/3054/2716437034_3b80c6457c.jpg","path":"8eb/59c/8eb59cef7bb8634d5b02e8ee4273723.jpg","date":"2008-07-30","year":2008,"month":7,"lon":141.34392,"lat":43.05983,"tags":"events,icommons,isummit08,places","S2CellId":"465f9d7000000000","result":2928,"accuracy":0.003995019,"title":"iSummit+%2708+opening+session+-+24"}
{"id":3943472399,"url":"http://farm4.staticflickr.com/3528/3943472399_5c8c84b90a.jpg","path":"33c/a68/33ca6851f23ef754874c3fdf6a87f2bd.jpg","date":"2009-09-20","year":2009,"month":9,"lon":141.30655,"lat":43.04972,"tags":"source_public","S2CellId":"88d0a631cabb5071","result":8563,"accuracy":0.18447036,"title":"%E3%83%8B%E3%83%9B%E3%83%B3%E3%82%B6%E3%83%AB"}
{"id":408311743,"url":"http://farm1.staticflickr.com/130/408311743_077236ac27.jpg","path":"73d/78b/73d78b7e6d5026262e5d5a3c8c1d577b.jpg","date":"2007-01-10","year":2007,"month":1,"lon":141.34804,"lat":43.06268,"tags":"beer,collecting,grain,harvest,harvesting,hops,japan,model,monkey,museum,sapporo,snow","S2CellId":"89c258fb00000000","result":8987,"accuracy":0.0633855,"title":"Snow+beer+monkeys+collect+hops+and+grain","description":"The+model+demonstrating+the+stages+of+beer+making+at+the+Sapporo+Beer+Museum+was+peopled+by+snow+monkeys."}
{"id":197016279,"url":"http://farm1.staticflickr.com/70/197016279_66c8bfd2c7.jpg","path":"85e/703/85e703ef785fb1dfc29c4a88a07f2d.jpg","date":"2006-07-22","year":2006,"month":7,"lon":141.18187,"lat":42.454937,"tags":"2006,2nd,hokkaido,summer","S2CellId":"8e3f990000000000","result":9455,"accuracy":0.05747232,"title":"2006_2nd%E5%8C%97%E6%B5%B7%E9%81%93_Day4_115"}
{"id":6035297811,"url":"http://farm7.staticflickr.com/6194/6035297811_04a7c3922b.jpg","path":"7cb/bb1/7cbbb146168a91f074561853a3a2632.jpg","date":"2011-08-12","year":2011,"month":8,"lon":143.29597,"lat":42.932987,"tags":"%E5%8C%97%E6%B5%B7%E9%81%93,%E5%8D%81%E5%8B%9D%E5%B7%9D,%E6%B0%97%E7%90%83,balloon","S2CellId":"8722740000000000","result":7745,"accuracy":0.26754013,"title":"IMG_2985"}
{"id":7402733870,"url":"http://farm8.staticflickr.com/7091/7402733870_5b5e77470a.jpg","path":"f7b/62f/f7b62f97cef6546158fb5cbae531fd46.jpg","date":"2012-06-19","year":2012,"month":6,"lon":142.47835,"lat":43.768147,"tags":"eye-fi","S2CellId":"88e77e4000000000","result":8673,"accuracy":0.08401175,"title":"DSC04736.JPG","description":"%3Ca+href%3D%22http%3A%2F%2Fwww.eyefi.co.jp%22+rel%3D%22nofollow%22%3EEye-Fi%3C%2Fa%3E%E3%81%8B%E3%82%89%E3%82%A2%E3%83%83%E3%83%97%E3%83%AD%E3%83%BC%E3%83%89%E3%81%95%E3%82%8C%E3%81%BE%E3%81%97%E3%81%9F"}
{"id":6992908412,"url":"http://farm8.staticflickr.com/7278/6992908412_0595e9ce99.jpg","path":"161/2ca/1612ca733a41da1682479f86de11d2a.jpg","date":"2012-05-03","year":2012,"month":5,"lon":142.47595,"lat":43.768597,"tags":"%E3%83%9A%E3%83%B3%E3%82%AE%E3%83%B3,%E6%97%AD%E5%B1%B1%E5%8B%95%E7%89%A9%E5%9C%92,%E6%97%AD%E5%B7%9D,2012","S2CellId":"5f0d000000000000","result":6352,"accuracy":0.1057216,"title":"DSC_1600"}
{"id":9037095195,"url":"http://farm3.staticflickr.com/2891/9037095195_bacc7cb6eb.jpg","path":"25b/3c6/25b3c64c7db399c2ef15884c8daf96c.jpg","date":"2013-06-02","year":2013,"month":6,"lon":143.20198,"lat":42.933804,"tags":"%E5%85%AC%E5%9C%92,%E5%8C%97%E6%B5%B7%E9%81%93,%E5%B8%AF%E5%BA%83,%E6%97%A5%E6%9C%AC,hokkaido,japan,obihiro,park,playground","S2CellId":"87b6900000000000","result":7943,"accuracy":0.024032101,"title":"Obihiro"}
{"id":788891774,"url":"http://farm2.staticflickr.com/1424/788891774_ce876bf871.jpg","path":"beb/098/beb098674cfcc181b9ca64cfe93b1ede.jpg","date":"2007-07-08","year":2007,"month":7,"lon":142.46506,"lat":43.528316,"tags":"hokkaido,japan,picked.jp","S2CellId":"5f0d000000000000","result":6352,"accuracy":0.97527486,"description":"%E5%9B%9B%E5%AD%A3%E5%BD%A9%E4%B9%8B%E4%B8%98%EF%BC%9A%E5%A5%BD%E7%BE%8E%E7%9A%84%E8%96%B0%E8%A1%A3%E8%8D%89%E8%8A%B1%E6%B5%B7%E5%96%94%21%E9%81%A0%E5%87%BA%E7%9A%84%E5%B1%B1%E4%B8%8A%E9%82%84%E6%9C%89%E6%9C%AA%E8%9E%8D%E5%8C%96%E7%9A%84%E5%86%B0%E5%96%94%21"}
{"id":8800652785,"url":"http://farm4.staticflickr.com/3713/8800652785_e90fa622ff.jpg","path":"182/3d5/1823d5a6f52378df3ebd3ac98061212e.jpg","date":"2012-05-02","year":2012,"month":5,"lon":142.36877,"lat":43.77934,"tags":"%E5%8C%97%E6%B5%B7%E9%81%93,%E6%97%A5%E6%9C%AC,%E6%97%AD%E5%B7%9D,asahikawa,hokkaido,japan","S2CellId":"4773940000000000","result":3396,"accuracy":0.13331178,"title":"SDC16606"}
{"id":2716323124,"url":"http://farm4.staticflickr.com/3097/2716323124_bcc36fa49a.jpg","path":"886/960/8869606b42ac673cf9dc697d5cecfcaf.jpg","date":"2008-07-19","year":2008,"month":7,"lon":141.3416,"lat":43.064625,"tags":"%E3%81%AF%E3%81%AA,%E3%83%91%E3%83%BC%E3%83%97%E3%83%AB,%E7%B4%AB,%E8%8A%B1,%E9%AB%98%E7%94%BB%E8%B3%AA,%E9%AB%98%E7%B2%BE%E7%B4%B0,flower,g7,hi,hi-res,high,purple,res,the+.macro.+group","S2CellId":"89c2f34000000000","result":9103,"accuracy":0.009824765,"title":"Flowers+%2F+%E8%8A%B1%28%E3%81%AF%E3%81%AA%29","description":"%3Ca+href%3D%22http%3A%2F%2Fen.wikipedia.org%2Fwiki%2FHokkaido_University_Botanical_Gardens%22+rel%3D%22nofollow%22%3EHokkaido+University+Botanical+Gardens%3C%2Fa%3E+Sapporo+city+Hokkaido%2C+Japan%0A%0A%3Ca+href%3D%22http%3A%2F%2Fwww.hokudai.ac.jp%2Ffsc%2Fbg%2F%22+rel%3D%22nofollow%22%3E%E6%9C%AD%E5%B9%8C%E5%B8%82+%E5%8C%97%E6%B5%B7%E9%81%93%E5%A4%A7%E5%AD%A6%E6%A4%8D%E7%89%A9%E5%9C%92%3C%2Fa%3E"}
{"id":8837283068,"url":"http://farm9.staticflickr.com/8556/8837283068_75e3ae7e28.jpg","path":"c3a/66a/c3a66acd0406ca38cbf2d26c4f51496.jpg","date":"2011-10-29","year":2011,"month":10,"lon":142.06454,"lat":44.81667,"tags":"%E4%B8%AD%E5%B7%9D%E7%94%BA,%E5%8C%97%E6%B5%B7%E9%81%93,%E6%97%A5%E6%9C%AC,%E7%A7%8B,autumn,fall,hokkaido,japan,nakagawa","S2CellId":"89dc400000000000","result":9274,"accuracy":0.010712965,"title":"Nakagawa+in+Fall"}
{"id":3496689479,"url":"http://farm4.staticflickr.com/3574/3496689479_4221f80faa.jpg","path":"b74/5dd/b745dd18912f53761689fc882ad8b2e9.jpg","date":"2009-05-02","year":2009,"month":5,"lon":141.30586,"lat":43.04697,"tags":"source_public","S2CellId":"487add4000000000","result":5534,"accuracy":0.019135697,"title":"IMG_8687"}
{"id":7272579158,"url":"http://farm9.staticflickr.com/8002/7272579158_7fec8ec175.jpg","path":"9bc/53e/9bc53eb55d3754722c3365a0b04db0d5.jpg","date":"2012-05-21","year":2012,"month":5,"lon":143.20369,"lat":42.919224,"tags":"%E3%81%8A%E3%81%B3%E3%81%B2%E3%82%8D%E5%8B%95%E7%89%A9%E5%9C%92,%E3%82%A2%E3%83%A0%E3%83%BC%E3%83%AB%E3%83%88%E3%83%A9","S2CellId":"880e350000000000","result":8136,"accuracy":0.09561193,"title":"20120521_144428_ObihiroTKN","description":"%E3%82%A2%E3%83%A0%E3%83%BC%E3%83%AB%E3%83%88%E3%83%A9%E3%80%8C%E3%82%BF%E3%83%84%E3%82%AA%E3%80%8D%EF%BC%A0%E3%81%8A%E3%81%B3%E3%81%B2%E3%82%8D%E5%8B%95%E7%89%A9%E5%9C%92%E3%80%802012%E5%B9%B45%E6%9C%8821%E6%97%A5"}
{"id":3186972861,"url":"http://farm4.staticflickr.com/3302/3186972861_d691f96827.jpg","path":"279/75b/27975bdd14ac694552abfe5bbdede.jpg","date":"2009-01-11","year":2009,"month":1,"lon":141.35336,"lat":43.04606,"tags":"snow","S2CellId":"4788c00000000000","result":3631,"accuracy":0.010299464,"title":"%E4%B8%AD%E5%B3%B6%E5%85%AC%E5%9C%92"}
{"id":4670489374,"url":"http://farm5.staticflickr.com/4045/4670489374_17f03b3f7b.jpg","path":"11a/9c5/11a9c590d62a76881589e0ca4fdd9195.jpg","date":"2009-08-19","year":2009,"month":8,"lon":141.32812,"lat":43.149094,"tags":"hokkaido,japan,travel","S2CellId":"87c7000000000000","result":7980,"accuracy":0.015513995,"title":"IMG_5478","description":"Asahiyama+Zoo%2C+Hokkaido%2C+Japan"}
{"id":2141744889,"url":"http://farm3.staticflickr.com/2160/2141744889_061b878034.jpg","path":"c8e/1c4/c8e1c4af77c322bba72fe22de94e33.jpg","date":"2007-12-22","year":2007,"month":12,"lon":141.34048,"lat":43.050827,"tags":"hokkaido,jokanzei,onsen,sapporo,snow","S2CellId":"966f000000000000","result":9902,"accuracy":0.02315984,"title":"Jozankei+-+Park+bank+convered+in+snow"}
{"id":260655243,"url":"http://farm1.staticflickr.com/95/260655243_32397a92f6.jpg","path":"bcd/b63/bcdb631cc112b66d3e2de4aadfdfcd.jpg","date":"2006-09-30","year":2006,"month":9,"lon":143.05298,"lat":43.2992,"tags":"200610-yetpih","S2CellId":"479bc00000000000","result":3811,"accuracy":0.097529076,"title":"P1000801"}
{"id":2816144748,"url":"http://farm4.staticflickr.com/3020/2816144748_8f0b4ba818.jpg","path":"688/91a/68891a53b5a5d1954efe9811e7f1dda.jpg","date":"2008-08-29","year":2008,"month":8,"lon":141.6711,"lat":42.793888,"tags":"%E3%82%A4%E3%83%BC%E3%82%B9%E3%82%BF%E3%83%BC%E5%B3%B6,%E3%82%A8%E3%82%A2%E3%83%90%E3%82%B9,%E3%82%B8%E3%83%A3%E3%83%B3%E3%83%9C,%E3%83%9C%E3%83%BC%E3%82%A4%E3%83%B3%E3%82%B0,%E3%83%A2%E3%82%A2%E3%82%A4,%E5%85%A8%E6%97%A5%E7%A9%BA,%E5%8C%97%E6%B5%B7%E9%81%93,%E5%90%8D%E5%8F%A4%E5%B1%8B,%E5%A4%9C%E6%99%AF,%E6%96%B0%E5%8D%83%E6%AD%B3,%E6%97%A5%E6%9C%AC%E8%88%AA%E7%A9%BA,%E6%BB%9D%E9%87%8E%E9%9C%8A%E5%9C%92,%E7%A9%BA%E6%92%AE,%E7%A9%BA%E6%B8%AF,%E9%A3%9B%E8%A1%8C%E6%A9%9F,%EF%BC%97%EF%BC%97%EF%BC%97,777,air,ana,boeing,bus,chitose,ctj,easter,hokkaido,island,jal,japan,line,moai,nagoya,ngo,nh,night,reine,sky,takino","S2CellId":"89c2670000000000","result":9088,"accuracy":0.0313307,"title":"CIMG4200"}
{"id":7272525396,"url":"http://farm8.staticflickr.com/7093/7272525396_ae05ec70ab.jpg","path":"c78/2ab/c782ab869d9dc8e5d11bbed1b7497a.jpg","date":"2012-05-21","year":2012,"month":5,"lon":143.20369,"lat":42.919224,"tags":"%E3%81%8A%E3%81%B3%E3%81%B2%E3%82%8D%E5%8B%95%E7%89%A9%E5%9C%92,%E3%82%A2%E3%83%A0%E3%83%BC%E3%83%AB%E3%83%88%E3%83%A9","S2CellId":"89b7c84000000000","result":8896,"accuracy":0.03677031,"title":"20120521_103834_ObihiroTKN","description":"%E3%82%A2%E3%83%A0%E3%83%BC%E3%83%AB%E3%83%88%E3%83%A9%E3%80%8C%E3%82%BF%E3%83%84%E3%82%AA%E3%80%8D%EF%BC%A0%E3%81%8A%E3%81%B3%E3%81%B2%E3%82%8D%E5%8B%95%E7%89%A9%E5%9C%92%E3%80%802012%E5%B9%B45%E6%9C%8821%E6%97%A5"}
{"id":3497533268,"url":"http://farm4.staticflickr.com/3341/3497533268_6ac40b9a44.jpg","path":"ecf/794/ecf794b5776fea9f47c375c73b396c.jpg","date":"2009-05-02","year":2009,"month":5,"lon":141.30583,"lat":43.047,"tags":"source_public","S2CellId":"479f5c0000000000","result":3868,"accuracy":0.015000662,"title":"%E3%81%94%E3%82%89%E3%81%81%21%21"}
{"id":4199888697,"url":"http://farm5.staticflickr.com/4048/4199888697_236aa5e897.jpg","path":"133/cdf/133cdfeab0e05614f4981d633231c3f0.jpg","date":"2006-02-19","year":2006,"month":2,"lon":143.76399,"lat":44.13171,"tags":"hokkaido,japan,lagoon,monbetsu,saroma-ko,science,sea+ice","S2CellId":"5f0ac00000000000","result":6346,"accuracy":0.24026676,"title":"Saroma+ko+lagoon%2C+Hokkaido","description":"Sea+ice+field+course+in+Japan"}
{"id":1061038561,"url":"http://farm2.staticflickr.com/1373/1061038561_3e241cf2fb.jpg","path":"dcc/3a2/dcc3a2366063d728e64c5f3c6d3157e.jpg","date":"2007-08-09","year":2007,"month":8,"lon":141.34203,"lat":43.064373,"tags":"hokkaido,sapporo","S2CellId":"5f0b2c0000000000","result":6349,"accuracy":0.100411326,"title":"%E5%8C%97%E6%B5%B7%E9%81%93%E4%B9%8B%E6%97%85"}
{"id":2188698530,"url":"http://farm3.staticflickr.com/2129/2188698530_2a53aab9db.jpg","path":"d75/445/d75445c9c8ddc38c523345428bec25.jpg","date":"2005-09-11","year":2005,"month":9,"lon":142.87488,"lat":43.6639,"tags":"ashaidake,autumn,bike,biking,fall,hokkaido,japan,leaves,mountain,sky,travel,trip","S2CellId":"5900000000000000","result":6331,"accuracy":0.080341764,"title":"P9110318.JPG"}
{"id":5002435055,"url":"http://farm5.staticflickr.com/4130/5002435055_470a9c9f65.jpg","path":"728/3fa/7283fa6ab49ee689c8ffa1eb044b4da.jpg","date":"2010-09-12","year":2010,"month":9,"lon":142.42712,"lat":43.41836,"tags":"dry+flower,furano","S2CellId":"89c6fc0000000000","result":9178,"accuracy":0.009903118,"title":"%E3%83%95%E3%82%A1%E3%83%BC%E3%83%A0%E5%AF%8C%E7%94%B0+%E3%83%89%E3%83%A9%E3%82%A4%E3%83%95%E3%83%A9%E3%83%AF%E3%83%BC%E3%81%AE%E8%88%8E"}
{"id":4333991139,"url":"http://farm3.staticflickr.com/2766/4333991139_ba53a00e4e.jpg","path":"5d3/17e/5d317e9f1d46c0d7a0aa1ab88fef22bd.jpg","date":"2010-02-06","year":2010,"month":2,"lon":141.35358,"lat":43.055054,"tags":"source_public","S2CellId":"5f0b2c0000000000","result":6349,"accuracy":0.06869981,"title":"DPP_2010020600018"}
{"id":4653048664,"url":"http://farm5.staticflickr.com/4072/4653048664_84fc7811a0.jpg","path":"815/6a7/8156a77f3022c36d8aec18c9f4f6c3f.jpg","date":"2010-05-29","year":2010,"month":5,"lon":141.339,"lat":43.057335,"tags":"source_public","S2CellId":"4876052c00000000","result":5262,"accuracy":0.003597895,"title":"%E3%82%B9%E3%82%A4%E3%83%BC%E3%83%84","description":"1%E3%81%A4%E3%82%81"}
{"id":3259736732,"url":"http://farm4.staticflickr.com/3424/3259736732_0621eeb0cb.jpg","path":"554/6b1/5546b13726a7ed9c5125d36a2eaebd1.jpg","date":"2007-12-20","year":2007,"month":12,"lon":141.31989,"lat":43.080925,"tags":"%E3%81%99%E3%81%99%E3%81%8D%E3%81%AE,%E5%8C%97%E6%B5%B7%E9%81%93,%E6%97%A5%E6%9C%AC,%E6%9C%AD%E5%B9%8C,35mm+equivalent,hokkaido,japan,kirin,lights,sapporo,screen,susukino","S2CellId":"89c25854c0000000","result":8959,"accuracy":0.17818326,"title":"Susukino+lights","description":"Nice+to+see+something+stereotypically+Japanese+urban%2C+without+going+to+Tokyo."}
{"id":6977380734,"url":"http://farm8.staticflickr.com/7202/6977380734_11bbf985ce.jpg","path":"468/b62/468b62b41633413beaf23e7699646aa4.jpg","date":"2012-04-28","year":2012,"month":4,"lon":141.73178,"lat":42.9709,"tags":"instagram+app,iphoneography,square,square+format","S2CellId":"0d59700000000000","result":493,"accuracy":0.065437496}
{"id":8174782084,"url":"http://farm9.staticflickr.com/8478/8174782084_3a7411f8a8.jpg","path":"14b/cc6/14bcc6f1f84e6c12ab850e6c23b525a.jpg","date":"2012-11-11","year":2012,"month":11,"lon":141.45395,"lat":43.00224,"tags":"hiraoka,sapporo","S2CellId":"4871740000000000","result":5039,"accuracy":0.1188969}
{"id":8178212613,"url":"http://farm9.staticflickr.com/8210/8178212613_d79779e91e.jpg","path":"eff/0e5/eff0e5b0e89711eb8989a7a25c057ce.jpg","date":"2012-09-21","year":2012,"month":9,"lon":142.45662,"lat":43.60517,"tags":"hokkaido,japan","S2CellId":"5f0d000000000000","result":6352,"accuracy":0.60200995,"title":"%E5%8C%97%E8%A5%BF%E3%81%AE%E4%B8%98%E5%B1%95%E6%9C%9B%E5%85%AC%E5%9C%92"}
{"id":2737108905,"url":"http://farm4.staticflickr.com/3184/2737108905_be3e8f1203.jpg","path":"92a/587/92a5879cd8e0c748fd8cb5667e45424.jpg","date":"2008-08-01","year":2008,"month":8,"lon":142.5179,"lat":43.38419,"tags":"%E5%8C%97%E6%B5%B7%E9%81%93,%E5%AF%8C%E8%89%AF%E9%87%8E,hokkaido,japan","S2CellId":"4885d00000000000","result":5681,"accuracy":0.064902164,"title":"%E8%B7%AF%E4%B8%8A%E9%9A%A8%E6%8B%8D"}
{"id":2262582375,"url":"http://farm3.staticflickr.com/2196/2262582375_c01622382c.jpg","path":"332/b44/332b444ffd4977596de61afe2eeadc39.jpg","date":"2008-02-11","year":2008,"month":2,"lon":141.41245,"lat":43.11393,"tags":"hokkaido,japan,sapporo,winter","S2CellId":"9aab000000000000","result":9926,"accuracy":0.053405795,"title":"R0010502","description":"Exif_JPEG_PICTURE"}
{"id":2737132199,"url":"http://farm4.staticflickr.com/3212/2737132199_53ba699ea5.jpg","path":"1f5/4ba/1f54bac9e588881bb7398d7d49924e.jpg","date":"2008-08-01","year":2008,"month":8,"lon":142.41959,"lat":43.464527,"tags":"%E5%8C%97%E6%B5%B7%E9%81%93,%E5%AF%8C%E8%89%AF%E9%87%8E,hokkaido,japan","S2CellId":"5f0d000000000000","result":6352,"accuracy":0.092984535,"title":"%E6%BB%BE%E5%8B%95%E5%90%A7%21+%E7%91%9E%E5%A3%AB%E5%8D%B7"}
{"id":7928729920,"url":"http://farm9.staticflickr.com/8461/7928729920_2f0f38ac0f.jpg","path":"923/e18/923e1861bef81c29feef393d1a21c744.jpg","date":"2012-09-03","year":2012,"month":9,"lon":141.473,"lat":43.041832,"tags":"photo+stream","S2CellId":"0d42288500000000","result":372,"accuracy":0.011768188,"title":"IMG_1272"}
{"id":753822309,"url":"http://farm2.staticflickr.com/1076/753822309_a739d1bc08.jpg","path":"f39/46a/f3946aabb70d58174db7958740a153.jpg","date":"2007-07-04","year":2007,"month":7,"lon":142.47722,"lat":43.49484,"tags":"%E3%83%9E%E3%82%AF%E3%83%89%E3%83%8D%E3%83%AB%E3%83%80%E3%82%B0%E3%83%A9%E3%82%B9,%E4%B8%8A%E5%AF%8C%E8%89%AF%E9%87%8E,%E4%B8%98,%E5%8C%97%E6%B5%B7%E9%81%93,%E6%97%A5%E6%9C%AC%E8%88%AA%E7%A9%BA,%E6%97%AD%E5%B7%9D%E7%A9%BA%E6%B8%AF,%E7%A9%8D%E4%B9%B1%E9%9B%B2,%E7%A9%BA,%E7%BE%8E%E7%91%9B,%E9%9B%B2,%E9%9D%92%E7%A9%BA,%E9%A3%9B%E8%A1%8C%E6%A9%9F,%EF%BD%8A%EF%BD%81%EF%BD%8C,%EF%BD%8D%EF%BD%84,airplane,akj,biei,blue+sky,clouds,cumulonimbus,hill,hokkaido,jal,kamifurano,md-81,rjec,sky,thundercloud","S2CellId":"5f0d000000000000","result":6352,"accuracy":0.08262305,"title":"JAL%27s+MD-81+view+from+Kamifurano+hills","description":"JAL%27s+MD-81+photo+approaching+to+Asahikawa+Airport+was+taken+at+a+hill+in+Kamifurano+town.+It+is+next+to+Biei+town+well-known+as+hills+town."}
{"id":2738130136,"url":"http://farm4.staticflickr.com/3204/2738130136_6da4832dd9.jpg","path":"b91/d78/b91d78416cb930873b19fbf56546b443.jpg","date":"2008-08-03","year":2008,"month":8,"lon":141.00644,"lat":43.19267,"tags":"%E5%8C%97%E6%B5%B7%E9%81%93,%E5%B0%8F%E6%A8%BD,hokkaido,japan","S2CellId":"54906ab300000000","result":6212,"accuracy":0.025610853,"title":"%E5%B0%8F%E6%A8%BD+-+%E5%8C%97%E4%B8%80%E7%A1%9D%E5%AD%90%E9%A4%A8"}
{"id":4687970185,"url":"http://farm5.staticflickr.com/4021/4687970185_f2971b5d66.jpg","path":"964/a5c/964a5c48c77be096badb50df1ec966df.jpg","date":"2010-06-08","year":2010,"month":6,"lon":142.68942,"lat":43.62656,"tags":"%E5%8C%97%E6%B5%B7%E9%81%93,%E6%9D%B1%E5%B7%9D,higashikawa,hokkaido","S2CellId":"5496400000000000","result":6277,"accuracy":0.04293336,"title":"Higashikawa"}
{"id":9037149447,"url":"http://farm3.staticflickr.com/2887/9037149447_d08e617e58.jpg","path":"829/63d/82963dbde827421192df6bb88c7655a.jpg","date":"2013-06-02","year":2013,"month":6,"lon":143.20198,"lat":42.933804,"tags":"%E5%85%AC%E5%9C%92,%E5%8C%97%E6%B5%B7%E9%81%93,%E5%B8%AF%E5%BA%83,%E6%97%A5%E6%9C%AC,hokkaido,japan,obihiro,park,sidewalk","S2CellId":"89c2599900000000","result":9021,"accuracy":0.0022670545,"title":"Obihiro"}
{"id":13941973312,"url":"http://farm8.staticflickr.com/7240/13941973312_efcf77e49d.jpg","path":"3fc/91a/3fc91a3060dedd11516f84a523ac126.jpg","date":"2014-02-01","year":2014,"month":2,"lon":141.35103,"lat":43.07226,"tags":"%E5%8C%97%E6%B5%B7%E9%81%93,%E6%97%A5%E6%9C%AC,%E6%9C%AD%E5%B9%8C%E5%B8%82","S2CellId":"5f0b2c0000000000","result":6349,"accuracy":0.41627026,"title":"IMG_4804s"}
{"id":939987757,"url":"http://farm2.staticflickr.com/1279/939987757_edd0ac6bdd.jpg","path":"5af/48b/5af48b16746f6ee788b324a49a343339.jpg","date":"2007-07-24","year":2007,"month":7,"lon":141.77374,"lat":44.5629,"tags":"%E3%81%BF%E3%81%95%E3%81%8D%E5%8F%B0%E5%85%AC%E5%9C%92,2007,campsite,cape,hokkaido,motorcycle,park,touring","S2CellId":"80c2bf7000000000","result":7183,"accuracy":0.010021147,"title":"%E3%81%BF%E3%81%95%E3%81%8D%E5%8F%B0%E5%85%AC%E5%9C%92%E3%82%AD%E3%83%A3%E3%83%B3%E3%83%97%E5%A0%B4"}
{"id":4570717870,"url":"http://farm4.staticflickr.com/3437/4570717870_1d5c375e84.jpg","path":"919/cd5/919cd53fddaa865533a0c1391ca9d81.jpg","date":"2010-02-13","year":2010,"month":2,"lon":142.95595,"lat":43.723408,"tags":"%E5%8C%97%E6%B5%B7%E9%81%93,%E5%B1%A4%E9%9B%B2%E5%B3%A1,%E5%B1%A4%E9%9B%B2%E5%B3%BD,%E6%97%A5%E6%9C%AC,7-14mm,7mm,gf1,hokkaido,japan,panasonic,sounkyo","S2CellId":"12af400000000000","result":793,"accuracy":0.0057659484,"title":"%E5%B1%A4%E9%9B%B2%E5%B3%A1%E6%9C%9D%E9%99%BD%E4%BA%AD","description":"Choyotei%2C+Sounkyo%2C+Kamikawa%2C+Hokkaido%2C+Japan"}
{"id":2722129807,"url":"http://farm4.staticflickr.com/3084/2722129807_da271bf16b.jpg","path":"9a9/0b3/9a90b34eb6406e75ae6763d1658ad8e4.jpg","date":"2008-08-01","year":2008,"month":8,"lon":141.34392,"lat":43.05983,"tags":"events,icommons,isummit08,places","S2CellId":"5f0b2c0000000000","result":6349,"accuracy":0.16381778,"title":"iSummit+%2708%3A+Day+3+-+01"}
{"id":6821910407,"url":"http://farm8.staticflickr.com/7160/6821910407_be302587ee.jpg","path":"c8d/c9e/c8dc9e1c34fdee417782b1fdb6526.jpg","date":"2012-02-05","year":2012,"month":2,"lon":141.67998,"lat":42.787838,"tags":"instagram+app,iphoneography,normal,square,square+format","S2CellId":"60188b9000000000","result":6478,"accuracy":0.041992564,"title":"%E5%8C%97%E6%B5%B7%E9%81%93%E5%8D%81%E8%B2%AB%E6%8F%A1%E3%82%8A"}
{"id":8036324423,"url":"http://farm9.staticflickr.com/8457/8036324423_fdc70579cc.jpg","path":"c5f/ebc/c5febc56d38545629b676f7bd8cc99f.jpg","date":"2012-08-03","year":2012,"month":8,"lon":141.35239,"lat":43.05901,"tags":"hokkaido,japan,japon,sapporo","S2CellId":"808f80b000000000","result":7039,"accuracy":0.06250458,"title":"CIMG0695","description":"%3Cb%3E%3Ca+href%3D%22http%3A%2F%2Fen.wikipedia.org%2Fwiki%2FSapporo%22+rel%3D%22nofollow%22%3ESapporo%3C%2Fa%3E%3C%2Fb%3E+%7C+%3Cb%3E%3Ca+href%3D%22http%3A%2F%2Fen.wikipedia.org%2Fwiki%2FHokkaido%22+rel%3D%22nofollow%22%3EHokkaido%3C%2Fa%3E%3C%2Fb%3E"}
{"id":2061555341,"url":"http://farm3.staticflickr.com/2349/2061555341_0cea8c4a79.jpg","path":"5aa/56f/5aa56f25cad686a92c97e0ec89616bb0.jpg","date":"2007-11-25","year":2007,"month":11,"lon":141.34915,"lat":43.153477,"tags":"%E3%83%A2%E3%82%A8%E3%83%AC%E6%B2%BC%E5%85%AC%E5%9C%92,hokkaido,japan,moerenuma+park,sapporo","S2CellId":"487bb30000000000","result":5594,"accuracy":0.007234365,"title":"P1010102.JPG"}
{"id":3654190950,"url":"http://farm4.staticflickr.com/3612/3654190950_6f4ccc5a93.jpg","path":"fa1/648/fa1648db6f8af938c0ffcea082fd75b2.jpg","date":"2009-06-21","year":2009,"month":6,"lon":142.43126,"lat":43.629246,"tags":"43+km+e+of+takikawa,a350,dslr-a350,hokkaido,japan,sal1680z","S2CellId":"89c9b00000000000","result":9209,"accuracy":0.010583074,"title":"DSC09845"}
{"id":5690251754,"url":"http://farm6.staticflickr.com/5027/5690251754_fe7995107a.jpg","path":"943/a2b/943a2bf71ca4257b66990fc1e6399.jpg","date":"2011-05-05","year":2011,"month":5,"lon":141.35677,"lat":43.06184,"tags":"%E6%A1%9C,blossoms,cherry","S2CellId":"89b7b71000000000","result":8847,"accuracy":0.10806338,"title":"%E6%A1%9C","description":"%3Ca+href%3D%22http%3A%2F%2Floc.alize.us%2F%23%2Fflickr%3A5690251754%22+rel%3D%22nofollow%22%3ESee+where+this+picture+was+taken.%3C%2Fa%3E+%3Ca+href%3D%22http%3A%2F%2Fwww.flickr.com%2Fgroups%2Fgeotagging%2Fdiscuss%2F72157594165549916%2F%22%3E%5B%3F%5D%3C%2Fa%3E"}
{"id":12023580346,"url":"http://farm3.staticflickr.com/2808/12023580346_3f712c9f20.jpg","path":"1aa/d4c/1aad4c3bcd99d3ca6cef4af456a4b61.jpg","date":"2014-01-15","year":2014,"month":1,"lon":141.4716,"lat":42.9718,"tags":"%E5%8C%97%E6%B5%B7%E9%81%93,%E6%97%A5%E6%9C%AC,%E6%9C%AD%E5%B9%8C,0115,20140115,january,jp,travel","S2CellId":"3468024000000000","result":2126,"accuracy":0.09825824,"title":"20140115_110310"}
{"id":3903634114,"url":"http://farm3.staticflickr.com/2562/3903634114_3790dceed3.jpg","path":"688/f8b/688f8b9a9a9879787a1abfb881e059ad.jpg","date":"2009-09-09","year":2009,"month":9,"lon":141.35402,"lat":43.063557,"tags":"flickr,iphone,ipod,itouch,klickr,sapporo,touch","S2CellId":"3135ab4000000000","result":1744,"accuracy":0.017059015,"title":"Near+me.","description":"Near+me%E6%A9%9F%E8%83%BD%E3%81%AF%E5%A4%96%E5%87%BA%E5%85%88%E3%81%AE%E7%84%A1%E7%B7%9ALAN%E3%82%A2%E3%82%AF%E3%82%BB%E3%82%B9%E3%83%9D%E3%82%A4%E3%83%B3%E3%83%88%E3%81%A7%E8%A6%8B%E3%82%8B%E3%81%A8%E5%AE%9F%E3%81%AB%E9%9D%A2%E7%99%BD%E3%81%84%E3%80%82"}
{"id":431023921,"url":"http://farm1.staticflickr.com/147/431023921_4509bf14b2.jpg","path":"7a4/2f0/7a42f0319924fce4c955666c42ef6f.jpg","date":"2006-12-08","year":2006,"month":12,"lon":143.20627,"lat":42.919224,"tags":"%E5%AE%B4%E4%BC%9A,%E6%96%B0%E5%BE%97,boe,coworkers,enkai,new+year+party,obihiro,office,party,shintoku","S2CellId":"808f790000000000","result":7016,"accuracy":0.06454832,"title":"The+whole+crowd"}
{"id":2135833831,"url":"http://farm3.staticflickr.com/2198/2135833831_12ed2da175.jpg","path":"191/221/19122196ef6ca11b12cf19af3fa8192.jpg","date":"2007-12-25","year":2007,"month":12,"lon":141.67508,"lat":42.80854,"tags":"%E5%8C%97%E6%B5%B7%E9%81%93,%E5%8D%97%E5%8D%83%E6%AD%B3","S2CellId":"468c76c000000000","result":2964,"accuracy":0.08634052,"title":"_C251526.JPG"}
{"id":194087703,"url":"http://farm1.staticflickr.com/57/194087703_b19a37e8a9.jpg","path":"363/c64/363c64e0a5c581e638935ef44168fe3e.jpg","date":"2006-07-20","year":2006,"month":7,"lon":141.34563,"lat":43.058918,"tags":"2006,2nd,hokkaido,summer","S2CellId":"6000e74000000000","result":6386,"accuracy":0.071967274,"title":"2006_2nd%E5%8C%97%E6%B5%B7%E9%81%93_Day2_169","description":"Susukino"}
{"id":2170338107,"url":"http://farm3.staticflickr.com/2288/2170338107_69144ca7e0.jpg","path":"473/d9b/473d9bf76af0dddd24dd8bc34423638.jpg","date":"2007-12-28","year":2007,"month":12,"lon":143.17917,"lat":42.974243,"tags":"%E6%9F%B3%E6%9C%88%E9%BA%B5%E5%8C%85%E7%83%98%E7%84%99%E5%9D%8A,hokkaido,jpapn","S2CellId":"54906d0000000000","result":6220,"accuracy":0.026314633,"title":"%E6%9F%B3%E6%9C%88%E9%BA%B5%E5%8C%85%E7%83%98%E7%84%99%E5%9D%8A"}
{"id":560567340,"url":"http://farm2.staticflickr.com/1435/560567340_d21bae133c.jpg","path":"18d/fd7/18dfd7796663d2538859d0da2e997b.jpg","date":"2007-06-16","year":2007,"month":6,"lon":143.105,"lat":43.27333,"tags":"lake","S2CellId":"aa7c000000000000","result":9951,"accuracy":0.08222744,"title":"%E7%84%B6%E5%88%A5%E6%B9%96"}
{"id":7188396858,"url":"http://farm6.staticflickr.com/5280/7188396858_0a7abfcddc.jpg","path":"174/591/174591bdd56acff68a5144cbad93e48e.jpg","date":"2012-05-13","year":2012,"month":5,"lon":141.40334,"lat":42.7735,"tags":"photo+stream","S2CellId":"60188eb000000000","result":6515,"accuracy":0.042085744,"title":"IMG_2290"}
{"id":443600697,"url":"http://farm1.staticflickr.com/171/443600697_eecb6818df.jpg","path":"35a/b5d/35ab5d7e5285cc536ffeb965c230b3.jpg","date":"2006-03-02","year":2006,"month":3,"lon":141.00488,"lat":43.19335,"tags":"%E5%8C%97%E6%B5%B7%E9%81%93,%E5%B0%8F%E6%A8%BD,%E6%97%A5%E6%9C%AC,%E6%9F%93%E7%B9%94,hokkaido,japan,otaru,sensoku","S2CellId":"5f0ac00000000000","result":6346,"accuracy":0.45773718,"title":"%E6%9F%93%E7%B9%94","description":"%E5%9C%A8%E8%89%B2%E5%86%85%E5%A4%A7%E9%80%9A%E3%82%8A%E4%B8%8A%E7%9A%84%E4%B8%80%E5%AE%B6...%0A%E6%87%89%E8%A9%B2%E6%98%AF%E5%B8%83%E5%BA%97%E5%90%A7"}
{"id":677535082,"url":"http://farm2.staticflickr.com/1396/677535082_791ffdd393.jpg","path":"fbd/fc7/fbdfc7cd86066ad6fcc4543eabf78d9.jpg","date":"2007-06-30","year":2007,"month":6,"lon":141.56123,"lat":42.999874,"tags":"fruits,green,nature","S2CellId":"89c2f34000000000","result":9103,"accuracy":0.008237375}
{"id":259899649,"url":"http://farm1.staticflickr.com/95/259899649_d3740c5ced.jpg","path":"dd2/a90/dd2a90d8d03a334277d43c79416389e2.jpg","date":"2006-10-02","year":2006,"month":10,"lon":141.61377,"lat":42.900112,"tags":"200610-yetpih","S2CellId":"3442a83000000000","result":2033,"accuracy":0.013619102,"title":"DSC07387"}
{"id":9786582205,"url":"http://farm8.staticflickr.com/7339/9786582205_c52d6ea309.jpg","path":"f92/d99/f92d9994f4c535b7715edacc928a4885.jpg","date":"2013-03-14","year":2013,"month":3,"lon":142.25983,"lat":44.729164,"tags":"%E4%B8%AD%E5%B7%9D%E9%83%A1,%E5%8C%97%E6%B5%B7%E9%81%93,%E6%97%A5%E6%9C%AC,%E9%9D%92%E6%98%A518%E3%81%8D%E3%81%A3%E3%81%B7%E3%81%AE%E6%97%85+1,flickr","S2CellId":"5f70000000000000","result":6358,"accuracy":0.08636954,"title":"IMG_1618.jpg"}
{"id":6082524374,"url":"http://farm7.staticflickr.com/6066/6082524374_d6f0d829b8.jpg","path":"a31/c42/a31c423342c8dcd6aec5417573b899c.jpg","date":"2011-08-26","year":2011,"month":8,"lon":141.35411,"lat":43.06132,"tags":"picplz","S2CellId":"94b9000000000000","result":9680,"accuracy":0.013251862,"title":"LION%EF%BC%81","description":"Taken+with+%3Ca+href%3D%22http%3A%2F%2Fpicplz.com%22+rel%3D%22nofollow%22%3Epicplz%3C%2Fa%3E+in+%3Ca+href%3D%22http%3A%2F%2Fpicplz.com%2Fcity%2Fsapporo-city-chuo-ward-jp%2F%22+rel%3D%22nofollow%22%3ESapporo+City+Chuo+Ward%2C+Japan%3C%2Fa%3E."}
{"id":4221995528,"url":"http://farm5.staticflickr.com/4063/4221995528_22b0e24545.jpg","path":"3cc/8dd/3cc8dd8b7c67e2f6fbe17699f8f388.jpg","date":"2009-12-26","year":2009,"month":12,"lon":141.3508,"lat":43.068626,"tags":"%E3%81%95%E3%81%A3%E3%81%BD%E3%82%8D%E3%81%97,%E3%81%BB%E3%81%A3%E3%81%8B%E3%81%84%E3%81%A9%E3%81%86,%E5%8C%97%E6%B5%B7%E9%81%93,%E6%97%A5%E6%9C%AC,%E6%97%A5%E6%9C%AC%E5%9B%BD,%E6%9C%AD%E5%B9%8C,%E8%B3%BC%E7%89%A9%E5%9F%8E,hokkaid%C5%8D,japan,jr+tower,sapporo-shi","S2CellId":"5f0b2c0000000000","result":6349,"accuracy":0.11591474,"title":"IMG_3656"}
{"id":6921324534,"url":"http://farm6.staticflickr.com/5335/6921324534_122d0ebab1.jpg","path":"7fe/f99/7fef995a8efbe2999848d2e7362d9eda.jpg","date":"2012-04-11","year":2012,"month":4,"lon":143.19933,"lat":42.906612,"tags":"mist,night","S2CellId":"4647000000000000","result":2811,"accuracy":0.012648802,"title":"%E3%83%9F%E3%82%B9%E3%83%86%E3%82%A3%E3%83%BC%E3%83%8A%E3%82%A4%E3%83%88+misty+night","description":"Camera+360"}
{"id":6013836075,"url":"http://farm7.staticflickr.com/6137/6013836075_5b821f8d12.jpg","path":"b75/ef8/b75ef8ea4adc537cad60fa9a6f75528d.jpg","date":"2011-08-05","year":2011,"month":8,"lon":143.05275,"lat":42.671658,"tags":"%E5%8C%97%E6%B5%B7%E9%81%93,%E5%B8%AF%E5%BA%83,%E5%B8%B6%E5%BB%A3,hokkaido,obihiro","S2CellId":"5f70000000000000","result":6358,"accuracy":0.03996217,"title":"%E5%B8%AF%E5%BA%83"}
{"id":9074010418,"url":"http://farm3.staticflickr.com/2880/9074010418_f5d53b33a4.jpg","path":"91c/629/91c62992f177de8d98edbbdfcc3b178.jpg","date":"2013-04-27","year":2013,"month":4,"lon":141.00708,"lat":43.190784,"tags":"%E5%87%BA%E9%81%8A,%E5%8C%97%E6%B5%B7%E9%81%93,%E5%A0%BA%E7%94%BA,%E5%B0%8F%E6%A8%BD,%E6%97%A5%E6%9C%AC,building,dsc-rx100,hokkaido,japan,sony","S2CellId":"5f0ac00000000000","result":6346,"accuracy":0.18864238,"title":"%E5%B0%8F%E6%A8%BD%E5%A0%BA%E7%94%BA%E9%83%B5%E4%BE%BF%E5%B1%80","description":"%E5%B0%8F%E6%A8%BD+%E5%A0%BA%E7%94%BA"}
{"id":7272534896,"url":"http://farm8.staticflickr.com/7103/7272534896_865795432e.jpg","path":"26d/ac2/26dac234356c94f78a62657fb994a8b7.jpg","date":"2012-05-21","year":2012,"month":5,"lon":143.20369,"lat":42.919224,"tags":"%E3%81%8A%E3%81%B3%E3%81%B2%E3%82%8D%E5%8B%95%E7%89%A9%E5%9C%92","S2CellId":"878d000000000000","result":7909,"accuracy":0.035704307,"title":"20120521_100814_ObihiroTKN","description":"%E3%81%8A%E3%81%B3%E3%81%B2%E3%82%8D%E5%8B%95%E7%89%A9%E5%9C%92%E3%80%802012%E5%B9%B45%E6%9C%8821%E6%97%A5"}
{"id":5383849293,"url":"http://farm6.staticflickr.com/5218/5383849293_4101a49102.jpg","path":"628/072/6280728cd25d122eace098e9d2b.jpg","date":"2010-11-22","year":2010,"month":11,"lon":142.47595,"lat":43.768597,"tags":"%E5%8C%97%E6%B5%B7%E9%81%93,%E6%97%AD%E5%B1%B1%E5%8B%95%E7%89%A9%E5%9C%92,%E6%97%AD%E5%B7%9D","S2CellId":"80d9549000000000","result":7295,"accuracy":0.13669704,"title":"IMG_4325"}
{"id":11289309533,"url":"http://farm6.staticflickr.com/5514/11289309533_3f14c69997.jpg","path":"418/534/418534b02fd1d92999217b0c8b230df.jpg","date":"2013-07-21","year":2013,"month":7,"lon":143.16167,"lat":42.745277,"tags":"%E5%8C%97%E6%B5%B7%E9%81%93,%E6%97%A5%E6%9C%AC","S2CellId":"3468b00000000000","result":2163,"accuracy":0.057305556,"title":"2013+July+%E5%8C%97%E6%B5%B7%E9%81%93"}
{"id":13503286243,"url":"http://farm8.staticflickr.com/7449/13503286243_e36b318e4a.jpg","path":"316/35a/31635a47b78e751fa4ace2f54f2f2aa.jpg","date":"2010-02-09","year":2010,"month":2,"lon":141.38147,"lat":43.114887,"tags":"community,d5000,dome,festival,higashiku,hokkaido,nikon,okadamacho,sapporo,snow,tsudome,winter","S2CellId":"5f70000000000000","result":6358,"accuracy":0.09361913,"title":"2010+Sapporo+Snow+Festival%2C+Tsudome+Site","description":"%3Cb%3E%3Ca+href%3D%22http%3A%2F%2Fen.wikipedia.org%2Fwiki%2FSapporo_Community_Dome%22+target%3D%22_blank%22+rel%3D%22nofollow%22%3ESapporo+Community+Dome%3C%2Fa%3E%3C%2Fb%3E%2C+widely+known+for+its+nickname+%3Cb%3E%3Ca+href%3D%22http%3A%2F%2Fen.wikipedia.org%2Fwiki%2FSapporo_Community_Dome%22+target%3D%22_blank%22+rel%3D%22nofollow%22%3ETsudome%3C%2Fa%3E%3C%2Fb%3E%2C+is+a+multi-purpose+hall+located+in+Higashi-ku%2C+Sapporo%2C+Hokkaid%C5%8D%2C+Japan.+Owned+by+Sapporo+city%2C+the+dome+is+run+by+the+Sapporo+Health+Sports+Foundation.++%0A%0A+2009+marked+the+60th+anniversary+of+the+Sapporo+Snow+Festival%2C+and+in+this+year+the+second+venue+of+the+festival+was+moved+from+the+Sapporo+Satoland+site+to+the+Tsudome+site.+This+transference+of+the+sites+was+done+to+reduce+the+parking+lot+costs+by+restricting+a+large+number+of+cars+visiting+from+the+site+and+to+help+alleviate+traffic+congestion.+Source%3A+%3Cb%3E%3Ca+href%3D%22http%3A%2F%2Fen.wikipedia.org%2Fwiki%2FSapporo_Community_Dome%22+target%3D%22_blank%22+rel%3D%22nofollow%22%3Een.wikipedia.org%3C%2Fa%3E%3C%2Fb%3E"}
{"id":4688355773,"url":"http://farm5.staticflickr.com/4027/4688355773_bcd28afa0f.jpg","path":"abb/c46/abbc469e3e76df7bb0b18443eecb274.jpg","date":"2010-06-09","year":2010,"month":6,"lon":142.64317,"lat":43.413822,"tags":"%E4%B8%8A%E5%AF%8C%E8%89%AF%E9%87%8E,%E5%8C%97%E6%B5%B7%E9%81%93,%E5%8D%81%E5%8B%9D%E5%B2%B3%E6%B8%A9%E6%B3%89,%E5%8D%81%E5%8B%9D%E5%B2%B3%E6%BA%AB%E6%B3%89,fox,hokkaido,kamifurano","S2CellId":"4b5b000000000000","result":5824,"accuracy":0.018736675,"title":"%E5%8D%81%E5%8B%9D%E5%B2%B3%E6%B8%A9%E6%B3%89"}
{"id":7272595488,"url":"http://farm9.staticflickr.com/8011/7272595488_4d7b4418a5.jpg","path":"234/6c7/2346c776a14aada907d848a72531d.jpg","date":"2012-05-21","year":2012,"month":5,"lon":143.20369,"lat":42.919224,"tags":"%E3%81%8A%E3%81%B3%E3%81%B2%E3%82%8D%E5%8B%95%E7%89%A9%E5%9C%92,%E3%82%A2%E3%83%A0%E3%83%BC%E3%83%AB%E3%83%88%E3%83%A9","S2CellId":"88e5b40000000000","result":8655,"accuracy":0.09623791,"title":"20120521_140538_ObihiroTKN","description":"%E3%82%A2%E3%83%A0%E3%83%BC%E3%83%AB%E3%83%88%E3%83%A9%E3%80%8C%E3%82%BF%E3%83%84%E3%82%AA%E3%80%8D%EF%BC%A0%E3%81%8A%E3%81%B3%E3%81%B2%E3%82%8D%E5%8B%95%E7%89%A9%E5%9C%92%E3%80%802012%E5%B9%B45%E6%9C%8821%E6%97%A5"}
{"id":7968154390,"url":"http://farm9.staticflickr.com/8178/7968154390_260a78d8f2.jpg","path":"eb7/e10/eb7e103d84916761438fcf26354b3e.jpg","date":"2012-09-09","year":2012,"month":9,"lon":141.4005,"lat":43.029366,"tags":"eye-fi,hokkaido+prefecture,japan,ntt%E3%82%B3%E3%83%A0%E3%80%80%E3%82%B7%E3%83%A3%E3%82%A4%E3%83%8B%E3%83%B3%E3%82%B0%E3%82%A2%E3%83%BC%E3%82%AF%E3%82%B9%E3%80%80%E3%83%A9%E3%82%B0%E3%83%93%E3%83%BC,sapporo","S2CellId":"346eb00000000000","result":2224,"accuracy":0.05669697,"title":"IMGP9699.JPG"}
{"id":9073975648,"url":"http://farm4.staticflickr.com/3720/9073975648_79f45c2d30.jpg","path":"267/8e9/2678e98aaf11b7cbfc85de4f8d7eef5.jpg","date":"2013-04-27","year":2013,"month":4,"lon":141.00555,"lat":43.19467,"tags":"%E4%B8%8B%E5%8D%88%E8%8C%B6,%E5%87%BA%E9%81%8A,%E5%8C%97%E6%B5%B7%E9%81%93,%E5%92%96%E5%95%A1%E9%A4%A8,%E5%A0%BA%E7%94%BA,%E5%B0%8F%E6%A8%BD,%E6%97%A5%E6%9C%AC,%E6%97%A5%E6%9C%AC%E6%96%99%E7%90%86,dsc-rx100,hokkaido,japan,sony","S2CellId":"5f0ac00000000000","result":6346,"accuracy":0.4413165,"title":"%E3%81%95%E3%81%8B%E3%81%84%E5%AE%B6","description":"%E5%B0%8F%E6%A8%BD%E5%A0%BA%E7%94%BA+%E3%81%95%E3%81%8B%E3%81%84%E5%AE%B6"}
{"id":3492354401,"url":"http://farm4.staticflickr.com/3577/3492354401_abf9551c7e.jpg","path":"abe/19b/abe19b3c3cc5c2b775ab64e09fb2044.jpg","date":"2009-05-02","year":2009,"month":5,"lon":143.3049,"lat":43.878532,"tags":"country,hokkaido,japan,landscape,nature,waterfall","S2CellId":"4761000000000000","result":3310,"accuracy":0.0818876,"description":"%E9%B9%BF%E9%B3%B4%E3%81%AE%E6%BB%9D%E3%80%80%0ARokumei-no-taki%2C+Hokkaido."}
{"id":6796687172,"url":"http://farm8.staticflickr.com/7198/6796687172_8d4c2c9096.jpg","path":"997/bd5/997bd595c7b33d64d2865ff03fb38f14.jpg","date":"2012-02-29","year":2012,"month":2,"lon":141.36818,"lat":43.03589,"tags":"instagram+app,iphoneography,normal,square,square+format","S2CellId":"487e770000000000","result":5651,"accuracy":0.014320307}
{"id":2786229252,"url":"http://farm4.staticflickr.com/3148/2786229252_2f5caa5250.jpg","path":"6a5/677/6a5677fe521f71b8396a3bce7ebf82.jpg","date":"2008-08-16","year":2008,"month":8,"lon":143.16074,"lat":43.653614,"tags":"trip","S2CellId":"0d56c00000000000","result":472,"accuracy":0.011417799,"title":"DSCF0459"}
{"id":3266777006,"url":"http://farm4.staticflickr.com/3264/3266777006_453d9f41b4.jpg","path":"735/bf9/735bf96ac9a18631edbec784ff1209a.jpg","date":"2008-02-07","year":2008,"month":2,"lon":141.35611,"lat":43.06218,"tags":"%E6%9C%AD%E5%B9%8C,%E9%9B%AA%E3%81%BE%E3%81%A4%E3%82%8A,sapporo","S2CellId":"4cce054000000000","result":5917,"accuracy":0.41369566,"title":"R0010105","description":"Exif_JPEG_PICTURE"}
{"id":7272553218,"url":"http://farm8.staticflickr.com/7090/7272553218_06fea1e770.jpg","path":"464/31d/46431df1bc95e426e39487bfe84326.jpg","date":"2012-05-21","year":2012,"month":5,"lon":143.20369,"lat":42.919224,"tags":"%E3%81%8A%E3%81%B3%E3%81%B2%E3%82%8D%E5%8B%95%E7%89%A9%E5%9C%92,%E3%83%9B%E3%83%83%E3%82%AD%E3%83%A7%E3%82%AF%E3%82%B0%E3%83%9E","S2CellId":"60188c3000000000","result":6489,"accuracy":0.12013252,"title":"20120521_152216_ObihiroTKN","description":"%E3%81%8A%E3%81%B3%E3%81%B2%E3%82%8D%E5%8B%95%E7%89%A9%E5%9C%92"}
{"id":13950876702,"url":"http://farm8.staticflickr.com/7280/13950876702_428055eb88.jpg","path":"a0c/c1b/a0cc1b686e2c6e2b4a9e0fbcdd148.jpg","date":"2014-01-28","year":2014,"month":1,"lon":142.4803,"lat":43.768303,"tags":"%E5%8C%97%E6%B5%B7%E9%81%93,%E6%97%A5%E6%9C%AC,%E6%97%AD%E5%B7%9D%E5%B8%82","S2CellId":"601dc00000000000","result":6555,"accuracy":0.63262707,"title":"IMG_3661s"}
{"id":4221595213,"url":"http://farm3.staticflickr.com/2544/4221595213_4eafe4464a.jpg","path":"e0a/ae3/e0aae3461018a35afa7c87a08b8a80d7.jpg","date":"2009-12-27","year":2009,"month":12,"lon":141.63882,"lat":42.812237,"tags":"%E3%81%95%E3%81%A3%E3%81%BD%E3%82%8D%E3%81%97,%E3%81%BB%E3%81%A3%E3%81%8B%E3%81%84%E3%81%A9%E3%81%86,%E3%81%BE%E3%82%8B%E3%81%94%E3%81%A8,%E5%8C%97%E6%B5%B7%E9%81%93,%E5%8D%83%E6%AD%B3%E5%B8%82,%E5%B8%82%E5%A0%B4,%E6%97%A5%E6%9C%AC,%E6%97%A5%E6%9C%AC%E5%9B%BD,%E6%9C%AD%E5%B9%8C,hokkaid%C5%8D,hokkaido+marugoto+ichiba,japan,sapporo-shi","S2CellId":"12a46c0000000000","result":690,"accuracy":0.020694647,"title":"IMG_4047"}
{"id":4221616149,"url":"http://farm3.staticflickr.com/2522/4221616149_1886485b33.jpg","path":"627/715/627715f3b429f7dede22cb9321e0.jpg","date":"2009-12-27","year":2009,"month":12,"lon":141.27182,"lat":43.089203,"tags":"%E3%81%84%E3%81%97%E3%82%84%E3%81%9B%E3%81%84%E3%81%8B,%E3%81%95%E3%81%A3%E3%81%BD%E3%82%8D%E3%81%97,%E3%81%97%E3%82%8D%E3%81%84%E3%81%93%E3%81%84%E3%81%B3%E3%81%A8,%E3%81%BB%E3%81%A3%E3%81%8B%E3%81%84%E3%81%A9%E3%81%86,%E5%8C%97%E6%B5%B7%E9%81%93,%E6%97%A5%E6%9C%AC,%E6%97%A5%E6%9C%AC%E5%9B%BD,%E6%9C%AD%E5%B9%8C,%E6%9C%B1%E5%8F%A4%E5%8A%9B%E5%A0%A1,%E7%99%BD%E3%81%84%E6%81%8B%E4%BA%BA,%E7%99%BD%E4%B9%8B%E6%88%80%E4%BA%BA,%E7%9F%B3%E5%B1%8B%E8%A3%BD%E8%8F%93,hokkaid%C5%8D,ishiya,japan,sapporo-shi,shiroi+koibito","S2CellId":"89c25f4000000000","result":9083,"accuracy":0.071622655,"title":"IMG_4026"}
{"id":4410289471,"url":"http://farm3.staticflickr.com/2714/4410289471_f57cdccbd4.jpg","path":"f1d/c1b/f1dc1b3d518664f5acc44be116ba7db.jpg","date":"2010-02-11","year":2010,"month":2,"lon":141.24806,"lat":42.98532,"tags":"2010,hokkaido,japan,snow,winter","S2CellId":"60188be400000000","result":6481,"accuracy":0.04690281,"title":"Sapporo+Station","description":"Sapporo+Station"}
{"id":4861755441,"url":"http://farm5.staticflickr.com/4102/4861755441_11c97b5870.jpg","path":"3f8/7da/3f87daa2b4af0cc5f6dbd78e4e2e99.jpg","date":"2010-07-01","year":2010,"month":7,"lon":142.36024,"lat":43.36525,"tags":"japan,kita+no+kunikara,mamiya","S2CellId":"46e1000000000000","result":3087,"accuracy":0.042147476,"title":"At+the+stone+house"}
{"id":7346565660,"url":"http://farm8.staticflickr.com/7233/7346565660_f0b7608939.jpg","path":"54a/3cc/54a3ccf06284c3f9e44cd4441fe735fd.jpg","date":"2012-05-23","year":2012,"month":5,"lon":141.31989,"lat":43.05553,"tags":"%E5%86%86%E5%B1%B1%E5%8B%95%E7%89%A9%E5%9C%92","S2CellId":"60188c3000000000","result":6489,"accuracy":0.32221365,"title":"20120523_122408_MaruyamaTKN","description":"%E5%86%86%E5%B1%B1%E5%8B%95%E7%89%A9%E5%9C%9220120523"}
{"id":9082659651,"url":"http://farm8.staticflickr.com/7384/9082659651_bb24850a31.jpg","path":"69b/26f/69b26fe816516d8e2eabbe8434519154.jpg","date":"2013-06-19","year":2013,"month":6,"lon":141.35721,"lat":43.05681,"tags":"instagram+app,iphoneography,normal,square,square+format","S2CellId":"80dd317000000000","result":7376,"accuracy":0.037887275,"title":"%E3%82%A8%E3%83%93%E3%82%AB%E3%83%AC%E3%83%BC%28%E9%A3%9F%E3%81%B9%E6%8E%9B%E3%81%91%29"}
{"id":7711001194,"url":"http://farm9.staticflickr.com/8294/7711001194_58c9994fc4.jpg","path":"94e/183/94e183ffc36956f64563b79cbccbc5.jpg","date":"2012-07-31","year":2012,"month":7,"lon":142.61412,"lat":43.49434,"tags":"e-m5,japan,olympus,om-d","S2CellId":"4440000000000000","result":2748,"accuracy":0.046262834,"title":"blue+ponds"}
{"id":8640756794,"url":"http://farm9.staticflickr.com/8257/8640756794_3e2de3b658.jpg","path":"f11/35e/f1135ed2764c5531c25617baa5d2da3a.jpg","date":"2009-01-01","year":2009,"month":1,"lon":142.26007,"lat":44.72942,"tags":"%E5%AE%97%E8%B0%B7%E6%9C%AC%E7%B7%9A","S2CellId":"5f70000000000000","result":6358,"accuracy":0.060454324,"title":"2009-01-01_DSC0879"}
{"id":9589163330,"url":"http://farm6.staticflickr.com/5448/9589163330_deb5de26ee.jpg","path":"858/2c6/8582c6cdd968b37ecd8157a982f6d8.jpg","date":"2013-07-20","year":2013,"month":7,"lon":142.37088,"lat":43.764694,"tags":"%E4%B8%8A%E5%B7%9D%E7%A5%9E%E7%A4%BE%E7%A5%AD,%E6%97%AD%E5%B7%9D,asahikawa,eos+m","S2CellId":"809f000000000000","result":7130,"accuracy":0.008902086,"title":"goldfish+scooping"}
{"id":13974510673,"url":"http://farm8.staticflickr.com/7419/13974510673_9bd98e4981.jpg","path":"f13/1be/f131be1fa60877f9416502d1fd4b489.jpg","date":"2014-01-27","year":2014,"month":1,"lon":142.45912,"lat":43.558018,"tags":"%E5%8C%97%E6%B5%B7%E9%81%93,%E6%97%A5%E6%9C%AC,kamikawa+district","S2CellId":"5e50000000000000","result":6342,"accuracy":0.11662962,"title":"IMG_2541s"}
{"id":4697049576,"url":"http://farm5.staticflickr.com/4062/4697049576_96a0a8fb8a.jpg","path":"e8e/26a/e8e26a2b1555435c4b50e5f6d57d90bf.jpg","date":"2010-06-13","year":2010,"month":6,"lon":141.3628,"lat":43.06874,"tags":"%E3%82%A8%E3%82%A2%E3%83%9D%E3%83%BC%E3%83%88,%E5%8C%97%E6%B5%B7%E9%81%93,%E6%9C%AD%E5%B9%8C,hokkaido,jr,sapporo","S2CellId":"6000e6c000000000","result":6385,"accuracy":0.05868801,"title":"%E5%BF%AB%E9%80%9F%E3%82%A8%E3%82%A2%E3%83%9D%E3%83%BC%E3%83%88"}
{"id":4755723799,"url":"http://farm5.staticflickr.com/4096/4755723799_a0a5e93824.jpg","path":"2b5/9eb/2b59ebc04ee1b712fc7a5fba289162ff.jpg","date":"2010-06-27","year":2010,"month":6,"lon":141.34975,"lat":43.06174,"tags":"month,one","S2CellId":"6022400000000000","result":6561,"accuracy":0.014582725,"description":"At+Sheraton....Food+time%21%21"}
{"id":2705255519,"url":"http://farm4.staticflickr.com/3237/2705255519_a71e7bf04f.jpg","path":"31f/8f7/31f8f7b2fdf126df26b8f4c729a37dc4.jpg","date":"2008-07-06","year":2008,"month":7,"lon":141.15767,"lat":42.954975,"tags":"jozankei,stream,summer","S2CellId":"89b6340000000000","result":8827,"accuracy":0.024319885,"title":"jozankei"}
{"id":2774490559,"url":"http://farm3.staticflickr.com/2003/2774490559_c9b5809612.jpg","path":"428/0b9/4280b9cdfdfe44efaebb1a20f771af18.jpg","date":"2008-08-12","year":2008,"month":8,"lon":141.6687,"lat":42.79439,"tags":"airport,hokkaido,japan,shin-chitose,summer,travel,vacation","S2CellId":"6d0d4f0000000000","result":6801,"accuracy":0.33843783,"title":"New+Chitose+Airport+in+Hokkaido"}
{"id":7034551705,"url":"http://farm8.staticflickr.com/7251/7034551705_f3ed65591e.jpg","path":"ce8/9b0/ce89b0df124c49a631da1b9819286.jpg","date":"2012-04-01","year":2012,"month":4,"lon":141.34795,"lat":43.06401,"tags":"e-m5+om-d,japan,m.zuiko+14-150mm,olympus,sapporo","S2CellId":"4876054400000000","result":5265,"accuracy":0.020637266,"title":"photo","description":"Olympus+E-M5%0AM.ZUIKO+14-150mm"}
{"id":7796473076,"url":"http://farm9.staticflickr.com/8286/7796473076_ee284ea13f.jpg","path":"d25/d2d/d25d2de778d6ab5197465a88cc8983.jpg","date":"2012-08-05","year":2012,"month":8,"lon":141.5241,"lat":43.858006,"tags":"%E4%B8%B8%E4%B8%80,%E5%A2%97%E6%AF%9B,%E6%97%A7%E5%95%86%E5%AE%B6,%E6%9C%AC%E9%96%93%E5%AE%B6","S2CellId":"883f400000000000","result":8376,"accuracy":0.019257545,"title":"P8056405"}
{"id":13173451203,"url":"http://farm3.staticflickr.com/2178/13173451203_b28a3ee82f.jpg","path":"8eb/07d/8eb07d524f1fccb41a913cc81327fe0.jpg","date":"2014-02-10","year":2014,"month":2,"lon":141.3564,"lat":43.061165,"tags":"%C5%8Dd%C5%8Dri+park,%E3%81%95%E3%81%A3%E3%81%BD%E3%82%8D%E9%9B%AA%E3%81%BE%E3%81%A4%E3%82%8A,%E3%81%99%E3%81%99%E3%81%8D%E3%81%AE,%E5%A4%A7%E9%80%9A%E5%85%AC%E5%9C%92,%E6%9C%AD%E5%B9%8C,hokkaid%C5%8D,hokkaido,jap%C3%B3n,sapporo,sapporo+snow+festival,sapporo+yuki+matsuri,susukino","S2CellId":"5f0b2c0000000000","result":6349,"accuracy":0.35064408,"title":"Sapporo+Yuki+Matsuri-26"}
{"id":7385870612,"url":"http://farm8.staticflickr.com/7223/7385870612_f51cdec993.jpg","path":"3d0/6d6/3d06d6e711dc476e5fea5aadd8c215.jpg","date":"2012-06-17","year":2012,"month":6,"lon":141.24806,"lat":42.98532,"tags":"japan,sapporo,tedx,tedxsapporo,tedxsapporosalon","S2CellId":"310951c000000000","result":1695,"accuracy":0.036207594,"title":"Image+7"}
{"id":4221046729,"url":"http://farm3.staticflickr.com/2649/4221046729_c0407afef3.jpg","path":"1cd/cef/1cdcef319e856c56a655bed98a8415f.jpg","date":"2009-12-26","year":2009,"month":12,"lon":141.0077,"lat":43.190575,"tags":"%E3%81%8A%E3%81%9F%E3%82%8B%E3%81%97,%E3%81%BB%E3%81%A3%E3%81%8B%E3%81%84%E3%81%A9%E3%81%86,%E5%8C%97%E6%B5%B7%E9%81%93,%E5%B0%8F%E6%A8%BD%E5%B8%82,%E6%97%A5%E6%9C%AC,%E6%97%A5%E6%9C%AC%E5%9B%BD,%E6%B0%B4%E6%99%B6%E9%9F%B3%E6%A8%82%E5%9F%8E,hokkaid%C5%8D,japan,otaru-shi","S2CellId":"60187c0000000000","result":6460,"accuracy":0.038928904,"title":"IMG_3441"}
{"id":4362165586,"url":"http://farm5.staticflickr.com/4024/4362165586_c8249ce398.jpg","path":"566/fc0/566fc050ee1c66bdf01bc990df9d378b.jpg","date":"2009-02-03","year":2009,"month":2,"lon":142.4309,"lat":43.61061,"tags":"20090203,biei,hokkaido","S2CellId":"4787400000000000","result":3613,"accuracy":0.009730496,"title":"treeeeeeeeeeeeees","description":"biei%2C+hokkaido"}
{"id":4890544372,"url":"http://farm5.staticflickr.com/4096/4890544372_defc31bd3a.jpg","path":"654/dee/654dee9471f828afc7f6e0e53aa3ec8e.jpg","date":"2010-08-13","year":2010,"month":8,"lon":141.33789,"lat":42.938473,"tags":"source_public","S2CellId":"88d0a631cabb5071","result":8563,"accuracy":0.055701308,"title":"%E4%BA%A4%E5%B0%BE%E4%B8%AD%EF%BC%9F"}
{"id":7369999276,"url":"http://farm8.staticflickr.com/7099/7369999276_4ab8f6f2d9.jpg","path":"05a/c19/05ac19193dc3afdb54f385298c73f.jpg","date":"2012-06-11","year":2012,"month":6,"lon":141.9111,"lat":43.332157,"tags":"%E5%8C%97%E6%B5%B7%E9%81%93%E3%80%80%E3%82%A2%E3%83%AB%E3%83%86%E3%83%94%E3%82%A2%E3%83%83%E3%83%84%E3%82%A1%E7%BE%8E%E5%94%84%E3%80%80%E5%AE%89%E7%94%B0%E4%BE%83,%E5%8C%97%E6%B5%B7%E9%81%93%E3%80%80%E3%82%A2%E3%83%AB%E3%83%86%E3%83%94%E3%82%A2%E3%83%83%E3%83%84%E3%82%A1%E7%BE%8E%E5%94%84+%E5%AE%89%E7%94%B0%E4%BE%83,kan,yasuda","S2CellId":"8620af4000000000","result":7522,"accuracy":0.056276515,"title":"DSC06127.jpg","description":"Arte+piazza+bibai"}
{"id":12746307665,"url":"http://farm4.staticflickr.com/3812/12746307665_ba709c3cfc.jpg","path":"748/5be/7485be5798bea92abe8275a17b47385d.jpg","date":"2013-07-23","year":2013,"month":7,"lon":142.92722,"lat":43.703335,"tags":"%E5%8C%97%E6%B5%B7%E9%81%93,%E7%8F%AE%E7%8F%AE,friendly.flickr,megan","S2CellId":"4761000000000000","result":3310,"accuracy":0.16523646,"title":"2013+July+%E5%8C%97%E6%B5%B7%E9%81%93"}
{"id":2647570535,"url":"http://farm4.staticflickr.com/3216/2647570535_e1c6f5ef11.jpg","path":"6f7/f78/6f7f78b8ec6ebde333e7af02d09d9c.jpg","date":"2006-09-30","year":2006,"month":9,"lon":142.38968,"lat":43.349148,"tags":"farm,furano,tomita","S2CellId":"5f0d000000000000","result":6352,"accuracy":0.052701466,"title":"20060930DSC_0306"}
{"id":2504620803,"url":"http://farm3.staticflickr.com/2351/2504620803_baf5cdcdf8.jpg","path":"922/256/922256a82b5e551f72fcbc27f17cebf.jpg","date":"2008-05-15","year":2008,"month":5,"lon":142.48067,"lat":43.767555,"tags":"%E3%82%AA%E3%83%A9%E3%83%B3%E3%82%A6%E3%83%BC%E3%82%BF%E3%83%B3,%E5%8C%97%E6%B5%B7%E9%81%93,%E6%97%AD%E5%B1%B1%E5%8B%95%E7%89%A9%E5%9C%92,%E6%97%AD%E5%B7%9D%E5%B8%82,asahikawa,asahiyama+zoo,hokkaido,orangutan","S2CellId":"87c5000000000000","result":7979,"accuracy":0.00832808,"title":"%238661+orangutan+elder+sister","description":"She%27s+already+mastered+the+climbing+wall."}
{"id":2637413014,"url":"http://farm4.staticflickr.com/3076/2637413014_b8f5269946.jpg","path":"c4f/5f6/c4f5f644b28ccff0234123eff578.jpg","date":"2005-09-27","year":2005,"month":9,"lon":141.34332,"lat":43.061237,"tags":"autumn,biking,camping,cities,city,fall,hokkaido,japan,sapporo,travel","S2CellId":"864e640000000000","result":7620,"accuracy":0.0053491755,"title":"P9270355.JPG"}
{"id":4220891653,"url":"http://farm3.staticflickr.com/2633/4220891653_3743f1ab00.jpg","path":"493/26b/49326b2ebda81f86bda4707f4d735f15.jpg","date":"2009-12-25","year":2009,"month":12,"lon":142.61844,"lat":43.063416,"tags":"%E3%81%BB%E3%81%A3%E3%81%8B%E3%81%84%E3%81%A9%E3%81%86,%E3%82%86%E3%81%86%E3%81%B5%E3%81%A4%E3%81%90%E3%82%93,%E5%8B%87%E6%89%95%E9%83%A1,%E5%8C%97%E6%B5%B7%E9%81%93,%E6%97%A5%E6%9C%AC,%E6%97%A5%E6%9C%AC%E5%9B%BD,hokkaid%C5%8D,japan,tomamu+resort","S2CellId":"45d4000000000000","result":2755,"accuracy":0.46140102,"title":"IMG_3302"}
{"id":7226355146,"url":"http://farm8.staticflickr.com/7217/7226355146_df21f9192b.jpg","path":"fec/f96/fecf961f679a925b1099acdccc3bbfdd.jpg","date":"2012-05-19","year":2012,"month":5,"lon":141.35887,"lat":43.056282,"tags":"%E7%A9%BA","S2CellId":"882b34c400000000","result":8249,"accuracy":0.052414995,"title":"Antique"}
{"id":1098973453,"url":"http://farm2.staticflickr.com/1062/1098973453_fb5e80c37d.jpg","path":"59b/31a/59b31a3857cb3679dbe627c202a50.jpg","date":"2007-08-02","year":2007,"month":8,"lon":141.70663,"lat":44.36424,"tags":"%E5%8C%97%E6%B5%B7%E9%81%93,%E6%97%A5%E6%9C%AC,giant,hokkaido,japan,nopeeps,oversize,penguin,statue","S2CellId":"89a4000000000000","result":8776,"accuracy":0.05128661,"title":"Standing+Guard","description":"Giant+penguin+welcoming+visitors+to+a+town+in+northern+Hokkaido.++Photo+by+Steph."}
{"id":1401426605,"url":"http://farm2.staticflickr.com/1051/1401426605_53c75dcb45.jpg","path":"712/e80/712e80401764bb1b383254dc3c2cf1d.jpg","date":"2007-09-16","year":2007,"month":9,"lon":141.35516,"lat":43.00408,"tags":"bicycle,de,hokkaido,race,road,tour","S2CellId":"89b7b6c000000000","result":8846,"accuracy":0.037048656,"title":"IMG_0170"}
{"id":3215048839,"url":"http://farm4.staticflickr.com/3317/3215048839_603b020e07.jpg","path":"fdc/6dd/fdc6dd321c6f4f1c7a2e793ef41c418c.jpg","date":"2009-01-12","year":2009,"month":1,"lon":141.00746,"lat":43.1909,"tags":"%E5%B0%8F%E6%A8%BD,%E6%97%A5%E6%9C%AC,canon+ef+17-40mm+f4+l+usm,canon+eos+kiss+x,gps,japan,landscape,photo,snow,street,sunny,winter","S2CellId":"5f0ac00000000000","result":6346,"accuracy":0.3474139,"title":"MiNe-KissX_103-1156HG","description":"%E5%B0%8F%E6%A8%BD+%3E+%E5%A0%BA%E7%94%BA"}
{"id":8177895080,"url":"http://farm9.staticflickr.com/8342/8177895080_9fbae3cee6.jpg","path":"ab8/f8f/ab8f8f2efd66404c9b6aa13a71e0ca36.jpg","date":"2012-09-21","year":2012,"month":9,"lon":142.82727,"lat":43.662853,"tags":"hokkaido,japan","S2CellId":"46f9000000000000","result":3115,"accuracy":0.034805022,"title":"%E3%83%81%E3%83%B3%E3%82%B0%E3%83%AB%E3%83%9E","description":"%40%E6%97%AD%E5%B2%B3%E8%87%AA%E7%84%B6%E6%8E%A2%E5%8B%9D%E8%B7%AF"}
{"id":9071764143,"url":"http://farm8.staticflickr.com/7425/9071764143_fb04e4347a.jpg","path":"f99/381/f9938172a87db482b887c28dad152.jpg","date":"2013-04-27","year":2013,"month":4,"lon":141.00555,"lat":43.19467,"tags":"%E5%87%BA%E9%81%8A,%E5%8C%97%E6%B5%B7%E9%81%93,%E5%A0%BA%E7%94%BA,%E5%B0%8F%E6%A8%BD,%E6%97%A5%E6%9C%AC,dsc-rx100,hokkaido,japan,road,sony","S2CellId":"5f0ac00000000000","result":6346,"accuracy":0.033733983,"title":"%E5%A0%BA%E7%94%BA%E9%80%9A","description":"%E5%B0%8F%E6%A8%BD+%E5%A0%BA%E7%94%BA"}
{"id":7272480518,"url":"http://farm8.staticflickr.com/7085/7272480518_96af4b5d2e.jpg","path":"e35/261/e3526187b2539ce4c90565ff799287a.jpg","date":"2012-05-21","year":2012,"month":5,"lon":143.20369,"lat":42.919224,"tags":"%E3%81%8A%E3%81%B3%E3%81%B2%E3%82%8D%E5%8B%95%E7%89%A9%E5%9C%92,%E3%83%9B%E3%83%83%E3%82%AD%E3%83%A7%E3%82%AF%E3%82%B0%E3%83%9E","S2CellId":"60188c3000000000","result":6489,"accuracy":0.016936356,"title":"20120521_112936_ObihiroTKN","description":"%E3%81%8A%E3%81%B3%E3%81%B2%E3%82%8D%E5%8B%95%E7%89%A9%E5%9C%92%E3%80%802012%E5%B9%B45%E6%9C%8821%E6%97%A5"}
{"id":2053272505,"url":"http://farm3.staticflickr.com/2085/2053272505_f73402772e.jpg","path":"b23/8ec/b238ec2f7d9c8a713b776f5b574480f4.jpg","date":"2007-12-20","year":2007,"month":12,"lon":141.00557,"lat":43.196667,"tags":"canal,dusk,lights,night,otaru,reflection","S2CellId":"5f0ac00000000000","result":6346,"accuracy":0.16410501,"title":"Otaru+Canals","description":"In+the+Hokaido+region+of+Japan.%0A%0ATaken+on+a+trip+to+Japan+in+November+with+my+boyfriend+and+his+family."}
{"id":3487299551,"url":"http://farm4.staticflickr.com/3634/3487299551_92e7d5ddd2.jpg","path":"ab4/83c/ab483ca9b98bfcadb1925f7db8516b4f.jpg","date":"2009-04-29","year":2009,"month":4,"lon":141.53967,"lat":42.99489,"tags":"source_public","S2CellId":"88d0a631cabb5071","result":8563,"accuracy":0.0027276496,"title":"IMG_8485"}
{"id":7960339388,"url":"http://farm9.staticflickr.com/8170/7960339388_f308b9114b.jpg","path":"4d6/ee9/4d6ee9f64b958c22603cd6819435e8e9.jpg","date":"2012-09-09","year":2012,"month":9,"lon":141.4005,"lat":43.029366,"tags":"eye-fi,hokkaido+prefecture,japan,ntt%E3%82%B3%E3%83%A0%E3%80%80%E3%82%B7%E3%83%A3%E3%82%A4%E3%83%8B%E3%83%B3%E3%82%B0%E3%82%A2%E3%83%BC%E3%82%AF%E3%82%B9%E3%80%80%E3%83%A9%E3%82%B0%E3%83%93%E3%83%BC,sapporo","S2CellId":"5371740000000000","result":6053,"accuracy":0.16658689,"title":"IMGP9664.JPG"}
{"id":217431069,"url":"http://farm1.staticflickr.com/87/217431069_82fe8faab7.jpg","path":"21c/cc9/21ccc9fe57618bc39f2dc31da2fa7b9.jpg","date":"2006-08-13","year":2006,"month":8,"lon":143.21065,"lat":42.926075,"tags":"blue,color,explosion,firework,fireworks,green,light,multicolor","S2CellId":"12ce900000000000","result":891,"accuracy":0.19356185,"title":"Multicolored+Pop"}
{"id":3622214200,"url":"http://farm4.staticflickr.com/3406/3622214200_be613cebd7.jpg","path":"f9a/a79/f9aa79b9f8414710481c6240ae7fa5.jpg","date":"2009-06-13","year":2009,"month":6,"lon":141.3482,"lat":43.060925,"tags":"hokkaido,japan,june+2009,odori+koen,park,sapporo,sigma+70-300mm,yosakoi+soran+festival+2009","S2CellId":"47edc00000000000","result":4703,"accuracy":0.9255249,"title":"Do+you+really+love+me"}
{"id":1401742493,"url":"http://farm2.staticflickr.com/1383/1401742493_70706ed219.jpg","path":"c5c/13a/c5c13ab562dd379ef05c991e4a1cc593.jpg","date":"2007-09-14","year":2007,"month":9,"lon":142.47972,"lat":43.76948,"tags":"asahikawa,asahiyama,japan,zoo","S2CellId":"47e61d1d00000000","result":4562,"accuracy":0.037890043,"title":"IMG_0036"}
{"id":4240949818,"url":"http://farm5.staticflickr.com/4006/4240949818_2d5a802f93.jpg","path":"33d/0a0/33d0a0c0d713fa5843948b0c7dfbeb9.jpg","date":"2009-12-27","year":2009,"month":12,"lon":141.27182,"lat":43.089203,"tags":"%E3%81%84%E3%81%97%E3%82%84%E3%81%9B%E3%81%84%E3%81%8B,%E3%81%95%E3%81%A3%E3%81%BD%E3%82%8D%E3%81%97,%E3%81%97%E3%82%8D%E3%81%84%E3%81%93%E3%81%84%E3%81%B3%E3%81%A8,%E3%81%BB%E3%81%A3%E3%81%8B%E3%81%84%E3%81%A9%E3%81%86,%E5%8C%97%E6%B5%B7%E9%81%93,%E6%97%A5%E6%9C%AC,%E6%97%A5%E6%9C%AC%E5%9B%BD,%E6%9C%AD%E5%B9%8C,%E6%9C%B1%E5%8F%A4%E5%8A%9B%E5%A0%A1,%E7%99%BD%E3%81%84%E6%81%8B%E4%BA%BA,%E7%99%BD%E4%B9%8B%E6%88%80%E4%BA%BA,%E7%9F%B3%E5%B1%8B%E8%A3%BD%E8%8F%93,hokkaid%C5%8D,ishiya,japan,sapporo-shi,shiroi+koibito","S2CellId":"310951c000000000","result":1695,"accuracy":0.04313748,"title":"IMG_3879"}
{"id":8106825563,"url":"http://farm9.staticflickr.com/8472/8106825563_4a650de1d7.jpg","path":"d77/de2/d77de2b4f7f4abd528a865d7e9c0cd.jpg","date":"2012-10-21","year":2012,"month":10,"lon":141.73451,"lat":42.803555,"tags":"hudson,instagram+app,iphoneography,square,square+format","S2CellId":"5f70000000000000","result":6358,"accuracy":0.08723629,"title":"%E6%9D%91%E8%A8%88%E7%94%BB"}
{"id":21885670,"url":"http://farm1.staticflickr.com/16/21885670_63b8bc7f02.jpg","path":"c5b/96b/c5b96b7d1f9c4bd24d31c277cf82bcc.jpg","date":"2004-09-23","year":2004,"month":9,"lon":143.88022,"lat":43.64055,"tags":"japan","S2CellId":"48761b7000000000","result":5331,"accuracy":0.21390869,"title":"Wise+looking+dog.","description":"He+%28%3F%29+is+protecting+Chimikeppu+camping+site+in+Hokkaido."}
{"id":3654137722,"url":"http://farm4.staticflickr.com/3299/3654137722_bf1a2167e5.jpg","path":"508/e92/508e92abc5a11ecdf7e34f8c8ffe269.jpg","date":"2009-06-21","year":2009,"month":6,"lon":142.43109,"lat":43.628593,"tags":"43+km+e+of+takikawa,a350,dslr-a350,hokkaido,japan,sal1680z","S2CellId":"5f0d000000000000","result":6352,"accuracy":0.1356032,"title":"DSC09817"}
{"id":3653468087,"url":"http://farm4.staticflickr.com/3395/3653468087_963019854b.jpg","path":"abc/f6f/abcf6fc1627695671678c846374b3edf.jpg","date":"2009-06-19","year":2009,"month":6,"lon":141.4273,"lat":43.12636,"tags":"source_public","S2CellId":"486e1b0000000000","result":4959,"accuracy":0.050428223,"title":"%E3%82%8F%E3%82%93%E3%81%93"}
{"id":6058912750,"url":"http://farm7.staticflickr.com/6089/6058912750_97cb23cb13.jpg","path":"a57/c50/a57c508ed53bc242aea2fd405c41b2a9.jpg","date":"2011-08-15","year":2011,"month":8,"lon":141.67863,"lat":42.786907,"tags":"%E5%8D%83%E6%AD%B3,%E6%96%B0%E5%8D%83%E6%AD%B3%E7%A9%BA%E6%B8%AF,%E7%A9%BA%E6%B8%AF","S2CellId":"88dd7fac00000000","result":8631,"accuracy":0.042117417,"title":"%E3%82%B7%E3%83%A5%E3%82%BF%E3%82%A4%E3%83%95+%E3%83%8D%E3%82%A4%E3%83%81%E3%83%A3%E3%83%BC%E3%83%AF%E3%83%BC%E3%83%AB%E3%83%89","description":"%E6%96%B0%E5%8D%83%E6%AD%B3%E7%A9%BA%E6%B8%AF"}
{"id":260669384,"url":"http://farm1.staticflickr.com/116/260669384_6a318ea39c.jpg","path":"e78/c96/e78c9673256c5e5e82da717481e8599.jpg","date":"2006-10-02","year":2006,"month":10,"lon":141.61377,"lat":42.900112,"tags":"200610-yetpih","S2CellId":"3442aa7000000000","result":2063,"accuracy":0.10549969,"title":"P1010043"}
{"id":2738132966,"url":"http://farm4.staticflickr.com/3044/2738132966_665a299f45.jpg","path":"2ed/e3c/2ede3ce184a485bec491b99b3aaaf21c.jpg","date":"2008-08-03","year":2008,"month":8,"lon":141.00742,"lat":43.190796,"tags":"%E5%8C%97%E6%B5%B7%E9%81%93,%E5%B0%8F%E6%A8%BD,hokkaido,japan","S2CellId":"8842400000000000","result":8397,"accuracy":0.036187533,"title":"%E9%A6%AC%E8%BB%8A"}
{"id":3825278519,"url":"http://farm3.staticflickr.com/2575/3825278519_c023d14c94.jpg","path":"d4c/ec7/d4cec76365b884a38fad215345ff46.jpg","date":"2009-08-15","year":2009,"month":8,"lon":141.42552,"lat":43.140667,"tags":"source_public","S2CellId":"88d0a631cabb5071","result":8563,"accuracy":0.05663291,"title":"%E3%83%96%E3%83%AB%E3%83%BC%E3%83%99%E3%83%AA%E3%83%BC"}
{"id":8177957696,"url":"http://farm9.staticflickr.com/8205/8177957696_05c3fe4e37.jpg","path":"666/67c/66667ce49ceb91115721e9cee1a1a817.jpg","date":"2012-09-21","year":2012,"month":9,"lon":142.82835,"lat":43.664165,"tags":"hokkaido,japan","S2CellId":"5496c00000000000","result":6278,"accuracy":0.028031128,"title":"%E9%8F%A1%E6%B1%A0","description":"%40%E6%97%AD%E5%B2%B3%E8%87%AA%E7%84%B6%E6%8E%A2%E5%8B%9D%E8%B7%AF"}
{"id":8344230299,"url":"http://farm9.staticflickr.com/8363/8344230299_c4bbcfd67c.jpg","path":"402/9c0/4029c08e48a781ee45c72849b835a379.jpg","date":"2012-12-25","year":2012,"month":12,"lon":142.9129,"lat":43.731415,"tags":"2012,d800,japan%E6%97%A5%E6%9C%AC,mountdaisetsu%E5%A4%A7%E9%9B%AA%E5%B1%B1,nikkor%E5%B0%BC%E5%85%8B%E5%B0%9424mm-70mmf2.8,nikon%E5%B0%BC%E5%BA%B7","S2CellId":"5f0ac00000000000","result":6346,"accuracy":0.20396672,"title":"_DSC9289"}
{"id":8821523332,"url":"http://farm6.staticflickr.com/5341/8821523332_4de17b253a.jpg","path":"708/146/708146adb7afe1d45db722684f73e24.jpg","date":"2013-05-24","year":2013,"month":5,"lon":141.33911,"lat":43.06161,"tags":"%E5%8C%97%E6%B5%B7%E9%81%93,%E6%97%A5%E6%9C%AC,%E6%9C%AD%E5%B9%8C,2006,hokkaido,hotel,japan,sapporo","S2CellId":"89d0400000000000","result":9221,"accuracy":0.15516408,"title":"Sapporo+Hotel","description":"No%2C+I+don%27t+know+which+hotel."}
{"id":7346591482,"url":"http://farm8.staticflickr.com/7233/7346591482_efaeb85437.jpg","path":"8dc/6a3/8dc6a3e2fa2f6b03b5055399f872f35.jpg","date":"2012-05-23","year":2012,"month":5,"lon":141.31989,"lat":43.05553,"tags":"%E5%86%86%E5%B1%B1%E5%8B%95%E7%89%A9%E5%9C%92","S2CellId":"6018e30000000000","result":6528,"accuracy":0.06533556,"title":"20120523_112724_MaruyamaTKN","description":"%E5%86%86%E5%B1%B1%E5%8B%95%E7%89%A9%E5%9C%9220120523"}
{"id":6922816563,"url":"http://farm8.staticflickr.com/7180/6922816563_f0f38369d2.jpg","path":"dce/13e/dce13ef74f93d347ca28ff143b58c4b7.jpg","date":"2011-11-13","year":2011,"month":11,"lon":141.33911,"lat":43.06161,"tags":"%E6%9C%AD%E5%B9%8C%E3%80%80%E5%8C%97%E6%B5%B7%E9%81%93%E3%80%80%E6%97%A5%E6%9C%AC,2011,hokkaido,japan,sapporo,starbucks","S2CellId":"60188bfc00000000","result":6484,"accuracy":0.02881481,"title":"DSC_0050"}
{"id":7161384769,"url":"http://farm8.staticflickr.com/7080/7161384769_0c6c495542.jpg","path":"21b/3e5/21b3e582c803cd86b42664e11166f4.jpg","date":"2012-05-23","year":2012,"month":5,"lon":141.31989,"lat":43.05553,"tags":"%E5%86%86%E5%B1%B1%E5%8B%95%E7%89%A9%E5%9C%92","S2CellId":"87d8b54000000000","result":8008,"accuracy":0.09378339,"title":"20120523_112148_MaruyamaTKN","description":"%E5%86%86%E5%B1%B1%E5%8B%95%E7%89%A9%E5%9C%9220120523"}
{"id":4221804031,"url":"http://farm5.staticflickr.com/4030/4221804031_a9bc337fd9.jpg","path":"b55/e71/b55e71518cb1d48c337eb4f1caea8e93.jpg","date":"2009-12-27","year":2009,"month":12,"lon":141.27182,"lat":43.089203,"tags":"%E3%81%84%E3%81%97%E3%82%84%E3%81%9B%E3%81%84%E3%81%8B,%E3%81%95%E3%81%A3%E3%81%BD%E3%82%8D%E3%81%97,%E3%81%97%E3%82%8D%E3%81%84%E3%81%93%E3%81%84%E3%81%B3%E3%81%A8,%E3%81%BB%E3%81%A3%E3%81%8B%E3%81%84%E3%81%A9%E3%81%86,%E5%8C%97%E6%B5%B7%E9%81%93,%E6%97%A5%E6%9C%AC,%E6%97%A5%E6%9C%AC%E5%9B%BD,%E6%9C%AD%E5%B9%8C,%E6%9C%B1%E5%8F%A4%E5%8A%9B%E5%A0%A1,%E7%99%BD%E3%81%84%E6%81%8B%E4%BA%BA,%E7%99%BD%E4%B9%8B%E6%88%80%E4%BA%BA,%E7%9F%B3%E5%B1%8B%E8%A3%BD%E8%8F%93,hokkaid%C5%8D,ishiya,japan,sapporo-shi,shiroi+koibito","S2CellId":"80dcd7d100000000","result":7349,"accuracy":0.10664031,"title":"IMG_3910"}
{"id":2117212347,"url":"http://farm3.staticflickr.com/2290/2117212347_74c99f3885.jpg","path":"754/a16/754a162cd65f77a42dcdb17d2caefbc5.jpg","date":"2006-03-02","year":2006,"month":3,"lon":141.1841,"lat":42.453735,"tags":"hokkaido,noboribetsu,noboribetsu+marine+park,penguin","S2CellId":"6b12ae3b00000000","result":6685,"accuracy":0.024050178,"title":"Penguin+%40+Noboribetsu+Marine+Park"}
{"id":2815829126,"url":"http://farm4.staticflickr.com/3091/2815829126_2a774d7257.jpg","path":"526/62d/52662d8d56d283e7ba65ae4cb938057.jpg","date":"2008-08-23","year":2008,"month":8,"lon":141.34924,"lat":42.948154,"tags":"%E3%82%A4%E3%83%BC%E3%82%B9%E3%82%BF%E3%83%BC%E5%B3%B6,%E3%82%A8%E3%82%A2%E3%83%90%E3%82%B9,%E3%82%B8%E3%83%A3%E3%83%B3%E3%83%9C,%E3%83%9C%E3%83%BC%E3%82%A4%E3%83%B3%E3%82%B0,%E3%83%A2%E3%82%A2%E3%82%A4,%E5%85%A8%E6%97%A5%E7%A9%BA,%E5%8C%97%E6%B5%B7%E9%81%93,%E5%90%8D%E5%8F%A4%E5%B1%8B,%E5%A4%9C%E6%99%AF,%E6%96%B0%E5%8D%83%E6%AD%B3,%E6%97%A5%E6%9C%AC%E8%88%AA%E7%A9%BA,%E6%BB%9D%E9%87%8E%E9%9C%8A%E5%9C%92,%E7%A9%BA%E6%92%AE,%E7%A9%BA%E6%B8%AF,%E9%A3%9B%E8%A1%8C%E6%A9%9F,%EF%BC%97%EF%BC%97%EF%BC%97,777,air,ana,boeing,bus,chitose,ctj,easter,hokkaido,island,jal,japan,line,moai,nagoya,ngo,nh,night,reine,sky,takino","S2CellId":"4b5f000000000000","result":5826,"accuracy":0.06803877,"title":"CIMG3829"}
{"id":2825254868,"url":"http://farm4.staticflickr.com/3180/2825254868_467c640d5e.jpg","path":"669/c4f/669c4ff2e2cc982852c9124534152b5.jpg","date":"2008-08-23","year":2008,"month":8,"lon":142.37749,"lat":43.348587,"tags":"%E5%8C%97%E6%B5%B7%E9%81%93,%E6%97%85%E9%81%8A,%E6%97%A5%E6%9C%AC,japan,travel","S2CellId":"89c9b00000000000","result":9209,"accuracy":0.20859683,"title":"080822+%E5%8C%97%E6%B5%B7%E9%81%93%E4%BA%94%E6%97%A5%E9%81%8A+061"}
{"id":259880855,"url":"http://farm1.staticflickr.com/104/259880855_3987672cc9.jpg","path":"c04/f39/c04f397291af2894b15ffbd38f6da9.jpg","date":"2006-09-29","year":2006,"month":9,"lon":143.19305,"lat":42.936317,"tags":"200610-yetpih","S2CellId":"89c2588f00000000","result":8969,"accuracy":0.025194671,"title":"DSC07171"}
{"id":2824642429,"url":"http://farm4.staticflickr.com/3106/2824642429_e4366c0382.jpg","path":"10d/166/10d1667f1cb6106a5f65e539d7264988.jpg","date":"2008-08-23","year":2008,"month":8,"lon":142.37749,"lat":43.348587,"tags":"%E5%8C%97%E6%B5%B7%E9%81%93,%E6%97%85%E9%81%8A,%E6%97%A5%E6%9C%AC,japan,travel","S2CellId":"8084500000000000","result":6907,"accuracy":0.0077275326,"title":"080822+%E5%8C%97%E6%B5%B7%E9%81%93%E4%BA%94%E6%97%A5%E9%81%8A+089"}
{"id":3217893704,"url":"http://farm4.staticflickr.com/3441/3217893704_8195955445.jpg","path":"66c/c2f/66cc2fb49b863a917f2c0395c5bd2c5.jpg","date":"2009-01-13","year":2009,"month":1,"lon":141.34937,"lat":43.064095,"tags":"%E6%97%A5%E6%9C%AC,%E6%9C%AD%E5%B9%8C,canon+ef+17-40mm+f4+l+usm,canon+eos+kiss+x,gps,historical,japan,landscape,office,park,photo,snow,sunny,winter","S2CellId":"5f0b2c0000000000","result":6349,"accuracy":0.72407186,"title":"MiNe-KissX_103-1343HG","description":"%E6%9C%AD%E5%B9%8C+%3E+%E5%8C%97%E6%B5%B7%E9%81%93%E5%BA%81%E6%97%A7%E6%9C%AC%E5%BA%81%E8%88%8E"}
{"id":2648415914,"url":"http://farm4.staticflickr.com/3041/2648415914_3a340527c1.jpg","path":"157/128/1571288279e2da5bff8b9137c2fc367f.jpg","date":"2006-10-01","year":2006,"month":10,"lon":141.34769,"lat":43.06011,"tags":"family,hokkaido,japan,sapporo,sep2006,trip","S2CellId":"5f0b2c0000000000","result":6349,"accuracy":0.58530146,"title":"20061001DSC_0059"}
{"id":4675156082,"url":"http://farm5.staticflickr.com/4008/4675156082_87e90b7fee.jpg","path":"842/d52/842d52f9721af29e17cd05cadf1856d.jpg","date":"2010-06-06","year":2010,"month":6,"lon":142.36273,"lat":43.76511,"tags":"%E4%B8%80%E6%9D%A1%E9%80%9A,%E5%8C%97%E6%B5%B7%E9%81%93,%E6%97%AD%E5%B7%9D,%E6%97%AD%E5%B7%9D%E9%A7%85%E5%89%8D,%E6%9D%B1%E6%A8%AA,%E6%9D%B1%E6%A8%AA%E3%82%A4%E3%83%B3,%E6%9D%B1%E6%A8%AAinn,asahikawa,bathroom,hokkaido,hotel,toyoko+inn","S2CellId":"346e767000000000","result":2218,"accuracy":0.007084268,"title":"%E6%9D%B1%E6%A8%AA%E3%82%A4%E3%83%B3%E6%97%AD%E5%B7%9D%E9%A7%85%E5%89%8D%E4%B8%80%E6%9D%A1%E9%80%9A"}
{"id":2647524161,"url":"http://farm3.staticflickr.com/2339/2647524161_9abd890b0f.jpg","path":"b70/5ca/b705caeb9a2556163c986b6056aec2.jpg","date":"2006-09-29","year":2006,"month":9,"lon":141.34769,"lat":43.06011,"tags":"family,japan,night,sapporo,sep2006,trip,view","S2CellId":"80c2bf7000000000","result":7183,"accuracy":0.027453696,"title":"20060929DSC_0045"}
{"id":443595748,"url":"http://farm1.staticflickr.com/182/443595748_91f189efb7.jpg","path":"f18/21d/f1821d8fef9d6476e77e0ce247dcfcb.jpg","date":"2006-03-02","year":2006,"month":3,"lon":141.00488,"lat":43.19335,"tags":"%E5%8C%97%E6%B5%B7%E9%81%93,%E5%B0%8F%E6%A8%BD,%E6%97%A5%E6%9C%AC,hokkaido,japan,otaru","S2CellId":"5f0b2c0000000000","result":6349,"accuracy":0.08235343,"title":"%E4%B8%8D%E8%80%81%E9%A4%A8","description":"%E8%B7%AF%E4%B8%8A%E9%82%84%E6%9C%89%E9%80%99%E5%80%8B%EF%BC%8C%0A%E4%BC%BC%E4%B9%8E%E6%98%AF%E8%B3%A3%E6%98%86%E5%B8%83%E7%9A%84...%0A%E7%89%8C%E5%AD%90%E4%B8%8A%E5%AF%AB%E5%90%83%E4%B8%83%E5%A4%A9%E4%B9%8B%E5%BE%8C%E7%85%A7%E9%8F%A1%E5%AD%90...%0A%E4%BC%BC%E4%B9%8E%E6%9C%89%E7%A5%9E%E6%95%88%3F"}
{"id":3822459321,"url":"http://farm3.staticflickr.com/2502/3822459321_051a9719e7.jpg","path":"942/69f/94269f68e34c7e7517493ba8f7cc.jpg","date":"2009-07-26","year":2009,"month":7,"lon":141.34383,"lat":42.94436,"tags":"green,park","S2CellId":"88d9d00000000000","result":8604,"accuracy":0.010563917,"title":"sapporo+artpark","description":"%E8%8A%B8%E8%A1%93%E3%81%AE%E6%A3%AE"}
{"id":8148396770,"url":"http://farm9.staticflickr.com/8050/8148396770_bb0ac87b16.jpg","path":"ab5/f4c/ab5f4c45c211c3e4fec454999e8b27c.jpg","date":"2012-10-30","year":2012,"month":10,"lon":141.6828,"lat":42.787907,"tags":"%E5%85%A8%E6%97%A5%E6%9C%AC%E7%A9%BA%E8%BC%B8%E6%A0%AA%E5%BC%8F%E4%BC%9A%E7%A4%BE,%E6%96%B0%E5%8D%83%E6%AD%B3%E7%A9%BA%E6%B8%AF,737-700,airport,airways,all,ana,boeing,chitose,cts,ja03an,new,nh,nippon,rjcc","S2CellId":"6018640000000000","result":6457,"accuracy":0.28703237,"title":"JA03AN","description":"All+Nippon+Airways+Boeing+737-700%0A%0ANew+Chitose+Airport"}
{"id":194095717,"url":"http://farm1.staticflickr.com/59/194095717_d7deef6459.jpg","path":"895/c7a/895c7a851e9229353719901d4e1f9d1b.jpg","date":"2005-09-28","year":2005,"month":9,"lon":141.3549,"lat":43.057724,"tags":"fotofresco","S2CellId":"150329cc00000000","result":1362,"accuracy":0.008126766,"title":"Gremlins+2"}
{"id":4688493714,"url":"http://farm5.staticflickr.com/4056/4688493714_62cbd2056f.jpg","path":"457/488/457488c3a26934510e1b5fcf23a54c.jpg","date":"2010-06-07","year":2010,"month":6,"lon":142.79706,"lat":43.650032,"tags":"%E5%8C%97%E6%B5%B7%E9%81%93,%E5%B1%B1%E9%BA%93%E9%A7%85,%E6%97%AD%E5%B2%B3%E3%83%AD%E3%83%BC%E3%83%97%E3%82%A6%E3%82%A7%E3%82%A4,%E6%97%AD%E5%B2%B3%E6%B8%A9%E6%B3%89,%E6%97%AD%E5%B2%B3%E6%BA%AB%E6%B3%89,%E6%9D%B1%E5%B7%9D,higashikawa,hokkaido","S2CellId":"5f70000000000000","result":6358,"accuracy":0.24022971,"title":"%E6%97%AD%E5%B2%B3%E3%83%AD%E3%83%BC%E3%83%97%E3%82%A6%E3%82%A7%E3%82%A4"}
{"id":1533516275,"url":"http://farm3.staticflickr.com/2418/1533516275_0a125c656f.jpg","path":"6c4/41e/6c441e88ac6b78cc268e56ab3cd4a11d.jpg","date":"2007-10-10","year":2007,"month":10,"lon":141.35258,"lat":43.060986,"tags":"eos,kissdx,lensbabies,lensbaby,lensbaby3g","S2CellId":"5f0b2c0000000000","result":6349,"accuracy":0.057074368,"title":"2007+10+10+024"}
{"id":3820822048,"url":"http://farm4.staticflickr.com/3564/3820822048_063bb9cdc1.jpg","path":"79e/7f9/79e7f98adffc743c53ccfc222863c015.jpg","date":"2009-08-14","year":2009,"month":8,"lon":141.43181,"lat":43.12561,"tags":"source_public","S2CellId":"548ff00000000000","result":6177,"accuracy":0.0053760665,"title":"%E8%B6%B3"}
{"id":443591550,"url":"http://farm1.staticflickr.com/172/443591550_9843cdce42.jpg","path":"43e/531/43e5316ef2dbf788dba3f3fa61fc.jpg","date":"2006-03-02","year":2006,"month":3,"lon":141.34444,"lat":43.066505,"tags":"%E5%8C%97%E6%B5%B7%E9%81%93,%E6%97%A5%E6%9C%AC,%E6%9C%AD%E5%B9%8C,hokkaido,japan,keio+plaza,sapporo","S2CellId":"5f0b2c0000000000","result":6349,"accuracy":0.2726251,"title":"Keio+Plaza+Hotel+Sapporo","description":"%E5%89%8D%E5%BE%8C%E4%B8%80%E5%85%B1%E4%BD%8F%E4%BA%86%E4%B8%89%E6%99%9A%E7%9A%84+Keio+Plaza%EF%BC%8C%0A%E9%9B%96%E7%84%B6%E9%9B%A2%E8%BB%8A%E7%AB%99%E6%9C%89%E9%BB%9E%E5%B0%8F%E9%81%A0+%28700+m+%E5%B7%A6%E5%8F%B3%E5%90%A7%29%EF%BC%8C%0A%E4%BD%86%E6%98%AF%E9%82%84%E6%98%AF%E6%8E%A8%E8%96%A6%EF%BC%81%0A%E5%9B%A0%E7%82%BA+View+%E8%B6%85%E5%A5%BD%7E"}
{"id":3654169560,"url":"http://farm4.staticflickr.com/3377/3654169560_9bbcb43a86.jpg","path":"144/51b/14451b3b6b1218e92d4334a98c9ab179.jpg","date":"2009-06-19","year":2009,"month":6,"lon":141.42586,"lat":43.121918,"tags":"source_public","S2CellId":"88d0a631cabb5071","result":8563,"accuracy":0.015417707,"title":"%E9%B3%A5"}
{"id":4692874147,"url":"http://farm5.staticflickr.com/4034/4692874147_e698026d9a.jpg","path":"e34/c98/e34c98da714a1bcc7e2dc737bbe473e3.jpg","date":"2010-06-12","year":2010,"month":6,"lon":141.34889,"lat":43.059372,"tags":"%E5%8C%97%E6%B5%B7%E9%81%93,%E5%A4%A7%E9%80%9A%E5%85%AC%E5%9C%92,%E6%9C%AD%E5%B9%8C,hokkaido,sapporo,yosakoi%E3%82%BD%E3%83%BC%E3%83%A9%E3%83%B3%E7%A5%AD%E3%82%8A","S2CellId":"8830fbc000000000","result":8292,"accuracy":0.09265073,"title":"YOSAKOI%E3%82%BD%E3%83%BC%E3%83%A9%E3%83%B3%E7%A5%AD%E3%82%8A"}
{"id":8769904824,"url":"http://farm8.staticflickr.com/7404/8769904824_b452a7cafc.jpg","path":"72f/70a/72f70af15db15bef9b103dd15971fd.jpg","date":"2011-09-18","year":2011,"month":9,"lon":142.06454,"lat":44.81667,"tags":"%E4%B8%AD%E5%B7%9D%E7%94%BA,%E5%8C%97%E6%B5%B7%E9%81%93,%E6%97%A5%E6%9C%AC,hokkaido,japan,nakagawa","S2CellId":"94ce59f000000000","result":9723,"accuracy":0.0317911,"title":"DSC_0018b"}
{"id":5532105194,"url":"http://farm6.staticflickr.com/5214/5532105194_20ab47a073.jpg","path":"b6e/420/b6e420e14c2e919c52f7297cf38d22.jpg","date":"2011-02-28","year":2011,"month":2,"lon":142.33406,"lat":43.77605,"tags":"%E3%81%82%E3%81%95%E3%81%B2%E3%81%8B%E3%82%8F%E3%81%97,%E3%81%82%E3%81%95%E3%81%B2%E3%81%8B%E3%82%8F%E3%81%97%E3%81%82%E3%81%95%E3%81%B2%E3%82%84%E3%81%BE%E3%81%A9%E3%81%86%E3%81%B6%E3%81%A4%E3%81%88%E3%82%93,%E3%81%95%E3%81%A3%E3%81%BD%E3%82%8D%E3%81%97,%E3%81%AB%E3%81%A3%E3%81%BD%E3%82%93,%E3%81%BB%E3%81%A3%E3%81%8B%E3%81%84%E3%81%A9%E3%81%86,%E5%8C%97%E6%A5%B5%E7%86%8A,%E5%8C%97%E6%B5%B7%E9%81%93,%E6%97%A5%E6%9C%AC,%E6%97%AD%E5%B7%9D%E5%B8%82%E6%97%AD%E5%B1%B1%E5%8B%95%E7%89%A9%E5%9C%92,%E6%9C%AD%E5%B9%8C,18-200vr,d7000,hokkaido,japan,nikon,sapporo","S2CellId":"60188e9000000000","result":6514,"accuracy":0.062115088,"title":"%E7%99%BD%E7%86%8A%E9%98%BF%E5%85%AC...%E6%A8%99%E6%9C%AC"}
{"id":5341228513,"url":"http://farm6.staticflickr.com/5050/5341228513_001334f0ef.jpg","path":"f84/2f3/f842f3d3c95989c39efe5565c97256.jpg","date":"2011-01-08","year":2011,"month":1,"lon":142.63866,"lat":43.474895,"tags":"hokkaido,japan,shirogane,snow,snowshoeing","S2CellId":"54907c0000000000","result":6223,"accuracy":0.03696164,"title":"Waterfall"}
{"id":1542307633,"url":"http://farm3.staticflickr.com/2364/1542307633_eebdb7c518.jpg","path":"d18/c2a/d18c2a967ad54e28f63998de236182.jpg","date":"2006-09-30","year":2006,"month":9,"lon":141.07802,"lat":42.6736,"tags":"eos,kissdx","S2CellId":"80dd317000000000","result":7376,"accuracy":0.0130421845,"title":"20060930_EOS_0287"}
{"id":5149836451,"url":"http://farm2.staticflickr.com/1222/5149836451_84216b2e2d.jpg","path":"644/f3d/644f3d1f9ef6addc874870bb70fe9752.jpg","date":"2010-11-06","year":2010,"month":11,"lon":141.26633,"lat":42.801334,"tags":"hokkaido,iphone,lake","S2CellId":"601fc00000000000","result":6559,"accuracy":0.19798563,"title":"okotanpe+lake","description":"%E5%8C%97%E6%B5%B7%E9%81%93%E4%B8%89%E5%A4%A7%E7%A7%98%E6%B9%96%E3%82%89%E3%81%97%E3%81%84%E3%82%AA%E3%82%B3%E3%82%BF%E3%83%B3%E3%83%9A%E6%B9%96%EF%BC%81%0A%0Afrom+my+iPhone"}
{"id":4708436841,"url":"http://farm5.staticflickr.com/4035/4708436841_9ea008ff0e.jpg","path":"f25/bcf/f25bcf9b7e494d1d6877bbb8d8394.jpg","date":"2009-10-10","year":2009,"month":10,"lon":141.335,"lat":43.066166,"tags":"%E6%9C%AD%E5%B9%8C,hokkaido,pentax+k-m","S2CellId":"89c6fc0000000000","result":9178,"accuracy":0.0053366795}
{"id":2647567537,"url":"http://farm4.staticflickr.com/3205/2647567537_bc4979f869.jpg","path":"29f/cd8/29fcd87639a98d4241f9fc7b1030f71c.jpg","date":"2006-09-30","year":2006,"month":9,"lon":142.38968,"lat":43.349148,"tags":"farm,furano,tomita","S2CellId":"5f0d000000000000","result":6352,"accuracy":0.2923721,"title":"20060930DSC_0291"}
{"id":7398862480,"url":"http://farm8.staticflickr.com/7103/7398862480_77b649020e.jpg","path":"dca/6e0/dca6e02bee7c48bd6e5b53e058149d.jpg","date":"2012-06-19","year":2012,"month":6,"lon":142.47589,"lat":43.768772,"tags":"eye-fi","S2CellId":"5ff8400000000000","result":6373,"accuracy":0.040597945,"title":"CIMG3167.JPG","description":"%3Ca+href%3D%22http%3A%2F%2Fwww.eyefi.co.jp%22+rel%3D%22nofollow%22%3EEye-Fi%3C%2Fa%3E%E3%81%8B%E3%82%89%E3%82%A2%E3%83%83%E3%83%97%E3%83%AD%E3%83%BC%E3%83%89%E3%81%95%E3%82%8C%E3%81%BE%E3%81%97%E3%81%9F"}
{"id":4670490352,"url":"http://farm5.staticflickr.com/4025/4670490352_cb7cfceaca.jpg","path":"a79/d42/a79d42b8f8ceade87af2a477794c59.jpg","date":"2009-08-19","year":2009,"month":8,"lon":141.32812,"lat":43.149094,"tags":"hokkaido,japan,travel","S2CellId":"6000ec0000000000","result":6388,"accuracy":0.16478921,"title":"IMG_5492","description":"Asahiyama+Zoo%2C+Hokkaido%2C+Japan"}
