{"id":8753909438,"url":"http://farm8.staticflickr.com/7316/8753909438_0231c59c0f.jpg","path":"92a/b6e/92ab6ec1af6bcb1b951b9cb9bbf38.jpg","date":"2013-05-19","year":2013,"month":5,"lon":24.419947,"lat":60.27099,"tags":"amaro,instagram+app,iphoneography,square,square+format","S2CellId":"5488c00000000000","result":6153,"accuracy":0.0038453296,"title":"%23bridge"}
{"id":9185329009,"url":"http://farm4.staticflickr.com/3688/9185329009_2a30587280.jpg","path":"391/8ba/3918baee32f2eb1d91c035d0cf67b397.jpg","date":"2013-07-02","year":2013,"month":7,"lon":24.955584,"lat":60.18576,"tags":"amaro,instagram+app,iphoneography,square,square+format","S2CellId":"5f0b2c0000000000","result":6349,"accuracy":0.004095269,"title":"%23keynes+%23lukupiiri+%23helsinki"}
{"id":10649146193,"url":"http://farm6.staticflickr.com/5484/10649146193_30c760ff33.jpg","path":"6f3/a95/6f3a951f35d134aca375a0ff3eef6b92.jpg","date":"2013-11-03","year":2013,"month":11,"lon":24.871244,"lat":60.24784,"tags":"cx,cyclocross,hel,vpcx","S2CellId":"468df00000000000","result":2973,"accuracy":0.6673831,"title":"HEL+CX+3.11.2013+082"}
{"id":11543478385,"url":"http://farm4.staticflickr.com/3820/11543478385_8567761dbe.jpg","path":"a6f/c97/a6fc97922461db57056556f2f2d4b8.jpg","date":"2013-12-22","year":2013,"month":12,"lon":24.945833,"lat":60.166527,"tags":"2013,808,cameraphone,carl+zeiss,christmas,christmas+supermarket+hours,december,erotta-jankatu,finland,helsinki,hours,hugovk,hvk,nokia,nokia+808+pureview,pureview,southern+finland,supermarket,talvi,uudenmaan+maakunta,winter","S2CellId":"88e0a40000000000","result":8645,"accuracy":0.002425584,"title":"Christmas+supermarket+hours"}
{"id":2055295958,"url":"http://farm3.staticflickr.com/2329/2055295958_04b3a2562d.jpg","path":"1c2/d44/1c2d44a9f768fb1b88a445c9f52b15be.jpg","date":"2007-11-22","year":2007,"month":11,"lon":24.975828,"lat":60.208736,"tags":"bluetagged,bt%3D001a8905bd8f,ctxflickr,finland,helsinki,jaiku","S2CellId":"47d9fc0000000000","result":4490,"accuracy":0.19317701,"title":"20071122T181150","description":"Qiang+built+this+phone+concept+for+professional+Chinese+women+-+the+Jiejie+target+group+-+through+a+user+study+in+Beijing+and+Chengdu.+A+good+study%2C+not+sure+about+the+concept..."}
{"id":3791025112,"url":"http://farm3.staticflickr.com/2471/3791025112_338e794fc7.jpg","path":"cec/b5c/cecb5c52eff0c8bc8be5b6f3b0e0e282.jpg","date":"2009-06-23","year":2009,"month":6,"lon":24.95082,"lat":60.155457,"tags":"finland,finlandia,helsinki","S2CellId":"4810100000000000","result":4787,"accuracy":0.03596901,"title":"Marina"}
{"id":6127437262,"url":"http://farm7.staticflickr.com/6065/6127437262_e78a3235c8.jpg","path":"2c5/476/2c54761969a090ca6c51ab5249cc59.jpg","date":"2011-08-11","year":2011,"month":8,"lon":24.945787,"lat":60.175304,"tags":"botanic+garden,color,colour,detail,finland,green,helsingfors,helsinki,if+i%27d+paint,kaisaniemi,kasvitieteellinen+puutarha,pekka+nikrus,pni,skrubu,suomi,surface,wall","S2CellId":"5351f00000000000","result":6036,"accuracy":0.008246689,"title":"Greenhouse+Wall+1"}
{"id":6937673630,"url":"http://farm8.staticflickr.com/7193/6937673630_6994d69b5b.jpg","path":"e06/3c3/e063c3353b40c97e315459c99b16ff1f.jpg","date":"2011-04-17","year":2011,"month":4,"lon":24.976023,"lat":60.20825,"tags":"aaltofablab,fablab","S2CellId":"89c2670000000000","result":9088,"accuracy":0.007944999,"title":"IMG_0951.JPG"}
{"id":7407025316,"url":"http://farm6.staticflickr.com/5111/7407025316_cbe525a3b4.jpg","path":"62a/d32/62ad3226163b59d392de6a7ad8f56f2.jpg","date":"2012-06-12","year":2012,"month":6,"lon":24.950142,"lat":60.16752,"tags":"helsinki","S2CellId":"4652533000000000","result":2860,"accuracy":0.0924039,"title":"DSCF0915"}
{"id":7955547036,"url":"http://farm9.staticflickr.com/8440/7955547036_1479308303.jpg","path":"ac5/e51/ac5e514da049d924d889816d8486a64.jpg","date":"2012-09-08","year":2012,"month":9,"lon":24.991566,"lat":60.148407,"tags":"fishing,mato-onki,onki,sampsa","S2CellId":"4440000000000000","result":2748,"accuracy":0.038607348,"title":"image"}
{"id":12612254153,"url":"http://farm4.staticflickr.com/3706/12612254153_fd6e371f8a.jpg","path":"ae4/dba/ae4dba7c22cef9f6f812543fba411f89.jpg","date":"2014-02-18","year":2014,"month":2,"lon":24.92621,"lat":60.1845,"tags":"etel%C3%A4-suomen+l%C3%A4%C3%A4ni,eye-fi,finland,helsinki","S2CellId":"882ac00000000000","result":8237,"accuracy":0.09213148,"title":"Yleis%C3%B6luistelua+Olympiastadionilla"}
{"id":53748815,"url":"http://farm1.staticflickr.com/33/53748815_43448a2a72.jpg","path":"e57/c48/e57c4886f2129280be344af8e46232.jpg","date":"2005-04-12","year":2005,"month":4,"lon":24.94875,"lat":60.164997,"tags":"farmacuter,helsinki,pinse,pinsest%C3%A6vne","S2CellId":"80c8c3c000000000","result":7231,"accuracy":0.022770673,"title":"Pinse2005+009"}
{"id":876891720,"url":"http://farm2.staticflickr.com/1033/876891720_87fe312c17.jpg","path":"984/058/9840587968e31fde233960e12d95d7fb.jpg","date":"2007-07-16","year":2007,"month":7,"lon":24.985388,"lat":60.14104,"tags":"finland,helsinki,raphael+gerber,sea+fortress,seefestung,suomenlinna,toilet","S2CellId":"46920b9000000000","result":2990,"accuracy":0.25227895,"title":"Suomenlinna+Toilet","description":"Toilettenhaus."}
{"id":3746775211,"url":"http://farm3.staticflickr.com/2455/3746775211_6676a2c3b1.jpg","path":"b4d/9cc/b4d9cc332aaf7852f5b823286ae688b.jpg","date":"2009-07-22","year":2009,"month":7,"lon":24.929667,"lat":60.161835,"tags":"finland","S2CellId":"46920bcf00000000","result":2996,"accuracy":0.01727116,"title":"photo+4.jpg"}
{"id":7406979462,"url":"http://farm9.staticflickr.com/8167/7406979462_035bb6ca26.jpg","path":"ec1/57b/ec157b6e9a8d89da39a06539f4ba31.jpg","date":"2012-06-12","year":2012,"month":6,"lon":24.942007,"lat":60.170612,"tags":"helsinki,restaurant","S2CellId":"5140000000000000","result":5964,"accuracy":0.01303334,"title":"DSCF0865"}
{"id":11936497546,"url":"http://farm6.staticflickr.com/5518/11936497546_2b1e3cf2a7.jpg","path":"361/162/361162ccce0135fcc20b1ec48ffd847.jpg","date":"2014-01-13","year":2014,"month":1,"lon":24.937813,"lat":60.154194,"tags":"instagram+app,iphoneography,square,square+format,valencia","S2CellId":"46920bb000000000","result":2991,"accuracy":0.01857037,"title":"%23winter%23helsinki"}
{"id":410256257,"url":"http://farm1.staticflickr.com/185/410256257_8c280e7c91.jpg","path":"7bc/23b/7bc23b662044f814beeef726b47494b0.jpg","date":"2006-07-26","year":2006,"month":7,"lon":24.912153,"lat":60.163574,"tags":"2006,finland,urban","S2CellId":"47a851cc00000000","result":3933,"accuracy":0.025264958,"title":"P7263632"}
{"id":871347794,"url":"http://farm2.staticflickr.com/1225/871347794_87f3d9b938.jpg","path":"f6c/f2c/f6cf2c85573adf96bd5d1625485d4e64.jpg","date":"2007-07-22","year":2007,"month":7,"lon":24.962406,"lat":60.167812,"tags":"bluetagged,bt%3D0011a53044cf,bt%3D0015a07b0d52,bt%3D006057e9894e,ctxflickr,finland,helsinki,jaiku,katajanokka","S2CellId":"8085809400000000","result":6947,"accuracy":0.02352442,"title":"20070722T205550"}
{"id":2428032302,"url":"http://farm3.staticflickr.com/2079/2428032302_d5ea4d5271.jpg","path":"39a/d7d/39ad7df9ff5f8d5a9483f9ef917c54.jpg","date":"2008-04-19","year":2008,"month":4,"lon":24.946281,"lat":60.17102,"tags":"finland,party,people,travel","S2CellId":"808e440000000000","result":7005,"accuracy":0.018312173}
{"id":5906198800,"url":"http://farm6.staticflickr.com/5272/5906198800_50a3fcd941.jpg","path":"2fe/253/2fe253be343a3fedd18797a732b2e74d.jpg","date":"2011-07-02","year":2011,"month":7,"lon":24.965443,"lat":60.150806,"tags":"bird,common+gull,gull,s%C3%A4rkk%C3%A4,seagull,stroll,walk","S2CellId":"46920b9000000000","result":2990,"accuracy":0.2200927,"title":"Stroll","description":"Kalalokki%2C+Larus+canus%2C+Common+gull"}
{"id":377498620,"url":"http://farm1.staticflickr.com/132/377498620_b620ca2c05.jpg","path":"785/b7c/785b7c13fa7b02b875a91077d73013.jpg","date":"2007-02-02","year":2007,"month":2,"lon":24.96289,"lat":60.20447,"tags":"abigfave,bush,darkness,exactum,finland,helsinki,isawyoufirst,kumpula,light,lumi,n73,physicum,snow,suomi,tree,valo","S2CellId":"465f9d7000000000","result":2928,"accuracy":0.014396669,"title":"020220071713","description":"There+is+nobody+here+yet...++It+is+a+perfect+moment+to+go+off-road...++Mankind+can+wait..."}
{"id":1053546950,"url":"http://farm2.staticflickr.com/1213/1053546950_fb0dcc3e48.jpg","path":"c38/e3b/c38e3b5a97e834ec3059279a1828a217.jpg","date":"2007-08-08","year":2007,"month":8,"lon":24.937548,"lat":60.172066,"tags":"architecture,evening,urban","S2CellId":"47b0700000000000","result":3972,"accuracy":0.007116546,"title":"Varjostin%2Fheijastin","description":"Couldn%27t+resist+capturing+the+reflections+of+the+evening+lights+from+the+glass+wall+of+the+Sanomatalo+in+downtown+Helsinki"}
{"id":1222834518,"url":"http://farm2.staticflickr.com/1267/1222834518_6d410a738b.jpg","path":"ba4/e47/ba4e47b69c9c1861b1dc356e6ce095.jpg","date":"2007-08-24","year":2007,"month":8,"lon":24.975828,"lat":60.208736,"tags":"arabia,bluetagged,bt%3D001a8905bd8f,ctxflickr,finland,helsinki,jaiku,taik,uiah","S2CellId":"880e2ca700000000","result":8119,"accuracy":0.021791287,"title":"20070824T160048","description":"She%27s+Larisa%2C+originally+from+Indonesia+but+now+in+Denmark.+She+had+a+steep+learning+curve+in+glass+studio."}
{"id":3617348509,"url":"http://farm4.staticflickr.com/3358/3617348509_fb666b4a14.jpg","path":"f5b/3df/f5b3df1fc6159bf175e65219c2e34c8.jpg","date":"2009-06-06","year":2009,"month":6,"lon":24.480585,"lat":60.401096,"tags":"multisport,no+limit","S2CellId":"4861084000000000","result":4845,"accuracy":0.1556749,"title":"IMG_4969"}
{"id":5510991375,"url":"http://farm6.staticflickr.com/5254/5510991375_9af5d71bf0.jpg","path":"5e1/bde/5e1bdec24e159e62fc51accb7366b7c3.jpg","date":"2011-03-05","year":2011,"month":3,"lon":24.972702,"lat":60.18663,"tags":"2011,art,camera+phone,carl+zeiss,finland,fiskhalmen,helsingfors,helsinki,hermanni,hugovk,hvk,kalasatama,kalasatama+temporary,kev%C3%A4t,lumi,maaliskuu,march,n8,n8-00,nokia,nokia+n8,nokia+n8-00,nyland,sculpture,snow,snow+sculpture,southern+finland,spring,suomi,talvi,uudenmaan+maakunta,uusimaa,winter","S2CellId":"5f0b2c0000000000","result":6349,"accuracy":0.017449092,"title":"Kalasatama+Temporary"}
{"id":218649546,"url":"http://farm1.staticflickr.com/92/218649546_c5bd0d4ed4.jpg","path":"fc1/d32/fc1d32dadc555ceb643cd7882a2e9133.jpg","date":"2006-08-18","year":2006,"month":8,"lon":24.96291,"lat":60.16726,"tags":"bluetagged,bt%3D0011a53044cf,bt%3D0015a07b0d52,ctxflickr,finland,helsinki,home,l%C3%A4nsi-mustasaari,suomenlinna","S2CellId":"4cca400000000000","result":5905,"accuracy":0.003918412,"title":"20060818T224330"}
{"id":1228460579,"url":"http://farm2.staticflickr.com/1096/1228460579_081cdf0905.jpg","path":"1c8/eb2/1c8eb286427623673d9289df28953.jpg","date":"2007-08-25","year":2007,"month":8,"lon":24.975828,"lat":60.208736,"tags":"arabia,bluetagged,bt%3D000e07ab92a7,bt%3D000fde1c74eb,bt%3D001124b147b8,bt%3D0014514cd06a,bt%3D0015a07b0d52,bt%3D0015a098f2e0,bt%3D0016cb29aa6e,bt%3D0017b06070b2,bt%3D0017f2a95228,bt%3D001842efe09b,bt%3D001a8905bd8f,bt%3D001baf7f87bf,ctxflickr,finland,helsinki,jaiku,taik,uiah","S2CellId":"465f9d7000000000","result":2928,"accuracy":0.0038642,"title":"20070825T094628","description":"Studying+bathrooms+with+disposable+cameras%21"}
{"id":2587174369,"url":"http://farm4.staticflickr.com/3086/2587174369_83db904c7a.jpg","path":"752/533/7525335af72fcf913f520bb9b9946e.jpg","date":"2008-06-06","year":2008,"month":6,"lon":24.85695,"lat":60.229355,"tags":"0.68++km+to+k%C3%A5nala++in+southern+finland+finland,1915,2008,ab,abandoned,asema,asema+3,base,base+xxxv,base+xxxv%3A3,camera,digital,digital+camera+ds5mp,ds5mp,finland,first+world+war,fortification,fortress,fortress+of+sveaborg,helsingfors,helsinki,hugovk,hvk,imag4095,june,junk,k%C3%A5nala,kes%C3%A4,kes%C3%A4kuu,krepost,krepost+sveaborg,m%C3%A4kkyl%C3%A4,maalinnoitus,nyland,p%C3%A4iv%C3%A4l%C3%A4isen+puisto,position+3,reimarlia,remains,russian,southern+finland,summer,suomi,sveaborg,trench,tukikohta,tukikohta+xxxv,tukikohta+xxxv%3A3,uudenmaan+maakunta,uusimaa,war,world+war+1,world+war+one,ww1,ww1+trench+junk,wwi,xxxv,xxxv%3A3","S2CellId":"12c9100000000000","result":838,"accuracy":0.010484613,"title":"WW1+trench+junk","description":"Base+XXXV%3A3+%281915%29+%28P%C3%A4iv%C3%A4l%C3%A4isen+puisto%2C+Reimarlia%2C+Helsinki%2C+Finland%29%0A+%3C%3E"}
{"id":2954782237,"url":"http://farm4.staticflickr.com/3221/2954782237_80fa4986a1.jpg","path":"ee9/074/ee90747cdc28341cc99f30f87e428b51.jpg","date":"2008-10-19","year":2008,"month":10,"lon":24.98841,"lat":60.144478,"tags":"cameraphone,finland,helsinki,iso+mustasaari,suomenlinna,susisaari,zip%3A00190,zonetag","S2CellId":"46920b9000000000","result":2990,"accuracy":0.4287432,"title":"2008_200810_20081019_153113_03.JPG","description":"ZoneTag%3A+%3Ca+href%3D%22http%3A%2F%2Fzonetag.research.yahoo.com%2Fphotos%2Findex.php%3Fflickrname%3Dekurvine%22%3EPhotosphere%3C%2Fa%3E+%2F+%3Ca+href%3D%22http%3A%2F%2Fzonetag.research.yahoo.com%2F%22%3EAbout%3C%2Fa%3E.+%3Ci%3EOwner+only%3C%2Fi%3E%3A+%3Ca+href%3D%22http%3A%2F%2Fzonetag.research.yahoo.com%2FsetLocation.php%3Fflickrid%3D2954782237%22%3EFix+Location%3C%2Fa%3E+%2F+%3Ca+target%3D%22popup%22+href%3D%22http%3A%2F%2Fzonetag.research.yahoo.com%2Fsuggestedtags.php%3Fflickrid%3D2954782237%22%3EAdd+Tags%3C%2Fa%3E+%2F+%3Ca+href%3D%22http%3A%2F%2Fzonetag.research.yahoo.com%2Fmyzonetag.php%22%3ESettings%3C%2Fa%3E"}
{"id":2711237191,"url":"http://farm4.staticflickr.com/3146/2711237191_1a623b623a.jpg","path":"5d4/22e/5d422ece23289f974cdc9683ddc6e8.jpg","date":"2008-07-26","year":2008,"month":7,"lon":24.959736,"lat":60.168606,"tags":"cathedral,domkyrka,finland,helsingfors,helsingin,helsinki,suomi,suurkirkko,tuomiokirkko","S2CellId":"46920bc400000000","result":2992,"accuracy":0.16037537,"title":"Helsinki+Cathedral","description":"as+seen+from+Uspensky+Cathedral"}
{"id":3283020624,"url":"http://farm4.staticflickr.com/3620/3283020624_497c4fb7bc.jpg","path":"f39/3be/f393be95498ae0301de5831ab072e26a.jpg","date":"2009-02-15","year":2009,"month":2,"lon":24.930927,"lat":60.19873,"tags":"abandoned+room,decay,finland,helsinki,old+machines,suomi,tranquil,urban+explorers,urban+exploring","S2CellId":"80d9c00000000000","result":7307,"accuracy":0.010599613,"title":"A+Room","description":"Abandoned+room+at+Pasila+train+yard+%28Helsinki%2C+Finland%29.+This+room+is+in+timeless+state%2C+it+was+left+in+a+hurry.+Everything+is+covered+with+this+fine+white+powder.+There+must+have+been+a+start+of+a+fire.+Floor+is+covered+by+thick+ice+and+water+is+still+pouring+from+almost+frozen+pipe+lines.+Smell+is+weird.+Everything+is+covered+with+small+to+tiny+feet+marks%3B+birds%2C+mices%2C+rats.+We+can%C2%B4t+stay+too+long."}
{"id":3725979731,"url":"http://farm3.staticflickr.com/2586/3725979731_fbe11be100.jpg","path":"b85/95a/b8595ae3f02f8c16b6807f4447b48e4.jpg","date":"2009-07-08","year":2009,"month":7,"lon":24.958319,"lat":60.16217,"tags":"2009,8th,finland,harbor,helsinki,july,skyline","S2CellId":"4692934000000000","result":3009,"accuracy":0.083321795,"title":"Helsinki+Skyline"}
{"id":5643709675,"url":"http://farm6.staticflickr.com/5109/5643709675_c9d69bab54.jpg","path":"20a/73a/20a73a7047ae3f9d9aedc842cfb5402d.jpg","date":"2011-04-18","year":2011,"month":4,"lon":24.949972,"lat":60.16759,"tags":"finl%C3%A0ndia,finland","S2CellId":"46920bcf00000000","result":2996,"accuracy":0.17459019,"title":"DSC_5722.JPG"}
{"id":8978430129,"url":"http://farm9.staticflickr.com/8122/8978430129_28bcabf8dd.jpg","path":"720/405/720405ebfdb5b459986f606449d38.jpg","date":"2013-06-07","year":2013,"month":6,"lon":24.893475,"lat":60.222595,"tags":"alppiruusu,finland,haaga,helsinki,pekka+j%C3%A4rvel%C3%A4inen,rhododendron,rodopuisto","S2CellId":"47d8f40000000000","result":4466,"accuracy":0.014654573,"title":"IMG_3902","description":"Alppiruusuja"}
{"id":6129472847,"url":"http://farm7.staticflickr.com/6203/6129472847_f48b8b8785.jpg","path":"9d1/be4/9d1be4b92164c9caf26fa122aebb1387.jpg","date":"2011-08-19","year":2011,"month":8,"lon":24.934666,"lat":60.169334,"tags":"finland,helsginfors,helsinki,suomi","S2CellId":"465f9d7000000000","result":2928,"accuracy":0.1194186,"title":"helsinki"}
{"id":7201317026,"url":"http://farm6.staticflickr.com/5039/7201317026_987afc8498.jpg","path":"d59/3ca/d593ca815a5cb4a55266dadcfd5fd.jpg","date":"2012-05-15","year":2012,"month":5,"lon":24.941969,"lat":60.160812,"tags":"helsinki,instagram+app,iphoneography,popparienkeli,record+store,square,square+format","S2CellId":"469631c000000000","result":3032,"accuracy":0.027787214,"title":"Popparienkeli+has+left+the+building"}
{"id":8525734884,"url":"http://farm9.staticflickr.com/8104/8525734884_825a302a18.jpg","path":"92c/418/92c418da4f1b43f326382597a8496.jpg","date":"2013-02-13","year":2013,"month":2,"lon":24.947647,"lat":60.16742,"tags":"helsinki,lappland","S2CellId":"4cb8950000000000","result":5865,"accuracy":0.23414615,"title":"130213_Finnland_098"}
{"id":9617277212,"url":"http://farm8.staticflickr.com/7355/9617277212_c62731dbe9.jpg","path":"653/dd7/653dd7da6a85d72517138d3510f64.jpg","date":"2013-08-28","year":2013,"month":8,"lon":24.811771,"lat":60.17389,"tags":"espoo,finland,sateentie","S2CellId":"1345000000000000","result":1160,"accuracy":0.008276778,"title":"Sunset"}
{"id":3068477603,"url":"http://farm4.staticflickr.com/3071/3068477603_a8b496d947.jpg","path":"f45/c46/f45c46778a040b644e8053637085f5.jpg","date":"2008-11-29","year":2008,"month":11,"lon":24.931095,"lat":60.174286,"tags":"botta,burning,finland,fire,helsinki,museokatu,ostrabotnia,toolo,tulipalo","S2CellId":"89c258fb00000000","result":8987,"accuracy":0.0050686877,"title":"Bottan+tulipalo","description":"Bottan+tulipalo+29.11.08"}
{"id":3102288458,"url":"http://farm4.staticflickr.com/3075/3102288458_6824c650c4.jpg","path":"10d/09f/10d09f29c96c94c1b45af784a5b7c031.jpg","date":"2008-12-12","year":2008,"month":12,"lon":24.94008,"lat":60.1711,"tags":"2008,200812,finland,helsinki,shozu","S2CellId":"46920bcd00000000","result":2995,"accuracy":0.45956042,"title":"200812121430","description":"-+Camera+phone+upload+powered+by+%3Ca+href%3D%22http%3A%2F%2Fwww.shozu.com%2F%3Futm_source%3Dupload%26utm_medium%3Dgraphic%26utm_campaign%3Dupload_graphic%2F%22+target%3D%22_newwindow%22%3EShoZu%3C%2Fa%3E"}
{"id":3636705732,"url":"http://farm4.staticflickr.com/3301/3636705732_fe124d0e0b.jpg","path":"e45/820/e45820553ca819d68e1f92bdfed2f14.jpg","date":"2009-05-24","year":2009,"month":5,"lon":24.935944,"lat":60.183994,"tags":"blue,colour,eurooppa,europe,exposure,finland,green,helsingfors,helsinki,leaves,multiexposure,multiple,multipleexposure,nature,pekka+nikrus,pni,skrubu,suomi,t%C3%B6%C3%B6l%C3%B6nlahti,t%C3%B6l%C3%B6viken,tree,tripleexposure","S2CellId":"47e66e2b00000000","result":4611,"accuracy":0.05684356,"title":"Multiple+Nature+54"}
{"id":5148226954,"url":"http://farm5.staticflickr.com/4027/5148226954_160e13dfae.jpg","path":"46a/432/46a4323abe858e94c157f7a3788eae99.jpg","date":"2010-11-04","year":2010,"month":11,"lon":24.935163,"lat":60.170784,"tags":"finland,helsinki","S2CellId":"876c900000000000","result":7897,"accuracy":0.020195065,"title":"TEDx+Helsinki"}
{"id":7231145250,"url":"http://farm8.staticflickr.com/7216/7231145250_65a5df7609.jpg","path":"562/37a/56237ae8a082bc651be536f2305f3.jpg","date":"2012-05-19","year":2012,"month":5,"lon":24.774754,"lat":60.733727,"tags":"365%2B1+for+2012,happiness,may,project365","S2CellId":"864e640000000000","result":7620,"accuracy":0.01704243,"title":"Happy+Sunday%21+366%2F140+May+19%2C+2012","description":"Telemann%3A+Concerto+for+flute%2C+violin+and+cello+in+A+major+%3Ca+href%3D%22http%3A%2F%2Fwww.youtube.com%2Fwatch%3Fv%3D1TNnkudruig%22+rel%3D%22nofollow%22%3Ewww.youtube.com%2Fwatch%3Fv%3D1TNnkudruig%3C%2Fa%3E"}
{"id":389174993,"url":"http://farm1.staticflickr.com/183/389174993_309f7dabca.jpg","path":"354/486/3544864d37c707d512e22c5a0edfe7a.jpg","date":"2006-05-28","year":2006,"month":5,"lon":24.940086,"lat":60.166992,"tags":"helsinki,tree","S2CellId":"94ce59f000000000","result":9723,"accuracy":0.009070577,"title":"IMG_8974.jpg"}
{"id":434903655,"url":"http://farm1.staticflickr.com/186/434903655_be1fc3c413.jpg","path":"18f/32f/18f32ffbe0cd6f4bc8f6928feacda348.jpg","date":"2007-03-25","year":2007,"month":3,"lon":24.91166,"lat":60.17156,"tags":"graveyard,helsinki,tree,walkway","S2CellId":"468ec00000000000","result":2975,"accuracy":0.048989024,"title":"Walkway+%232"}
{"id":7378425558,"url":"http://farm6.staticflickr.com/5326/7378425558_3996ccce4a.jpg","path":"936/d5f/936d5f3a57e443ca81e48999698cf4a.jpg","date":"2012-06-15","year":2012,"month":6,"lon":24.983381,"lat":60.17497,"tags":"animals,ef+70-300mm,h%C3%B6gholmen,outdoors,peacock,summer,telefoto,zoo","S2CellId":"88d0a631cabb5071","result":8563,"accuracy":0.05195875,"title":"Portr%C3%A4tt+p%C3%A5+p%C3%A5f%C3%A5gel"}
{"id":12082587965,"url":"http://farm8.staticflickr.com/7326/12082587965_136742d02b.jpg","path":"2e7/b74/2e7b74eff5ffedf760c8caca44ef5c2a.jpg","date":"2014-01-22","year":2014,"month":1,"lon":24.810047,"lat":60.167667,"tags":"2014,365%2F22,beautiful+january,beautifully+frozen+reed,diamonds+in+the+snow,espoo,finland,horizon,ice,mlearning,morning+meditation,pad2014-365,personal+learning+space,westend","S2CellId":"88fd000000000000","result":8754,"accuracy":0.014726562,"title":"%22Gone+with+the+Wind%22+%28365%2F22+Jan.+22%2C+2014%29","description":"Guitar%3A+Wes+Montgomery%0APiano%3A+Tommy+Flanagan%0ABass%3A+Percy+Heath%0ADrums%3A+Albert+%22Tootie%22+Heath%0A%281960%29+%3Ca+href%3D%22http%3A%2F%2Fyoutu.be%2F0ur7F_ZRHDA%22+rel%3D%22nofollow%22%3Eyoutu.be%2F0ur7F_ZRHDA%3C%2Fa%3E"}
{"id":247484138,"url":"http://farm1.staticflickr.com/93/247484138_a1cbfbbc7b.jpg","path":"444/220/4442204dac825baf43d241a0bfe140.jpg","date":"2006-09-16","year":2006,"month":9,"lon":24.90386,"lat":60.162216,"tags":"cable,factory,finland,helsinki,places,travel","S2CellId":"465253c000000000","result":2863,"accuracy":0.02295698,"title":"cable+factory"}
{"id":440724546,"url":"http://farm1.staticflickr.com/209/440724546_b847a716da.jpg","path":"c26/515/c2651574b87089407575f5b2c3c2ce6.jpg","date":"2007-03-31","year":2007,"month":3,"lon":24.990063,"lat":60.14783,"tags":"bluetagged,bt%3D0011a53044cf,bt%3D0015a07b0d52,ctxflickr,finland,helsinki,iso+mustasaari,jaiku,suomenlinna","S2CellId":"54c5000000000000","result":6306,"accuracy":0.017325573,"title":"20070331T165420"}
{"id":2342574295,"url":"http://farm4.staticflickr.com/3012/2342574295_d41c0d53ca.jpg","path":"021/3a6/0213a6899eb6cc3974d8b35f3da60ab.jpg","date":"2007-08-19","year":2007,"month":8,"lon":24.92712,"lat":60.170036,"tags":"baltic,cruise,europe,finland,helsinki,travel","S2CellId":"89c25a1b00000000","result":9050,"accuracy":0.010645518,"title":"Baltic19-08-2007+04.33.17"}
{"id":2385073756,"url":"http://farm3.staticflickr.com/2279/2385073756_35a8b5cfb7.jpg","path":"739/d48/739d486067e796d12ba1550c8158e87.jpg","date":"2004-09-26","year":2004,"month":9,"lon":24.840645,"lat":60.187878,"tags":"grey,otaniemi,peer,seaside,standing,stubborn,wind","S2CellId":"469c000000000000","result":3042,"accuracy":0.060539935,"title":"Stubborn"}
{"id":2711235879,"url":"http://farm4.staticflickr.com/3293/2711235879_f144553e54.jpg","path":"aff/a6a/affa6a774993d6a5a5cfaf26b9be5ac1.jpg","date":"2008-07-26","year":2008,"month":7,"lon":24.945444,"lat":60.161972,"tags":"finland,helsinki,suomi","S2CellId":"46b54a5400000000","result":3063,"accuracy":0.09444597,"title":"DSC00062"}
{"id":2867778964,"url":"http://farm4.staticflickr.com/3283/2867778964_a87a002ae7.jpg","path":"ecc/a72/ecca72962ebc6a7748b51223743d78c2.jpg","date":"2008-09-18","year":2008,"month":9,"lon":24.96341,"lat":60.31754,"tags":"cameraphone,n82photo,rolandtanglaophoto,shozu","S2CellId":"3442aef000000000","result":2090,"accuracy":0.005723951,"title":"09182008876","description":"-+Camera+phone+upload+powered+by+%3Ca+href%3D%22http%3A%2F%2Fwww.shozu.com%2F%3Futm_source%3Dupload%26utm_medium%3Dgraphic%26utm_campaign%3Dupload_graphic%2F%22+target%3D%22_newwindow%22%3EShoZu%3C%2Fa%3E"}
{"id":10754059075,"url":"http://farm8.staticflickr.com/7406/10754059075_68104a11bd.jpg","path":"086/86b/08686b15c3c702b545821ed69a5cff6.jpg","date":"2013-07-13","year":2013,"month":7,"lon":24.993011,"lat":60.14832,"tags":"church,finland,helsinki,iso+mustasaari,lighthouse,suomenlinna+church,suomenlinnan+kirkko","S2CellId":"46920b9000000000","result":2990,"accuracy":0.4650472,"title":"Suomenlinna+Church","description":"View+of+the+lighthouse+mounted+on+top+of+the+dome+of+the+Suomenlinna+Church+on+the+Iso+Mustasaari+island+in+the+Helsinki+archipelago%2C+making+it+one+of+the+few+churches+in+the+world+that+also+doubles+as+a+lighthouse."}
{"id":328993096,"url":"http://farm1.staticflickr.com/128/328993096_b0e7bc3038.jpg","path":"373/2e2/3732e2f3d5f3d9b05451d18dd3bc.jpg","date":"2006-12-21","year":2006,"month":12,"lon":24.892445,"lat":60.16013,"tags":"bluetagged,bt%3D00119f0620b1,bt%3D0011a53044cf,bt%3D0015a07b0d52,ctxflickr,finland,helsinki,jaiku,lauttasaari","S2CellId":"4773940000000000","result":3396,"accuracy":0.03349653,"title":"20061221T132002"}
{"id":1481936833,"url":"http://farm2.staticflickr.com/1163/1481936833_7195ba1b27.jpg","path":"baa/9c5/baa9c523d3ef5bf4e4786940d1c9702.jpg","date":"2007-10-04","year":2007,"month":10,"lon":24.946175,"lat":60.171585,"tags":"kamerak%C3%A4nnyk%C3%A4st%C3%A4,kinopalatsi","S2CellId":"85d2010000000000","result":7483,"accuracy":0.017260972,"title":"Taitaa+olla+joku+lasten+esitys."}
{"id":1508345386,"url":"http://farm3.staticflickr.com/2405/1508345386_b72202617a.jpg","path":"c47/371/c473711bbd3f81fae4b6ead9984882c.jpg","date":"2007-10-04","year":2007,"month":10,"lon":24.900146,"lat":60.162907,"tags":"autumn,espoo,helsinki,lauttasaari,night","S2CellId":"4773940000000000","result":3396,"accuracy":0.023436803,"title":"Old+bridge+to+Lauttasaari"}
{"id":2601383779,"url":"http://farm4.staticflickr.com/3246/2601383779_4914d8b79d.jpg","path":"7ae/680/7ae680a3decf9fb0b96676f125d7ffd.jpg","date":"2008-06-19","year":2008,"month":6,"lon":24.952955,"lat":60.166878,"tags":"boat,harbour","S2CellId":"487e100000000000","result":5634,"accuracy":0.062292803,"title":"Helsinki+Harbour%2C+1%3A00am"}
{"id":3797398033,"url":"http://farm3.staticflickr.com/2489/3797398033_4316e8551b.jpg","path":"da9/c89/da9c89c469a6a74e6cc1fe5fa547cd.jpg","date":"2009-08-07","year":2009,"month":8,"lon":24.94521,"lat":60.16619,"tags":"finland,helsinki,shozu","S2CellId":"808fcc9000000000","result":7071,"accuracy":0.033440582,"title":"200908074982","description":"-+uploaded+by+%3Ca+href%3D%22http%3A%2F%2Fwww.shozu.com%2F%3Futm_source%3Dupload%26utm_medium%3Dgraphic%26utm_campaign%3Dupload_graphic%2F%22+target%3D%22_newwindow%22+rel%3D%22nofollow%22%3EShoZu%3C%2Fa%3E"}
{"id":8193345636,"url":"http://farm9.staticflickr.com/8209/8193345636_f8e6e4a749.jpg","path":"66a/fa0/66afa0478ded48a758b52a624db068f4.jpg","date":"2012-09-03","year":2012,"month":9,"lon":24.948223,"lat":60.17127,"tags":"2012,808,architecture,autumn,bibliotek,bibliotheque,book,building,cameraphone,carl+zeiss,dor%C3%A9,fabianinkatu,finland,gustave,gustave+dor%C3%A9,gustave+dor%C3%A9+illustration,helsinki+university,helsinki+university+library,hugovk,hvk,illustration,john+milton,kaisa-talo,kaisaniemi,kirja,kirjasto,library,main+library,milton,new,nokia,nokia+808+pureview,opening+day,paradise+lost,porkkala,pureview,russian,september,southern+finland,syksy,tavastia+proper,university","S2CellId":"4ec0000000000000","result":5959,"accuracy":0.04058993,"title":"Gustave+Dor%C3%A9+illustration","description":"In+a+Russian+translation+of+Milton%27s+Paradise+Lost.%0A%0ATaken+deep+in+the+cellars+on+the+opening+day+in+Helsinki+university%27s+new+main+library%2C+Kaisa+House+or+Kaisa-talo.+The+seven+floors+above+ground+have+large+windows+that+let+in+lots+of+light.+There%27s+four+floors+underground+and+access+to+Kaisaniemi+Metro.%0A%0A%3Ca+href%3D%22http%3A%2F%2Fwww.gaudeamus.fi%2Fkirjakahvila%2F%3Fp%3D7432%22+rel%3D%22nofollow%22%3Ewww.gaudeamus.fi%2Fkirjakahvila%2F%3Fp%3D7432%3C%2Fa%3E%0A%3Ca+href%3D%22http%3A%2F%2Fwww.srv.fi%2Fen%2Fkaisa-talo%22+rel%3D%22nofollow%22%3Ewww.srv.fi%2Fen%2Fkaisa-talo%3C%2Fa%3E"}
{"id":9060518048,"url":"http://farm4.staticflickr.com/3746/9060518048_49b4f28eb1.jpg","path":"b31/9e3/b319e3ec3fe1e22cbeb521294e823dc.jpg","date":"2013-06-16","year":2013,"month":6,"lon":24.740395,"lat":60.1884,"tags":"instagram+app,iphoneography,rise,square,square+format","S2CellId":"479bc00000000000","result":3811,"accuracy":0.0037452464,"title":"upload"}
{"id":10780718296,"url":"http://farm4.staticflickr.com/3729/10780718296_d466447c0b.jpg","path":"571/17a/57117a49803eb9a153e0c687705b97ca.jpg","date":"2008-07-03","year":2008,"month":7,"lon":24.83129,"lat":60.17785,"tags":"her%C3%A4tt%C3%A4j%C3%A4juhlat,lepp%C3%A4vaara","S2CellId":"46920a3000000000","result":2985,"accuracy":0.06510232,"title":"img_0023","description":"Her%C3%A4tt%C3%A4j%C3%A4juhlat%2C+Espoo"}
{"id":12765041035,"url":"http://farm8.staticflickr.com/7322/12765041035_4176ae84b9.jpg","path":"44a/b4f/44ab4fb660d52336d6c1c2e90cf3519.jpg","date":"2014-02-16","year":2014,"month":2,"lon":24.938246,"lat":60.17943,"tags":"animal,bird,duck,finland,finlands+nationalopera,finnish+national+opera,fog,helsingfors,helsinki,ice,kansallisooppera,mist,opera,pekka+nikrus,pni,skrubu,suomi,t%C3%B6%C3%B6l%C3%B6nlahti,t%C3%B6l%C3%B6viken,water","S2CellId":"471ecc4000000000","result":3239,"accuracy":0.08722984,"title":"Outside+The+Opera"}
{"id":2223904605,"url":"http://farm3.staticflickr.com/2185/2223904605_e0df573015.jpg","path":"fb3/97e/fb397e94846b29dc825a61afc247c7.jpg","date":"2008-01-27","year":2008,"month":1,"lon":24.952814,"lat":60.152836,"tags":"door,evening,helsinki","S2CellId":"4651000000000000","result":2842,"accuracy":0.013567308,"title":"IMG_9694"}
{"id":2682747669,"url":"http://farm4.staticflickr.com/3104/2682747669_4bbdffeca7.jpg","path":"974/8d2/9748d228751e259bd44f0d2326e1e74.jpg","date":"2008-07-04","year":2008,"month":7,"lon":24.953405,"lat":60.167698,"tags":"2008,auto,automobiel,autoshow,car,helsinki","S2CellId":"4797c40000000000","result":3769,"accuracy":0.06590935}
{"id":6417558807,"url":"http://farm8.staticflickr.com/7004/6417558807_4677312ba2.jpg","path":"54f/358/54f358cf8531ffedb099238047276038.jpg","date":"2011-11-28","year":2011,"month":11,"lon":24.815832,"lat":60.17,"tags":"espoo,finland,finlandia","S2CellId":"47c5e10000000000","result":4293,"accuracy":0.025995066,"title":"Monday+morning+sunrise"}
{"id":219013007,"url":"http://farm1.staticflickr.com/93/219013007_83058f38f9.jpg","path":"228/bfe/228bfe1bd8054387ffda167a433fe83.jpg","date":"2006-08-19","year":2006,"month":8,"lon":24.949474,"lat":60.184868,"tags":"bluetagged,bt%3D0015a07b0d52,bt%3D00164e165bef,church,ctxflickr,finland,h%C3%A4%C3%A4t,helsinki,kallio,tero+ja+kikka,wedding","S2CellId":"47e66e7000000000","result":4623,"accuracy":0.023408126,"title":"20060819T124432"}
{"id":3501660534,"url":"http://farm4.staticflickr.com/3361/3501660534_bdbe40acdf.jpg","path":"14e/088/14e08810ab0d78e6a743bceccee8eda.jpg","date":"2009-05-04","year":2009,"month":5,"lon":24.923492,"lat":60.77094,"tags":"hausj%C3%A4rvi,hiki%C3%A4,shozu","S2CellId":"5140000000000000","result":5964,"accuracy":0.2036147,"title":"04052009116","description":"-+uploaded+by+%3Ca+href%3D%22http%3A%2F%2Fwww.shozu.com%2F%3Futm_source%3Dupload%26utm_medium%3Dgraphic%26utm_campaign%3Dupload_graphic%2F%22+target%3D%22_newwindow%22%3EShoZu%3C%2Fa%3E"}
{"id":6200077043,"url":"http://farm7.staticflickr.com/6134/6200077043_807d9f4fc1.jpg","path":"2fa/6e8/2fa6e8bf4a22ade7838ad2bc28bd5627.jpg","date":"2011-10-01","year":2011,"month":10,"lon":24.990414,"lat":60.138004,"tags":"finland,helsinki,suomenlinna","S2CellId":"46920b9000000000","result":2990,"accuracy":0.9571026,"title":"2011_201110_20111001_112719_09"}
{"id":5538203436,"url":"http://farm6.staticflickr.com/5293/5538203436_f453916f11.jpg","path":"34a/441/34a4411e6db67e341d7465d812e3ac.jpg","date":"2009-09-13","year":2009,"month":9,"lon":24.8812,"lat":60.14633,"tags":"finland,helsinki,lauttasaari,southern+finland,uusimaa","S2CellId":"89e4d00000000000","result":9371,"accuracy":0.03147131,"title":"Helsinki+-+Lauttasaari"}
{"id":8028330419,"url":"http://farm9.staticflickr.com/8450/8028330419_cb7e9a1ee3.jpg","path":"614/146/614146c892c6911df5e6b4d9ce21949.jpg","date":"2012-08-11","year":2012,"month":8,"lon":24.927979,"lat":60.182503,"tags":"finland,helsinki","S2CellId":"45d4000000000000","result":2755,"accuracy":0.19783354,"title":"Helsinki%2C+Finland"}
{"id":8640550760,"url":"http://farm9.staticflickr.com/8521/8640550760_7a05aa1227.jpg","path":"d9a/9c6/d9a9c6e92459b236297969dcb38ca042.jpg","date":"2013-04-11","year":2013,"month":4,"lon":24.962519,"lat":60.188892,"tags":"switch","S2CellId":"86d6710000000000","result":7698,"accuracy":0.0038202622,"title":"Kone%2C+valo"}
{"id":8926568092,"url":"http://farm8.staticflickr.com/7436/8926568092_10105fdbc8.jpg","path":"a02/297/a022977772be2e12a6cd0563bf38267.jpg","date":"2013-06-01","year":2013,"month":6,"lon":24.89296,"lat":60.221954,"tags":"alppiruusu,finland,haaga,helsinki,pekka+j%C3%A4rvel%C3%A4inen,rhododendron,rodopuisto","S2CellId":"6d318a3000000000","result":6816,"accuracy":0.04406267,"title":"IMG_3254","description":"Alppiruusuja"}
{"id":4761544861,"url":"http://farm5.staticflickr.com/4100/4761544861_ec4ce8e65b.jpg","path":"bc7/5e0/bc75e0a3cd24383d6752d3cb88e2b483.jpg","date":"2010-07-04","year":2010,"month":7,"lon":24.998188,"lat":60.180496,"tags":"finland,helsinki,mustikkamaa,summer","S2CellId":"46f5000000000000","result":3113,"accuracy":0.19563417,"title":"Sunny+Helsinki","description":"A+Sunday+stroll+at+Mustikkamaa"}
{"id":5592129378,"url":"http://farm6.staticflickr.com/5025/5592129378_effb6f4468.jpg","path":"9bd/120/9bd12048fcacdaca7d8399d7eefd3179.jpg","date":"2011-04-05","year":2011,"month":4,"lon":24.950188,"lat":60.16741,"tags":"helsinki","S2CellId":"47a851cc00000000","result":3933,"accuracy":0.014352307,"title":"Caf%C3%A9+Kappeli","description":"Bruits+effac%C3%A9s+-+langue+vocalique+-+gazouillement+d%27enfant+%C3%A0+l%27arri%C3%A8re+plan+-+tintements+de+cuill%C3%A8res+-+la+grande+baie+vitr%C3%A9e+donne+sur+le+port+....+le+temps+s%27arr%C3%AAte.."}
{"id":9640131534,"url":"http://farm4.staticflickr.com/3732/9640131534_d622bcf529.jpg","path":"33d/058/33d058cdbf5ab4fd6ffd9f64983ef7f.jpg","date":"2013-08-31","year":2013,"month":8,"lon":24.972116,"lat":60.203568,"tags":"arabianranta,finland,helsinki,salama,ukkonen,uusimaa","S2CellId":"46920f0000000000","result":3001,"accuracy":0.0724879,"title":"Show+on+the+Sky"}
{"id":789650915,"url":"http://farm2.staticflickr.com/1234/789650915_88ebf62626.jpg","path":"622/b27/622b2717544758c99651ae9f901078ad.jpg","date":"2007-07-12","year":2007,"month":7,"lon":24.515486,"lat":60.311436,"tags":"canon+ef+100mm+f%2F2.8+macro+usm,canon+eos-1d+mark+ii,espoo,finland,green,lichen,moss,rock,uusimaa,white","S2CellId":"47a1c00000000000","result":3874,"accuracy":0.0046079108}
{"id":2573475472,"url":"http://farm4.staticflickr.com/3080/2573475472_ddd2b4b2db.jpg","path":"454/aaf/454aafbbbfee34e8aa946c69d753346.jpg","date":"2008-06-12","year":2008,"month":6,"lon":24.954124,"lat":60.165794,"tags":"antique,blue,boat,europe,finland,g%C3%B6theborg,helsinki,maritime,mast,nautical,outdoors,replica,sailing,sailing+ship,sailing+vessel,sailship,ship,sky,transportation,vessel,watercraft,windjammer","S2CellId":"47e0c00000000000","result":4528,"accuracy":0.08054366,"title":"Sailship+G%C3%B6theborg"}
{"id":2991541960,"url":"http://farm4.staticflickr.com/3271/2991541960_fa0bb397bd.jpg","path":"e9b/65a/e9b65a47611125aead4a26ac2c4dc5.jpg","date":"2008-10-23","year":2008,"month":10,"lon":24.952612,"lat":60.17001,"tags":"ant%C3%ADa,calvaris,church,finland,helsinki,iago,igalia,juan,night,people,senaatintori,tuomiokirkko","S2CellId":"46920bcf00000000","result":2996,"accuracy":0.28642637,"title":"Igalialainen","description":"Calvaris%2C+Ant%C3%ADa%2C+Iago%2C+Juan.%0A%0AHelsinki%2C+Finland."}
{"id":3876122738,"url":"http://farm4.staticflickr.com/3519/3876122738_db80af7db5.jpg","path":"3f6/efe/3f6efe13f431885764f4881da85ac7e2.jpg","date":"2009-08-29","year":2009,"month":8,"lon":24.959982,"lat":60.16843,"tags":"helsinki,uspenskin+katedraali","S2CellId":"47e67db000000000","result":4682,"accuracy":0.035081398,"title":"Uspenskin+Katedraali"}
{"id":3880641322,"url":"http://farm3.staticflickr.com/2608/3880641322_20afc77822.jpg","path":"94d/130/94d130a55431f3e7ae2bcce0ac0e2.jpg","date":"2009-09-02","year":2009,"month":9,"lon":24.9392,"lat":60.18364,"tags":"finland,helsinki,shozu","S2CellId":"468df00000000000","result":2973,"accuracy":0.020879338,"title":"200909025364","description":"-+Taken+at+8%3A06+AM+on+September+02%2C+2009+-+uploaded+by+ShoZu"}
{"id":4240378165,"url":"http://farm5.staticflickr.com/4008/4240378165_9571d86900.jpg","path":"aa3/5a6/aa35a63695ea3dd6cde123d9d466bc5.jpg","date":"2010-01-02","year":2010,"month":1,"lon":24.943642,"lat":60.154106,"tags":"helsinki,ice,sea,snow,topaz+detail,winter","S2CellId":"4696370000000000","result":3035,"accuracy":0.050065108,"title":"Snow+and+Rocks+on+Sunset"}
{"id":530363226,"url":"http://farm2.staticflickr.com/1295/530363226_47d5829009.jpg","path":"3f8/4f6/3f84f6c3772f57154ae49020f41ec5ce.jpg","date":"2007-06-03","year":2007,"month":6,"lon":24.505777,"lat":60.374386,"tags":"finland,sirkku,summer","S2CellId":"4643000000000000","result":2806,"accuracy":0.027650151,"title":"j%C3%A4rvelle"}
{"id":4001025520,"url":"http://farm4.staticflickr.com/3533/4001025520_2575c97b1d.jpg","path":"61a/555/61a555f04647341fcf379c2b145bdc5a.jpg","date":"2009-10-11","year":2009,"month":10,"lon":24.98926,"lat":60.14031,"tags":"finland,helsinki","S2CellId":"80dd317000000000","result":7376,"accuracy":0.0029253254,"title":"200910115978"}
{"id":6870771658,"url":"http://farm8.staticflickr.com/7139/6870771658_e8a724eac0.jpg","path":"53e/b59/53eb599d5fc281f469b7b52d6274b861.jpg","date":"2012-03-26","year":2012,"month":3,"lon":24.926645,"lat":60.161667,"tags":"angrybirdsspace,instagram+app,ipad3,iphoneography,new+ipad,normal,square,square+format","S2CellId":"88e7809900000000","result":8681,"accuracy":0.008978229,"title":"First+new+iPad+at+work%21+Didn%27t+realize+%23angrybirdsspace+already+has+retina+graphics%21","description":"%28See+my+next+picture+for+iPad+1+vs.+iPad+3+comparison+of+Angry+Birds+graphics.%29"}
{"id":7624083266,"url":"http://farm8.staticflickr.com/7112/7624083266_347ddd8e97.jpg","path":"f3b/386/f3b386f21d8fba256d38dac415dd38b.jpg","date":"2012-06-27","year":2012,"month":6,"lon":24.950626,"lat":60.16812,"tags":"art+nouveau,dalbera,finland,finlande,helsingfors,helsinki,jugend,jugendsali,jugendstil,lars+sonck,suomi,uschakoff+building,valter+jung","S2CellId":"0d3e400000000000","result":330,"accuracy":0.015335206,"title":"le+hall+jugenstil+de+l%27Uschakoff+Building+%28Helsinki%29","description":"Chapiteau+du+hall+jugenstil+%28art+nouveau%29+de+l%27Uschakoff+Building%2C+con%C3%A7u+en+1903%2C+par+les+architectes+Lars+Sonck+et+Valter+Jung.+++++++++++++++++++++++%0A%0ALe+hall+est+aujourd%27hui+occup%C3%A9+par+une+caf%C3%A9t%C3%A9ria+apr%C3%A8s+avoir+%C3%A9t%C3%A9+affect%C3%A9e+%C3%A0+la+maison+du+tourisme+d%27Helsinki+qui+est+rest%C3%A9e+%C3%A0+proximit%C3%A9.+++++++++%0A%0ADeux+photos+du+hall+avant+sa+transformation+en+caf%C3%A9t%C3%A9ria%0A%3Ca+href%3D%22http%3A%2F%2Fwww.flickr.com%2Fphotos%2Fdalbera%2F2750148719%2Fin%2Fset-72157606617353855%22%3Ewww.flickr.com%2Fphotos%2Fdalbera%2F2750148719%2Fin%2Fset-721576066...%3C%2Fa%3E%0A%3Ca+href%3D%22http%3A%2F%2Fwww.flickr.com%2Fphotos%2Fdalbera%2F2745223142%2Fin%2Fset-72157606617353855%22%3Ewww.flickr.com%2Fphotos%2Fdalbera%2F2745223142%2Fin%2Fset-721576066...%3C%2Fa%3E"}
{"id":582328973,"url":"http://farm2.staticflickr.com/1003/582328973_e637801df4.jpg","path":"85b/2c1/85b2c18fc76a8cda8e23710ae63f273.jpg","date":"2007-04-21","year":2007,"month":4,"lon":24.848392,"lat":60.237637,"tags":"fabrikhalle,gloria,helsinki,nokia,nsn,roadshow,siemens","S2CellId":"472c000000000000","result":3253,"accuracy":0.042791512,"title":"Fabrikhalle+%28Helsinki%29","description":"Foto+aus+der+Fabrikhalle+in+der+der+Truck+f%C3%BCr+die+Roadshow+gebaut+wurde"}
{"id":2998901158,"url":"http://farm4.staticflickr.com/3287/2998901158_dc570f0058.jpg","path":"c75/dac/c75dac4adcbc9736b1b85fd10103360.jpg","date":"2008-11-03","year":2008,"month":11,"lon":24.932827,"lat":60.168373,"tags":"helsinki,rock,show,tavastia,uriah+heep","S2CellId":"48709c0000000000","result":4989,"accuracy":0.030105714,"title":"Uriah+Heep"}
{"id":3055782390,"url":"http://farm4.staticflickr.com/3288/3055782390_a537254034.jpg","path":"8ca/9b1/8ca9b16c938464a3efb87ed1cdb42dcf.jpg","date":"2008-11-24","year":2008,"month":11,"lon":24.819847,"lat":60.170013,"tags":"espoo,finland","S2CellId":"47c8100000000000","result":4385,"accuracy":0.022712477,"title":"I+don%27t+want+to+know+what+happened+to+that+car"}
{"id":5660170313,"url":"http://farm6.staticflickr.com/5302/5660170313_56ab943126.jpg","path":"12a/f23/12af233cddbd479ec4548431e2dfca21.jpg","date":"2011-04-04","year":2011,"month":4,"lon":24.9345,"lat":60.168,"tags":"finland,helsingfors,helsinki,suomi","S2CellId":"469631c000000000","result":3032,"accuracy":0.016325343,"title":"helsinki"}
{"id":6282537219,"url":"http://farm7.staticflickr.com/6103/6282537219_f44d645ee0.jpg","path":"8f8/d1b/8f8d1bc08f99dbe563bded711bb10.jpg","date":"2011-10-26","year":2011,"month":10,"lon":24.986666,"lat":60.142776,"tags":"bastioni+hyve,finland,glass,glass+studio,glassblowing,helsinki,hytti+ry,suomenlinna","S2CellId":"46920b9000000000","result":2990,"accuracy":0.068163484,"title":"image"}
{"id":9295866143,"url":"http://farm6.staticflickr.com/5514/9295866143_d336e522f9.jpg","path":"d48/a19/d48a19602dee54d09ebb4ff0158bdf4a.jpg","date":"2013-07-15","year":2013,"month":7,"lon":24.738052,"lat":60.161373,"tags":"%23tp615","S2CellId":"4773940000000000","result":3396,"accuracy":0.007637058,"title":"Follow+us%21+%23TP615","description":"%27Bright+navy+blue%27+%3Ca+href%3D%22http%3A%2F%2Fen.wikipedia.org%2Fwiki%2FNavy_blue%23Bright_navy_blue%22+rel%3D%22nofollow%22%3Een.wikipedia.org%2Fwiki%2FNavy_blue%23Bright_navy_blue%3C%2Fa%3E+%0A%0A%3Ci%3EColour+my+week%3A+Navy+Blue%3C%2Fi%3E+%3Ca+href%3D%22http%3A%2F%2Fwww.todaysposting.com%2FTPAssignment.php%3FTP%3D615%22+rel%3D%22nofollow%22%3Ewww.todaysposting.com%2FTPAssignment.php%3FTP%3D615%3C%2Fa%3E"}
{"id":67494757,"url":"http://farm1.staticflickr.com/33/67494757_19ca47cc36.jpg","path":"6cb/d18/6cbd1870e63c71a9dafdbd5a34366b76.jpg","date":"2004-12-30","year":2004,"month":12,"lon":24.917679,"lat":60.16918,"tags":"hautausmaa,helsinki,hietaniemi,l%C3%B6yt%C3%B6retki","S2CellId":"4692f00000000000","result":3016,"accuracy":0.005578903,"title":"s4100024"}
{"id":1201144265,"url":"http://farm2.staticflickr.com/1215/1201144265_364a18c918.jpg","path":"d0b/f8b/d0bf8bd372449da23da0eded55898.jpg","date":"2007-08-22","year":2007,"month":8,"lon":24.977074,"lat":60.209293,"tags":"arabia,ctxflickr,finland,helsinki,jaiku,taik,uiah","S2CellId":"8804c00000000000","result":8073,"accuracy":0.06662907,"title":"20070822T130420","description":"We+were+not+really+formal...+This+is+conference+lunch."}
{"id":1973115462,"url":"http://farm3.staticflickr.com/2216/1973115462_8b8c1731eb.jpg","path":"544/ffa/544ffab8b6864d3fd9b063f1d6d2d0.jpg","date":"2007-11-11","year":2007,"month":11,"lon":24.989626,"lat":60.145023,"tags":"finland,helsinki,iso+mustasaari,suomenlinna","S2CellId":"4872100000000000","result":5075,"accuracy":0.24665946,"title":"2007_200711_20071111_1259388_Panorama.jpg","description":"%3Ca+href%3D%22http%3A%2F%2Floc.alize.us%2F%23%2Fflickr%3A1973115462%22%3ESee+where+this+picture+was+taken.%3C%2Fa%3E+%3Ca+href%3D%22http%3A%2F%2Fwww.flickr.com%2Fgroups%2Fgeotagging%2Fdiscuss%2F72157594165549916%2F%22%3E%5B%3F%5D%3C%2Fa%3E"}
{"id":4559664927,"url":"http://farm4.staticflickr.com/3338/4559664927_df83ba251d.jpg","path":"471/b42/471b42476ace8e402d7a6dff2a6daf59.jpg","date":"2010-04-27","year":2010,"month":4,"lon":24.804491,"lat":60.17508,"tags":"espoo,finland","S2CellId":"8085874300000000","result":6973,"accuracy":0.017410222,"title":"Vappu+is+coming+1"}
{"id":5980799839,"url":"http://farm7.staticflickr.com/6146/5980799839_4f6e4efe35.jpg","path":"318/a5c/318a5ce38ec684c34e2ece6c38719.jpg","date":"2011-07-27","year":2011,"month":7,"lon":24.845753,"lat":60.204685,"tags":"10-20,dawn,finland,golden+hour,helsinki,landscape,munkkiniemi,nature,sigma,sunrise,wide+angle","S2CellId":"467c000000000000","result":2949,"accuracy":0.027797785,"title":"Reflections"}
{"id":8053143892,"url":"http://farm9.staticflickr.com/8317/8053143892_387a5f45ce.jpg","path":"d2c/389/d2c3892d7da312154b551918403f42d8.jpg","date":"2012-10-04","year":2012,"month":10,"lon":24.947004,"lat":60.178722,"tags":"instagram+app,iphoneography,lo-fi,square,square+format","S2CellId":"94cdc00000000000","result":9696,"accuracy":0.033055604,"title":"Iberian+Serrano+ham+baguette."}
{"id":8525800744,"url":"http://farm9.staticflickr.com/8517/8525800744_c76c34ca09.jpg","path":"acb/560/acb560c9377773a6827c67c89d8e22ea.jpg","date":"2013-02-14","year":2013,"month":2,"lon":24.946165,"lat":60.169834,"tags":"helsinki,lappland","S2CellId":"464cc00000000000","result":2821,"accuracy":0.0052689277,"title":"130214_Helsinki_03"}
{"id":582380467,"url":"http://farm2.staticflickr.com/1197/582380467_c2f72816f1.jpg","path":"f5d/1d8/f5d1d84d348d18f5d102b494c15eceb.jpg","date":"2007-04-27","year":2007,"month":4,"lon":24.940638,"lat":60.188305,"tags":"freizeitpark,helsinki,linnanm%C3%A4ki","S2CellId":"469209c000000000","result":2983,"accuracy":0.1669668,"title":"0704270309"}
{"id":3425760333,"url":"http://farm4.staticflickr.com/3409/3425760333_29996af54e.jpg","path":"96f/796/96f7963f79544e364e8c16d3fe68.jpg","date":"2009-04-04","year":2009,"month":4,"lon":24.949093,"lat":60.167934,"tags":"2009,finland,glassware,helsinki,iittala,timosarpaneva","S2CellId":"80c8c43b00000000","result":7240,"accuracy":0.04329491,"title":"Sarpanevification"}
{"id":3933359695,"url":"http://farm3.staticflickr.com/2567/3933359695_650d8e014e.jpg","path":"134/ab4/134ab448eb54d351f727572808628bf.jpg","date":"2009-09-19","year":2009,"month":9,"lon":24.96637,"lat":60.20044,"tags":"finland,helsinki,shozu","S2CellId":"87f6700000000000","result":8059,"accuracy":0.06338975,"title":"200909195650","description":"-+Taken+at+3%3A33+PM+on+September+19%2C+2009+-+uploaded+by+ShoZu"}
{"id":7115865003,"url":"http://farm8.staticflickr.com/7256/7115865003_d043b3eeee.jpg","path":"254/83b/25483b6316c5d19d1c693b547c575ea.jpg","date":"2012-04-26","year":2012,"month":4,"lon":24.953041,"lat":60.152527,"tags":"bar-tailed+godwit,limosa+lapponica,punakuiri","S2CellId":"48745cc000000000","result":5128,"accuracy":0.030644985,"title":"Limosa+lapponica+-+punakuiri","description":"2012.04.26++Harakka%2C+Helsinki%2C+Finland"}
{"id":2633112673,"url":"http://farm4.staticflickr.com/3118/2633112673_2e25e8527f.jpg","path":"dfd/e17/dfde1754df426eb65b805f1d62e3.jpg","date":"2008-07-03","year":2008,"month":7,"lon":24.970581,"lat":60.187283,"tags":"move,nemein,suvilahti","S2CellId":"0d19331000000000","result":217,"accuracy":0.023191366,"title":"Finishing+the+wax"}
{"id":3056413420,"url":"http://farm4.staticflickr.com/3283/3056413420_0edb3a301e.jpg","path":"6c6/841/6c6841beeec82a2b78116863ca5dd.jpg","date":"2008-11-24","year":2008,"month":11,"lon":24.9333,"lat":60.16299,"tags":"helsinki,punavuori,snowstorm","S2CellId":"89b7b7c400000000","result":8874,"accuracy":0.07598569,"title":"DSC_0240","description":"The+first+snowstorm+of+the+year+hit+Helsinki+last+night.+This+is+from+Bulevardi.+Refreshing%3B+the+last+time+I%27ve+seen+this+much+snow+was+in+New+York+last+winter."}
{"id":3332260585,"url":"http://farm4.staticflickr.com/3611/3332260585_9fd6a5aaab.jpg","path":"8d6/d97/8d6d97de4b80969cd7c6b7c9ec9f331.jpg","date":"2009-03-06","year":2009,"month":3,"lon":24.9419,"lat":60.19747,"tags":"finland,shozu","S2CellId":"46920f0000000000","result":3001,"accuracy":0.019700838,"title":"200903062400","description":"-+Camera+phone+upload+powered+by+%3Ca+href%3D%22http%3A%2F%2Fwww.shozu.com%2F%3Futm_source%3Dupload%26utm_medium%3Dgraphic%26utm_campaign%3Dupload_graphic%2F%22+target%3D%22_newwindow%22%3EShoZu%3C%2Fa%3E"}
{"id":5150784775,"url":"http://farm5.staticflickr.com/4018/5150784775_b56627f262.jpg","path":"b2d/3f9/b2d3f9e472bc779d4f711278ec870c7.jpg","date":"2010-10-12","year":2010,"month":10,"lon":24.959822,"lat":60.168396,"tags":"canon+ef+50mm+f%2F1.4+usm,canon+eos+500d,finland,finnland,helsinki,uusimaa","S2CellId":"487b212d00000000","result":5551,"accuracy":0.07166885,"title":"Helsinki"}
{"id":6285138359,"url":"http://farm7.staticflickr.com/6215/6285138359_38ea88b41a.jpg","path":"f98/5e6/f985e6cae117b4bc8356ff431230a2.jpg","date":"2011-10-27","year":2011,"month":10,"lon":24.94435,"lat":60.21323,"tags":"earlybird,instagram+app,iphoneography,square,square+format","S2CellId":"4887c74000000000","result":5711,"accuracy":0.0043210066,"title":"Autumn"}
{"id":229028327,"url":"http://farm1.staticflickr.com/79/229028327_2c9ae749c9.jpg","path":"61f/fd9/61ffd9bf8e52cb91a91319cefb34fdb8.jpg","date":"2006-08-28","year":2006,"month":8,"lon":24.939823,"lat":60.167904,"tags":"europe,finland,hellsinki,helsinki","S2CellId":"46920a3000000000","result":2985,"accuracy":0.087029494,"title":"IMG_5990.JPG"}
{"id":1108016353,"url":"http://farm2.staticflickr.com/1335/1108016353_3364f00952.jpg","path":"ec1/549/ec1549a23cc4eb2951697b3db6e5d.jpg","date":"2007-07-30","year":2007,"month":7,"lon":24.926176,"lat":60.16743,"tags":"finland,helsinki,summer","S2CellId":"4791bb0000000000","result":3723,"accuracy":0.3008595,"title":"Swoop"}
{"id":1209807955,"url":"http://farm2.staticflickr.com/1334/1209807955_ef0caf940a.jpg","path":"9b8/eca/9b8eca575225fa63c1f444e2a209c2.jpg","date":"2007-08-23","year":2007,"month":8,"lon":24.977074,"lat":60.209293,"tags":"arabia,ctxflickr,finland,helsinki,jaiku,taik,uiah","S2CellId":"865b5c0000000000","result":7654,"accuracy":0.006136787,"title":"20070823T091822","description":"Design+concept+from+Pittsbugh."}
{"id":2750880600,"url":"http://farm4.staticflickr.com/3272/2750880600_be56352f70.jpg","path":"861/043/861043b0e54640eecaab81a4d683113.jpg","date":"2008-08-10","year":2008,"month":8,"lon":24.989262,"lat":60.145832,"tags":"finland,helsinki,iso+mustasaari,maneesi,military+museum,museum,suomenlinna,war","S2CellId":"89c8b00000000000","result":9204,"accuracy":0.047376458,"title":"2008_200808_20080810_112046_40.JPG"}
{"id":9405305809,"url":"http://farm4.staticflickr.com/3769/9405305809_404068279d.jpg","path":"bd2/e8e/bd2e8ee75a805af669e36390bc1414c.jpg","date":"2013-07-28","year":2013,"month":7,"lon":24.976519,"lat":60.257202,"tags":"%28series,1%29,2013,808,bridge,cameraphone,carl+zeiss,fearlessly,fearlessly+leaping+from+a+bridge+into+the+river+vantaa+%28series+1%29,finland,from,helsinki,hugovk,hvk,july,kes%C3%A4,leaping,nokia,nokia+808+pureview,pureview,river,southern+finland,summer,tapaninvainio,uudenmaan+maakunta,vantaa","S2CellId":"808e700000000000","result":7009,"accuracy":0.22405678,"title":"Fearlessly+leaping+from+a+bridge+into+the+river+Vantaa+%28series+1%29"}
{"id":134044777,"url":"http://farm1.staticflickr.com/54/134044777_3aae2be9b5.jpg","path":"9fd/a95/9fda95bbc89331745d4e59ced4295fe1.jpg","date":"2005-08-13","year":2005,"month":8,"lon":24.904118,"lat":60.161327,"tags":"artist,djorionweb_gigs,djorionweb_gigs_helsinki,festival,helsinki,koneisto,schedule,techno,timetable","S2CellId":"89b6440000000000","result":8829,"accuracy":0.02518426,"title":"Koneisto+timetable"}
{"id":2189037299,"url":"http://farm3.staticflickr.com/2242/2189037299_bbf9c03bdc.jpg","path":"757/4df/7574df142b67869ad3db3fe26a42b4f.jpg","date":"2007-11-28","year":2007,"month":11,"lon":24.795069,"lat":60.188816,"tags":"cat,cats,katz,katze,kissa,kissanpoika,kissat,kitten,snow","S2CellId":"45d4000000000000","result":2755,"accuracy":0.17420806,"title":"Snowy+cats","description":"First+snow+in+winter+2007+%28that+didn%C2%B4t+last+no+longer+than+week%28"}
{"id":2647218396,"url":"http://farm4.staticflickr.com/3040/2647218396_f1c44a3f24.jpg","path":"6f2/e5f/6f2e5f73355a4643ce273cf0cf9af4d3.jpg","date":"2008-07-02","year":2008,"month":7,"lon":24.984283,"lat":60.143257,"tags":"eiland,finland,helsinki,island,sea,suomenlinna,world+heritage,zee","S2CellId":"46920b9000000000","result":2990,"accuracy":0.9788153,"title":"Casemats"}
{"id":2748572973,"url":"http://farm4.staticflickr.com/3087/2748572973_dd0064e8a9.jpg","path":"84f/911/84f911614e7c7b99e0fe759cb5e8dbc1.jpg","date":"2008-08-10","year":2008,"month":8,"lon":24.943481,"lat":60.165028,"tags":"balloon,diana+puisto,finland,helsinki,hkl,ilmapalo,kolmikulma,raitiovaunu,sp%C3%A5ra,suomi,tram+9","S2CellId":"47900a1000000000","result":3696,"accuracy":0.05513266,"title":"ballooon","description":"%22tram+9+from+kolmikulma+to+pasila%22"}
{"id":3247248610,"url":"http://farm4.staticflickr.com/3422/3247248610_6ae929cb0d.jpg","path":"ef5/526/ef55263c1af4e53ee4bca3ba44ace47f.jpg","date":"2009-02-02","year":2009,"month":2,"lon":24.83166,"lat":60.181,"tags":"design+factory,espoo,finland,fs,helsinki,meeting,otaniemi,shozu,udoi","S2CellId":"469209c000000000","result":2983,"accuracy":0.020120194,"title":"200902021863","description":"-+Camera+phone+upload+powered+by+%3Ca+href%3D%22http%3A%2F%2Fwww.shozu.com%2F%3Futm_source%3Dupload%26utm_medium%3Dgraphic%26utm_campaign%3Dupload_graphic%2F%22+target%3D%22_newwindow%22%3EShoZu%3C%2Fa%3E"}
{"id":5793382379,"url":"http://farm3.staticflickr.com/2626/5793382379_8834acfb53.jpg","path":"606/426/60642619d46f8fc8d7e535c8b1e9799.jpg","date":"2011-06-02","year":2011,"month":6,"lon":24.895832,"lat":60.162,"tags":"finland,helsingfors,helsinki,suomi","S2CellId":"88fe740000000000","result":8760,"accuracy":0.08701702,"title":"almost+11pm"}
{"id":6059337591,"url":"http://farm7.staticflickr.com/6209/6059337591_1980d31129.jpg","path":"443/cbe/443cbe7aa53cf606517b05c76b5f51.jpg","date":"2011-08-12","year":2011,"month":8,"lon":24.954,"lat":60.1675,"tags":"fin,finland,finlandia,flickr,helsinki,kauppatori,keisarinnankivi,kesa%CC%88,summer,suomi,verano","S2CellId":"132f605c00000000","result":1086,"accuracy":0.012168822,"title":"DSC_5099"}
{"id":8028365640,"url":"http://farm9.staticflickr.com/8034/8028365640_f7e7ac98df.jpg","path":"ec5/0b7/ec50b7a37fd034cfb438edd214c996e7.jpg","date":"2012-08-05","year":2012,"month":8,"lon":24.927979,"lat":60.182503,"tags":"finland,helsinki","S2CellId":"4876028400000000","result":5183,"accuracy":0.25393292,"title":"Helsinki%2C+Finland"}
{"id":8266014737,"url":"http://farm9.staticflickr.com/8361/8266014737_b367fa1dd1.jpg","path":"483/c38/483c38c9fdd4345872e047ecb021ee.jpg","date":"2012-12-11","year":2012,"month":12,"lon":24.955334,"lat":60.16733,"tags":"finland,helsingfors,helsinki,kauppatori,suomi","S2CellId":"46920bb000000000","result":2991,"accuracy":0.06953333,"title":"sail+away"}
{"id":8721844723,"url":"http://farm8.staticflickr.com/7393/8721844723_03ec9aef21.jpg","path":"502/28b/50228b21c394b3241c92c5c8cd6182f.jpg","date":"2013-05-04","year":2013,"month":5,"lon":24.938879,"lat":60.169846,"tags":"el+sema%CC%81foro,fin,finland,finlandia,helsinki,liikennemerkki,liikennevalot,sen%CC%83al+de+trafico,suomi,traffic+lights,traffic+sign","S2CellId":"46920bcd00000000","result":2995,"accuracy":0.170861,"title":"DR2_7575","description":"aja+hitaasti+-+conduzca+despacio+-+drive+slowly"}
{"id":419350176,"url":"http://farm1.staticflickr.com/132/419350176_39d72ae7b8.jpg","path":"ebf/39a/ebf39aed6cfbdaec66f32298cc6987f.jpg","date":"2007-03-11","year":2007,"month":3,"lon":24.924093,"lat":60.161167,"tags":"foot,helsinki,olono22,orb,shoe,sidewalk","S2CellId":"89e6d00000000000","result":9384,"accuracy":0.020515505,"title":"Mini+Ball"}
{"id":8976858606,"url":"http://farm4.staticflickr.com/3769/8976858606_6f2987375f.jpg","path":"dfa/612/dfa612fa252d1b6f7a257443e841c473.jpg","date":"2013-06-04","year":2013,"month":6,"lon":24.892874,"lat":60.223232,"tags":"alppiruusu,haaga,helsinki,pekka+j%C3%A4rvel%C3%A4inen,rhododendron,rodopuisto","S2CellId":"6018450000000000","result":6446,"accuracy":0.026447391,"title":"IMG_3684","description":"Alppiruusuja"}
{"id":10780606346,"url":"http://farm3.staticflickr.com/2864/10780606346_595bfb1e22.jpg","path":"96a/ddf/96addf99d77be7c924a7726b20565d57.jpg","date":"2008-07-06","year":2008,"month":7,"lon":24.794704,"lat":60.225418,"tags":"her%C3%A4tt%C3%A4j%C3%A4juhlat,lepp%C3%A4vaara","S2CellId":"89c2d00000000000","result":9097,"accuracy":0.109205455,"title":"img_0117","description":"Her%C3%A4tt%C3%A4j%C3%A4juhlat%2C+Espoo"}
{"id":8199584,"url":"http://farm1.staticflickr.com/4/8199584_99aedb5838.jpg","path":"b5b/36a/b5b36a16eeb8922d492bca9debd7c52.jpg","date":"2005-04-02","year":2005,"month":4,"lon":24.939093,"lat":60.17037,"tags":"autostitch,centre,helsinki,keskusta,panorama,rautatientori,saarinen,train+station","S2CellId":"12a4a27c00000000","result":716,"accuracy":0.11552131,"title":"panorama","description":"taken+from+sokos"}
{"id":1225438248,"url":"http://farm2.staticflickr.com/1119/1225438248_e5fb38999f.jpg","path":"2a3/e56/2a3e56ed5731c92e1c192429e0723fe5.jpg","date":"2007-08-24","year":2007,"month":8,"lon":24.976927,"lat":60.209663,"tags":"arabia,conference,dppi+2007,finland,h%C3%A4meentie+135+c,helsinki,taik,uiah","S2CellId":"89c2570000000000","result":8951,"accuracy":0.007994881,"title":"2007_200708_20070824_DSC01121.JPG"}
{"id":2713767700,"url":"http://farm4.staticflickr.com/3280/2713767700_71881cca0c.jpg","path":"4b7/626/4b7626f8a5339e6a69b4a74d8c42562.jpg","date":"2008-07-11","year":2008,"month":7,"lon":24.920135,"lat":60.208313,"tags":"calico,finland,helsinki,ilmala,panorama,suomi","S2CellId":"0d19310000000000","result":214,"accuracy":0.04291421,"title":"oooooo+panorama%21"}
{"id":6157938623,"url":"http://farm7.staticflickr.com/6172/6157938623_e26dcfc554.jpg","path":"c9d/ede/c9dede9a588cb938e2c6ac1768072.jpg","date":"2011-09-03","year":2011,"month":9,"lon":24.974958,"lat":60.18152,"tags":"helsinki,kalasatama,konttiaukio,n86+8mp,pearl+harbour+2011","S2CellId":"468df00000000000","result":2973,"accuracy":0.014499912,"title":"030920116312"}
{"id":8922487394,"url":"http://farm9.staticflickr.com/8420/8922487394_c83630ee07.jpg","path":"f71/fc4/f71fc4d6a170f67cfe57883613aa8e2.jpg","date":"2013-06-02","year":2013,"month":6,"lon":24.984837,"lat":60.143555,"tags":"finland,helsinki,suomenlinna,suomi","S2CellId":"46920b9000000000","result":2990,"accuracy":0.5929887,"title":"image"}
{"id":8977222206,"url":"http://farm6.staticflickr.com/5339/8977222206_33af81898d.jpg","path":"3dc/6de/3dc6de2a443e81e5332fee61974ee32.jpg","date":"2013-06-07","year":2013,"month":6,"lon":24.92242,"lat":60.184273,"tags":"%2818,%3Ca,25%29,brochure,finland,from,helsingfors,helsinki,helsinki%27s,helsinki%27s+new+tram+%2818+of+25%29,href%3Dhttp%3A%2F%2Fwww.transtech.fi%2Ffile.php%3F67,hsl,hugovk,hvk,manufacturer,new,nyland,pdf,public+transport,raitiovaunu,rel%3Dnofollow%3Ewww.transtech.fi%2Ffile.php%3F67%3C%2Fa%3E,southern+finland,sp%C3%A5ra,sp%C3%A5rv%C3%A4g,streetcar,suomi,taka-t%C3%B6%C3%B6l%C3%B6,tram,tramcar,transtech%27s,trolley,trolleycar,uudenmaan+maakunta,uusimaa,valmet","S2CellId":"470fd00000000000","result":3191,"accuracy":0.0036026225,"title":"Helsinki%27s+new+tram+%2818+of+25%29","description":"From+manufacturer+Transtech%27s+PDF+brochure%3A+%3Ca+href%3D%22http%3A%2F%2Fwww.transtech.fi%2Ffile.php%3F67%22+rel%3D%22nofollow%22%3Ewww.transtech.fi%2Ffile.php%3F67%3C%2Fa%3E"}
{"id":2848546757,"url":"http://farm4.staticflickr.com/3039/2848546757_0db5300d25.jpg","path":"1ee/b74/1eeb74cb27525deb40704b46e9507a21.jpg","date":"2008-09-11","year":2008,"month":9,"lon":24.94306,"lat":60.166466,"tags":"ekai,finland,helsinki,knee,leg,nokiaopenlab08","S2CellId":"88f5047400000000","result":8718,"accuracy":0.0100504765,"title":"Helsinki"}
{"id":4243389093,"url":"http://farm5.staticflickr.com/4016/4243389093_f9bba58ac8.jpg","path":"12d/0de/12d0deceb6eb4743af6d8111e0746af1.jpg","date":"2010-01-04","year":2010,"month":1,"lon":24.7925,"lat":60.176945,"tags":"espoo,finland","S2CellId":"45d4000000000000","result":2755,"accuracy":0.012187824,"title":"Snowy+December+in+Finland...","description":"It+took+me+45+minutes+to+dig+the+car+out+of+the+snow%2C+it+started+fine+but+I+couldn%27t+get+it+out+of+the+lot.+Need+a+shovel.+Anyone%3F"}
{"id":5053469761,"url":"http://farm5.staticflickr.com/4089/5053469761_a979031d5c.jpg","path":"7b2/2c1/7b22c143dd42438895733f3784cbd45.jpg","date":"2010-10-02","year":2010,"month":10,"lon":24.80923,"lat":60.217552,"tags":"domesticated+animals,el%C3%A4imet,esbo+stadsbibliotek,espoo,espoo+city+library,espoon+kaupunginkirjasto,helmet+kirjasto,kirjastot,kotiel%C3%A4imet,lapset,lepp%C3%A4vaara,lepp%C3%A4vaaran+aluekirjasto,libraries,luonto,sello,sello+kirjasto,sello+library,sellobiblioteket,selloblioteket,sellon+kirjasto,tapahtumat","S2CellId":"48d5000000000000","result":5789,"accuracy":0.020765727,"title":"Hemb%C3%B6len+kiert%C3%A4v%C3%A4+kotiel%C3%A4inpiha+2010","description":"Minipossu"}
{"id":5220017323,"url":"http://farm5.staticflickr.com/4123/5220017323_761617faa8.jpg","path":"42e/797/42e797d6ea2a9c3e9b8b692f37c8258.jpg","date":"2010-11-28","year":2010,"month":11,"lon":24.90503,"lat":60.180515,"tags":"blue,cold,color,colour,dark,evening,finland,helsingfors,helsinki,ice,light,nature,orange,pekka+nikrus,pni,reflection,skrubu,snow,sunset,suomi,surface,talvi,vinter,winter,yellow","S2CellId":"480e900000000000","result":4781,"accuracy":0.0050389087,"title":"Solid+Phase+XX"}
{"id":12854947213,"url":"http://farm8.staticflickr.com/7408/12854947213_3f0b5fb1d5.jpg","path":"76e/225/76e225f56ce72d38f0996f51ef16e80.jpg","date":"2014-02-28","year":2014,"month":2,"lon":24.988111,"lat":60.147057,"tags":"2014,201402,20140228,finland,helsinki,juhlat,music,party,suomenlinna,suomenlinnan+suolakurkut,suomenlinnan+upseerikerho,upseerikerho","S2CellId":"89e6500000000000","result":9380,"accuracy":0.046382982}
{"id":4892171176,"url":"http://farm5.staticflickr.com/4122/4892171176_bb2f8ab019.jpg","path":"2e9/ee6/2e9ee679d75f162c3ebb39adced60de.jpg","date":"2010-07-26","year":2010,"month":7,"lon":24.982805,"lat":60.141827,"tags":"finland,helsinki,sommer,summer,suomenlinna","S2CellId":"46920b9000000000","result":2990,"accuracy":0.37540886,"title":"DSC_1013"}
{"id":230291022,"url":"http://farm1.staticflickr.com/75/230291022_1bfd5993b7.jpg","path":"c8f/290/c8f29020a544585dd8a8d72dcde52510.jpg","date":"2006-08-31","year":2006,"month":8,"lon":24.950638,"lat":60.165424,"tags":"finland,hel200511a,helsinki","S2CellId":"88e0a40000000000","result":8645,"accuracy":0.011786392,"title":"2005.Helsinki.F8035"}
{"id":7165342312,"url":"http://farm9.staticflickr.com/8144/7165342312_2f0e8733d8.jpg","path":"912/288/912288b04ef6cea557c0a026d95f59.jpg","date":"2012-05-09","year":2012,"month":5,"lon":24.968412,"lat":60.17356,"tags":"instagram+app,iphoneography,lo-fi,square,square+format","S2CellId":"47c4500000000000","result":4265,"accuracy":0.103657454,"title":"Parkway+%23instagram+%23iphoneography+%23iphone4s+%23picoftheday+%23photooftheday+%23iphonesia+%23instagood+%23tweegram"}
{"id":7178274938,"url":"http://farm8.staticflickr.com/7236/7178274938_3de0e3b312.jpg","path":"478/4d5/4784d5d7b68f75deaa25c6cb632080bb.jpg","date":"2012-04-28","year":2012,"month":4,"lon":24.988333,"lat":60.142834,"tags":"finland,helsingfors,helsinki,suomenlinna,suomi,sveaborg","S2CellId":"46920b9000000000","result":2990,"accuracy":0.016975919,"title":"helsinki"}
{"id":264052793,"url":"http://farm1.staticflickr.com/98/264052793_f50d5750f9.jpg","path":"fe8/c62/fe8c6240887aa2d2663e27cd5f896d90.jpg","date":"2006-10-09","year":2006,"month":10,"lon":24.946474,"lat":60.193195,"tags":"helsinki,konepaja,rakennusty%C3%B6maa,rakenteilla,raksa,vallila,y%C3%B6","S2CellId":"46920a3000000000","result":2985,"accuracy":0.013652696,"title":"DSCN3072"}
{"id":3897661393,"url":"http://farm3.staticflickr.com/2532/3897661393_e6fa4a6a56.jpg","path":"154/0f1/1540f11828d8d4a33aa11331ce8ef5a.jpg","date":"2009-09-07","year":2009,"month":9,"lon":24.989641,"lat":60.142574,"tags":"2003,denmark,finland,sweden,travel","S2CellId":"46920b9000000000","result":2990,"accuracy":0.1061362,"title":"Denmark%2C+Sweden+and+Finland"}
{"id":5400348745,"url":"http://farm6.staticflickr.com/5214/5400348745_fe60806c15.jpg","path":"14b/f2b/14bf2b12da242fb2b8831f99eaa0f88e.jpg","date":"2011-01-30","year":2011,"month":1,"lon":24.9269,"lat":60.1872,"tags":"helsinki,luistelu,n86+8mp,olympiastadion","S2CellId":"4cce05c000000000","result":5918,"accuracy":0.036252674,"title":"30%2F01%2F2011"}
{"id":5780688903,"url":"http://farm6.staticflickr.com/5141/5780688903_8d21f63769.jpg","path":"2f9/65d/2f965d97c56d9aa4e0ed148cf8e2e19.jpg","date":"2011-05-29","year":2011,"month":5,"lon":24.921713,"lat":60.172813,"tags":"helsinki,nordes","S2CellId":"89b7c8c000000000","result":8897,"accuracy":0.31443724,"title":"IMG_1236","description":"Andrea+Branzi%2C+the+opening+keynote."}
{"id":582635892,"url":"http://farm2.staticflickr.com/1041/582635892_c93bcb9641.jpg","path":"46a/391/46a391594369c41239bf8652664d61.jpg","date":"2007-04-21","year":2007,"month":4,"lon":24.848392,"lat":60.237637,"tags":"fabrikhalle,gloria,helsinki,nokia,nsn,roadshow,siemens","S2CellId":"47b1300000000000","result":3975,"accuracy":0.004489964,"title":"Fabrikhalle+%28Helsinki%29","description":"Foto+aus+der+Fabrikhalle+in+der+der+Truck+f%C3%BCr+die+Roadshow+gebaut+wurde"}
{"id":1517837828,"url":"http://farm3.staticflickr.com/2159/1517837828_24af7fcd52.jpg","path":"4da/917/4da9175e64af71bf1277d2752cea6ea.jpg","date":"2004-12-12","year":2004,"month":12,"lon":24.952272,"lat":60.16957,"tags":"cathedral,helsinki,senate+square","S2CellId":"46920bcf00000000","result":2996,"accuracy":0.567501,"title":"Dome+of+Helsinki+Cathedral"}
{"id":2398100060,"url":"http://farm3.staticflickr.com/2266/2398100060_2180b0bd1e.jpg","path":"3de/d20/3ded206683705e7343cd6bd9f57a6f4c.jpg","date":"2008-04-06","year":2008,"month":4,"lon":24.95878,"lat":60.1782,"tags":"ya-city-helsinki,ya-country-fi,ya-kermit,yellowarrow","S2CellId":"4799db0000000000","result":3792,"accuracy":0.013856197,"title":"bk37","description":"%3Cb%3EBy%3C%2Fb%3E+%3Ca+href%3D%22http%3A%2F%2Fwww.flickr.com%2Fphotos%2Fyellowarrow%2Fsets%2F72157604391476124%2F%22%3EKermit%3C%2Fa%3E%0A%3Cb%3ELocation%3A%3C%2Fb%3E+Hakaniemi%2C+%3Ca+href%3D%22http%3A%2F%2Fwww.flickr.com%2Fphotos%2Fyellowarrow%2Fsets%2F%2F%22%3EHelsinki%3C%2Fa%3E+%28%3Ca+href%3D%22http%3A%2F%2Fwww.flickr.com%2Fphotos%2Fyellowarrow%2Fsets%2F72157604428062694%2F%22%3EFI%3C%2Fa%3E%29%0A%0A%3Cb%3ETXT%3A%3C%2Fb%3E+Hakaniemi+Arrow%21%21+A+finnish+market+place+to+discover."}
{"id":3492814503,"url":"http://farm4.staticflickr.com/3297/3492814503_7211780d42.jpg","path":"e14/5cb/e145cb494881b9ee818aef549bb8f4.jpg","date":"2009-05-02","year":2009,"month":5,"lon":24.99209,"lat":60.14125,"tags":"finland,helsinki,shozu","S2CellId":"468df00000000000","result":2973,"accuracy":0.012630723,"title":"200905023268","description":"-+uploaded+by+%3Ca+href%3D%22http%3A%2F%2Fwww.shozu.com%2F%3Futm_source%3Dupload%26utm_medium%3Dgraphic%26utm_campaign%3Dupload_graphic%2F%22+target%3D%22_newwindow%22%3EShoZu%3C%2Fa%3E"}
{"id":4383819153,"url":"http://farm5.staticflickr.com/4019/4383819153_28477f1a41.jpg","path":"f48/3fa/f483fa48af29401f225c6a5eb20597d.jpg","date":"2010-02-24","year":2010,"month":2,"lon":24.82692,"lat":60.1849,"tags":"aalto,espoo,finland,helsinki,otaniemi,tkk,tkk+main+building,tkk+p%C3%A4%C3%A4rakennus,ubinfo","S2CellId":"47b0100000000000","result":3969,"accuracy":0.008945856,"title":"20100224845"}
{"id":4530719038,"url":"http://farm5.staticflickr.com/4025/4530719038_5b30b675b7.jpg","path":"3fb/de2/3fbde28c88c55ade308e4c2d5a922.jpg","date":"2010-04-18","year":2010,"month":4,"lon":24.99156,"lat":60.14583,"tags":"finland,helsinki","S2CellId":"880fd2c000000000","result":8164,"accuracy":0.037405178,"title":"201004181622"}
{"id":5255037319,"url":"http://farm6.staticflickr.com/5170/5255037319_a1273284e1.jpg","path":"e21/8e5/e218e5a352075d3a344ec018dc47.jpg","date":"2010-10-02","year":2010,"month":10,"lon":24.899954,"lat":60.16374,"tags":"7d,autumn,blue,bridge,canon,exposure,finland,helsinki,long,reflection,ruoholahti,sea,skies","S2CellId":"463a400000000000","result":2769,"accuracy":0.013819397,"title":"Ruoholahti","description":"Late+autumn+photo+near+the+Lansivyla+bridge+in+Ruoholahti.+1min+and+30+second+long+exposure%0A%0Abest+viewed+in+black+background+%3A+%3Ca+href%3D%22http%3A%2F%2Fwww.flickr.com%2Fphotos%2Fviveksekar%2F5255037319%2Fsizes%2Fl%2F%22%3Ewww.flickr.com%2Fphotos%2Fviveksekar%2F5255037319%2Fsizes%2Fl%2F%3C%2Fa%3E"}
{"id":5520745993,"url":"http://farm6.staticflickr.com/5014/5520745993_50b0bfa3aa.jpg","path":"cb2/f1f/cb2f1feb2c3172228e45da962c5f4296.jpg","date":"2011-02-23","year":2011,"month":2,"lon":24.836166,"lat":60.164295,"tags":"backyard,espoo,finland,hanasaari,hipstamatic,iphone,island","S2CellId":"45d4000000000000","result":2755,"accuracy":0.056818716,"title":"Cold+Hanasaari."}
{"id":9035085705,"url":"http://farm6.staticflickr.com/5503/9035085705_1e4dc6a5ea.jpg","path":"f3e/a88/f3ea8806aed3d7757cbf2ecf28a2ca0.jpg","date":"2013-06-06","year":2013,"month":6,"lon":24.96317,"lat":60.163975,"tags":"boat,finland,helsinki,sailing+ship,seaside,ship","S2CellId":"47e0c00000000000","result":4528,"accuracy":0.068425335,"title":"P1070943","description":"helsinki%2C+finland"}
{"id":1296425,"url":"http://farm1.staticflickr.com/2/1296425_f4ab274c3c.jpg","path":"f4b/7c4/f4b7c4dfa6ffecd35ea9effd96378e.jpg","date":"2004-11-06","year":2004,"month":11,"lon":24.933493,"lat":60.198822,"tags":"helsinki,pasila,stairwell,train+station","S2CellId":"47a851c740000000","result":3931,"accuracy":0.03934032,"title":"stairwell"}
{"id":1201767283,"url":"http://farm2.staticflickr.com/1337/1201767283_65fb0f63a3.jpg","path":"8f4/c9a/8f4c9a6f8d3514fa788fcfc34f29027.jpg","date":"2007-08-22","year":2007,"month":8,"lon":24.976927,"lat":60.209663,"tags":"2007,arabia,dppi+2007,finland,h%C3%A4meentie+135+c,helsinki,taik,uiah","S2CellId":"469209c000000000","result":2983,"accuracy":0.01621999,"title":"2007_200708_20070822_DSC00429.JPG"}
{"id":5484662171,"url":"http://farm6.staticflickr.com/5291/5484662171_69d7a3d66d.jpg","path":"276/ec2/276ec2b2f99a2c989f31863208183d7.jpg","date":"2011-02-27","year":2011,"month":2,"lon":24.779926,"lat":60.14543,"tags":"espoo,finland","S2CellId":"45d4000000000000","result":2755,"accuracy":0.08859103,"title":"Rys%C3%A4kari+and+back"}
{"id":219925541,"url":"http://farm1.staticflickr.com/96/219925541_676b895e76.jpg","path":"cd3/a68/cd3a68286d4e3d73552580a092e477c.jpg","date":"2006-08-19","year":2006,"month":8,"lon":24.441833,"lat":60.256165,"tags":"hevoset,horses,ratsastus,riding,sandbacken,stall,stall+sandbacken","S2CellId":"4d5c000000000000","result":5955,"accuracy":0.15880992,"title":"Nuori+neiti+Nellie"}
{"id":283843391,"url":"http://farm1.staticflickr.com/122/283843391_2924adbaeb.jpg","path":"f58/d3c/f58d3ca5e6d0789cb59c4cfa64561e.jpg","date":"2005-10-25","year":2005,"month":10,"lon":24.965239,"lat":60.203873,"tags":"6230i,darkness,finland,forest,helsinki,kumpula,kuu,mets%C3%A4,moon,puu,suomi,tree","S2CellId":"864e640000000000","result":7620,"accuracy":0.006443619,"title":"2005-10-25-07h48m34"}
{"id":364656002,"url":"http://farm1.staticflickr.com/153/364656002_bdbb2d589b.jpg","path":"951/757/9517579fb65ccbce081277533a827af.jpg","date":"2007-01-21","year":2007,"month":1,"lon":24.940187,"lat":60.161095,"tags":"dress,finland,helsinki,mekko,merimiehenkatu,punainen,red,suomi","S2CellId":"54950a1400000000","result":6243,"accuracy":0.022070054,"title":"reddress"}
{"id":2587960179,"url":"http://farm4.staticflickr.com/3100/2587960179_ce9efc1379.jpg","path":"c2c/e12/c2ce12fcfa74367e3378dbeb5749e40.jpg","date":"2008-06-06","year":2008,"month":6,"lon":24.857664,"lat":60.22935,"tags":"0.71++km+to+k%C3%A5nala++in+southern+finland+finland,1915,2008,ab,abandoned,asema,asema+3,base,base+xxxv,base+xxxv%3A3,camera,digital,digital+camera+ds5mp,ds5mp,finland,first+world+war,fortification,fortress,fortress+of+sveaborg,helsingfors,helsinki,hugovk,hvk,imag4112,june,k%C3%A5nala,kes%C3%A4,kes%C3%A4kuu,krepost,krepost+sveaborg,m%C3%A4kkyl%C3%A4,maalinnoitus,nyland,overgrown,overgrown+ww1+trench,p%C3%A4iv%C3%A4l%C3%A4isen+puisto,position+3,reimarlia,remains,russian,southern+finland,summer,suomi,sveaborg,trench,tukikohta,tukikohta+xxxv,tukikohta+xxxv%3A3,uudenmaan+maakunta,uusimaa,war,world+war+1,world+war+one,ww1,wwi,xxxv,xxxv%3A3","S2CellId":"548e400000000000","result":6158,"accuracy":0.122389235,"title":"Overgrown+WW1+trench","description":"Base+XXXV%3A3+%281915%29+%28P%C3%A4iv%C3%A4l%C3%A4isen+puisto%2C+Reimarlia%2C+Helsinki%2C+Finland%29%0A+%3C%3E"}
{"id":3307923397,"url":"http://farm4.staticflickr.com/3354/3307923397_cf14ed995d.jpg","path":"d5d/681/d5d681ca4a77e356c6a7c1823cda993a.jpg","date":"2009-02-25","year":2009,"month":2,"lon":24.9844,"lat":60.14933,"tags":"finland,shozu","S2CellId":"4ec0000000000000","result":5959,"accuracy":0.045720622,"title":"200902252151","description":"-+Camera+phone+upload+powered+by+%3Ca+href%3D%22http%3A%2F%2Fwww.shozu.com%2F%3Futm_source%3Dupload%26utm_medium%3Dgraphic%26utm_campaign%3Dupload_graphic%2F%22+target%3D%22_newwindow%22%3EShoZu%3C%2Fa%3E"}
{"id":4526844850,"url":"http://farm5.staticflickr.com/4037/4526844850_6f314304a7.jpg","path":"bdd/f5e/bddf5e66b3cf4d0badf30a4a861cf39.jpg","date":"2010-04-16","year":2010,"month":4,"lon":24.789318,"lat":60.15994,"tags":"food,indoor,still+life","S2CellId":"0d19331000000000","result":217,"accuracy":0.0033047742,"title":"sweet+potatoes+%26+caps","description":"sweet+potatoes+%26+caps"}
{"id":6877642108,"url":"http://farm8.staticflickr.com/7245/6877642108_80e7b9832b.jpg","path":"558/730/5587303d5abae2ab4fe7fc2d8a02529.jpg","date":"2012-03-27","year":2012,"month":3,"lon":24.93722,"lat":60.16659,"tags":"finland,food,helsinki","S2CellId":"88fd000000000000","result":8754,"accuracy":0.01017562,"title":"Enmoladas+%40+Patrona"}
{"id":8914256361,"url":"http://farm6.staticflickr.com/5348/8914256361_ea88b58c2e.jpg","path":"22a/a8e/22aa8e63d2c050f9e8f11f25972a97b.jpg","date":"2013-05-31","year":2013,"month":5,"lon":24.811823,"lat":60.174458,"tags":"cocreation,innovation,km,mlearning,moodlemooc,prerequisites","S2CellId":"89b9400000000000","result":8914,"accuracy":0.01020173,"title":"Prerequisites+to+Co-creation+1%2F8","description":"-++these+eight+elements+belong+to+a+learning+day+of+a+MOOCer%0A%0A%3Ci%3EMy+%23moodleMOOC+blog+post%3C%2Fi%3E+%3Ca+href%3D%22http%3A%2F%2Fconnectirmeli.wordpress.com%2F2013%2F06%2F01%2Freflecting-prerequisites-to-co-creation-the-moodlemooc-begins%2F%22+rel%3D%22nofollow%22%3Econnectirmeli.wordpress.com%2F2013%2F06%2F01%2Freflecting-prerequ...%3C%2Fa%3E"}
{"id":439571720,"url":"http://farm1.staticflickr.com/184/439571720_e5aa748358.jpg","path":"f3b/6f1/f3b6f17826f72acded1128a062e9e630.jpg","date":"2007-03-30","year":2007,"month":3,"lon":24.975706,"lat":60.209934,"tags":"anna+valtonen,arabia,bluetagged,bt%3D000eed0fa4b3,bt%3D0010c6916405,bt%3D0012d1898416,bt%3D0015a07b0d52,bt%3D0015a0806c66,bt%3D0016bc2f3abb,bt%3D0016cff1e030,bt%3D00174b47358e,bt%3D00174bcdd292,bt%3D0017e484412a,bt%3D0018c53cd81e,bt%3D00192d44830a,bt%3D001963acb6d4,bt%3D001a8905bd8f,bt%3D0800284fce42,ctxflickr,defence,finland,helsinki,jaiku,taik,uiah,v%C3%A4it%C3%B6s","S2CellId":"80c2c7f000000000","result":7209,"accuracy":0.008686613,"title":"20070330T121700"}
{"id":452565141,"url":"http://farm1.staticflickr.com/247/452565141_cb5ea2c811.jpg","path":"b3c/bca/b3cbca6f2f1305c922e1c383c47760.jpg","date":"2007-04-09","year":2007,"month":4,"lon":24.388681,"lat":60.373295,"tags":"disc+golf,frisbeegolf,kamerak%C3%A4nnyk%C3%A4st%C3%A4,ojakkala,vihti","S2CellId":"53d0000000000000","result":6089,"accuracy":0.1528055,"title":"V%C3%A4yl%C3%A4+3"}
{"id":610125727,"url":"http://farm2.staticflickr.com/1136/610125727_49bcdba27c.jpg","path":"5df/aae/5dfaae469cd6a16dba03e80e8753fa5.jpg","date":"2006-10-18","year":2006,"month":10,"lon":24.931793,"lat":60.17977,"tags":"finland,helsinki,nikon+coolpix+8700","S2CellId":"465f840000000000","result":2912,"accuracy":0.029052008,"title":"061018_1752","description":"Finland%2C+Helsinki%3A+Linnanm%C3%A4ki+amusement+park+seen+over+T%C3%B6%C3%B6l%C3%B6nlahti+inlet."}
{"id":1010811567,"url":"http://farm2.staticflickr.com/1276/1010811567_75db14434c.jpg","path":"231/b9c/231b9c5e463c6e4a594a713588f398f7.jpg","date":"2007-08-03","year":2007,"month":8,"lon":24.940853,"lat":60.168842,"tags":"aegee,europa,europe,finland,helsinki,jul2007,living+by+lakes,lux,suomi,tsu","S2CellId":"46920a3000000000","result":2985,"accuracy":0.04791789,"title":"Helsinki+from+Lux+nightclub","description":"AEGEE+TSU+Finland+%0ALiving+by+Lakes%0ATurku%2C+Tampere%2C+Helsinki%2C+Finland%0A%23+july-august+2007%0A%3Ca+href%3D%22http%3A%2F%2Faegee.tky.fi%2Fsu%2F%22%3Ehttp%3A%2F%2Faegee.tky.fi%2Fsu%2F%3C%2Fa%3E"}
{"id":2486570854,"url":"http://farm3.staticflickr.com/2373/2486570854_c3b08f2b72.jpg","path":"75c/a73/75ca731f46cba7e1f1af97f486c6d33.jpg","date":"2008-05-12","year":2008,"month":5,"lon":24.96107,"lat":60.16694,"tags":"auto,car,fabia,finland,helsinki,shozu,skoda","S2CellId":"4cce070000000000","result":5919,"accuracy":0.044685233,"title":"20080512%28007%29","description":"-+Camera+phone+upload+powered+by+%3Ca+href%3D%22http%3A%2F%2Fwww.shozu.com%2F%3Futm_source%3Dupload%26utm_medium%3Dgraphic%26utm_campaign%3Dupload_graphic%2F%22+target%3D%22_newwindow%22%3EShoZu%3C%2Fa%3E"}
{"id":9033252649,"url":"http://farm4.staticflickr.com/3805/9033252649_41ff938903.jpg","path":"cbc/14c/cbc14c41701e98e8ad77cd842da0c7.jpg","date":"2012-05-05","year":2012,"month":5,"lon":24.666239,"lat":60.3165,"tags":"espoo,kaitalampi","S2CellId":"45d4000000000000","result":2755,"accuracy":0.23385404,"title":"IMG_5609","description":"Kaitalammen+n%C3%A4k%C3%B6alapaikka"}
{"id":5009493010,"url":"http://farm5.staticflickr.com/4109/5009493010_43b1f0651d.jpg","path":"8f9/467/8f94672c4010852c5943fe97b18a9.jpg","date":"2010-09-20","year":2010,"month":9,"lon":24.955187,"lat":60.154823,"tags":"clouds,evening,finland,helsinki,sunset","S2CellId":"88d0a631cabb5071","result":8563,"accuracy":0.059768893,"title":"Colourful"}
{"id":8149425700,"url":"http://farm9.staticflickr.com/8471/8149425700_e21af41cde.jpg","path":"fae/1b5/fae1b53fa69756f6ff79f0d086802f3a.jpg","date":"2012-10-28","year":2012,"month":10,"lon":24.9869,"lat":60.14488,"tags":"finland,luonto,mets%C3%A4,nature,suomenlinna,suomi","S2CellId":"463f000000000000","result":2783,"accuracy":0.04302461,"title":"Photo0692"}
{"id":8204154896,"url":"http://farm9.staticflickr.com/8489/8204154896_8e281ce74e.jpg","path":"eba/3ca/eba3ca86b61bbf6f8db526f12d4bdc7f.jpg","date":"2012-11-14","year":2012,"month":11,"lon":24.929083,"lat":60.168884,"tags":"love,tp372","S2CellId":"89b6440000000000","result":8829,"accuracy":0.005956297,"title":"%22...And+the+moment+I+can+feel...","description":"%3Cb%3E...that+you+feel+that+way+too%2C+is+when+I+fall+in+love+with+you.%22%3C%2Fb%3E%0A%0ANat+King+Cole+sings+%22When+I+Fall+in+Love%22+%3Ca+href%3D%22http%3A%2F%2Fyoutu.be%2FGfAb0gNPy6s%22+rel%3D%22nofollow%22%3Eyoutu.be%2FGfAb0gNPy6s%3C%2Fa%3E+%0A%0A%3Ci%3ETwitcher+or+not%2C+make+a+plot+using+the+light+from+the+window+and+curtains+or+blinds%3C%2Fi%3E+%3Ca+href%3D%22http%3A%2F%2Fwww.todaysposting.com%2FTPAssignment.php%3FTP%3D372%22+rel%3D%22nofollow%22%3Ewww.todaysposting.com%2FTPAssignment.php%3FTP%3D372%3C%2Fa%3E"}
{"id":5609144340,"url":"http://farm6.staticflickr.com/5141/5609144340_df453c2149.jpg","path":"90c/1c1/90c1c138d81c0221eba5d151a2d93e.jpg","date":"2011-04-10","year":2011,"month":4,"lon":24.96261,"lat":60.167587,"tags":"display,finland,helsinki,paper+toy,puffer,tape+machine,window","S2CellId":"808fcc9000000000","result":7071,"accuracy":0.018177994,"title":"Tape+Machine%2C+and+Paper+Puffer"}
{"id":8978455969,"url":"http://farm4.staticflickr.com/3769/8978455969_877d21b280.jpg","path":"4a9/52e/4a952e42987dd027536064c2cf902e66.jpg","date":"2013-06-07","year":2013,"month":6,"lon":24.892874,"lat":60.223232,"tags":"alppiruusu,finland,haaga,helsinki,pekka+j%C3%A4rvel%C3%A4inen,rhododendron,rodopuisto","S2CellId":"6018450000000000","result":6446,"accuracy":0.025052924,"title":"IMG_3875","description":"Alppiruusuja"}
{"id":368117047,"url":"http://farm1.staticflickr.com/181/368117047_729e4aeef1.jpg","path":"aab/3c6/aab3c6b32fbe6660239330415f896.jpg","date":"2007-01-23","year":2007,"month":1,"lon":24.944204,"lat":60.16433,"tags":"centre,finland,helsinki,keskustassa,lunta,nighttime,snow,suomi,talvi,winter,y%C3%B6","S2CellId":"469631c000000000","result":3032,"accuracy":0.08916197,"title":"car+park"}
{"id":5742860863,"url":"http://farm6.staticflickr.com/5310/5742860863_ab0ea40dde.jpg","path":"ebc/0e1/ebc0e1c1a8072cdc8655edfbe9e9cd7.jpg","date":"2011-05-21","year":2011,"month":5,"lon":24.937634,"lat":60.162136,"tags":"helsinki","S2CellId":"479e75f400000000","result":3855,"accuracy":0.10332602,"title":"IMG_1204","description":"Design+market+in+Diana+Park."}
{"id":10627914075,"url":"http://farm6.staticflickr.com/5534/10627914075_4f35a28039.jpg","path":"99f/420/99f420aa31cd25d7c45297b95dd9d7.jpg","date":"2006-12-17","year":2006,"month":12,"lon":24.76593,"lat":60.15746,"tags":"haukilahti","S2CellId":"465f7c0000000000","result":2911,"accuracy":0.026449984,"title":"IMG_4413","description":"Haukilahti"}
{"id":294394248,"url":"http://farm1.staticflickr.com/108/294394248_c747bd868f.jpg","path":"89d/fd1/89dfd12ef4b946dd69e3f696a340a4.jpg","date":"2006-11-11","year":2006,"month":11,"lon":24.990643,"lat":60.145298,"tags":"bluetagged,bt%3D0011a53044cf,bt%3D0015a07b0d52,ctxflickr,finland,helsinki,heta,jaiku,suomenlinna","S2CellId":"0098c00000000000","result":3,"accuracy":0.19022329,"title":"20061111T144328"}
{"id":4309382656,"url":"http://farm3.staticflickr.com/2725/4309382656_02c18ed888.jpg","path":"867/b5f/867b5f9e4bc7b123df7d4566bc49ef.jpg","date":"2010-01-27","year":2010,"month":1,"lon":24.952097,"lat":60.170437,"tags":"helsinki,hi+hostels+in+helsinki,hostels+in+helsinki,srm","S2CellId":"46920a3000000000","result":2985,"accuracy":0.21521813,"title":"Helsinki+Cathedral","description":"Photo+taken+during+Helsinki+Festival+which+is+held+yearly+and+is+full+of+all+kinds+of+cultural+happenings."}
{"id":5481432687,"url":"http://farm6.staticflickr.com/5260/5481432687_664d7de9a2.jpg","path":"6f1/4cc/6f14cccd33be2f6a996a4e85cf7562af.jpg","date":"2011-02-26","year":2011,"month":2,"lon":24.947536,"lat":60.18671,"tags":"kallio+rolling+rainbow,roller+derby","S2CellId":"7952400000000000","result":6862,"accuracy":0.13313074}
{"id":7175441088,"url":"http://farm6.staticflickr.com/5323/7175441088_ca7b298d4e.jpg","path":"529/149/529149675bc1425fe7017a5896d6334.jpg","date":"2011-05-11","year":2011,"month":5,"lon":24.976023,"lat":60.20825,"tags":"aaltofablab,fablab","S2CellId":"47a6fc0000000000","result":3896,"accuracy":0.018987514,"title":"IMG_1794.JPG"}
{"id":8975676011,"url":"http://farm8.staticflickr.com/7454/8975676011_05b6fe8644.jpg","path":"2d3/b28/2d3b282f61c00303d3f115debff3a7.jpg","date":"2013-06-04","year":2013,"month":6,"lon":24.892874,"lat":60.223232,"tags":"alppiruusu,haaga,helsinki,pekka+j%C3%A4rvel%C3%A4inen,rhododendron,rodopuisto","S2CellId":"6b12d00000000000","result":6707,"accuracy":0.015333455,"title":"IMG_3661","description":"Alppiruusuja"}
{"id":3766474487,"url":"http://farm4.staticflickr.com/3453/3766474487_dc60683f6c.jpg","path":"75b/abd/75babd49a1b6ce89eecf33c641e7621d.jpg","date":"2009-05-24","year":2009,"month":5,"lon":24.921938,"lat":60.170498,"tags":"animalia,friends,people,portrait,studio","S2CellId":"48d60b4000000000","result":5793,"accuracy":0.0127416,"title":"Arrakeen+Lady","description":"She+just+popped+into+the+studio+to+ask+something+and+I+took+a+quick+picture.++It%27s+nice+to+have+such+a+photogenic+model.%0A%0AI+can%27t+put+my+finger+on+exactly+why%2C+but+this+shot+makes+me+think+of+Dune.%0A%0AStrobist%3A+Strobe+bounced+from+below+off+a+large+golden+reflector+to+the+upper+left.%0A%0AConstructive+criticism+is+appreciated."}
{"id":5637461321,"url":"http://farm6.staticflickr.com/5183/5637461321_22a6cc8117.jpg","path":"15d/b3c/15db3c4a1e92dd25593a601cc8866f.jpg","date":"2011-04-20","year":2011,"month":4,"lon":24.832277,"lat":60.18098,"tags":"aalto,design+factory,espoo,finland,pdp,product+design+gala+2011.+otaniemi","S2CellId":"8085808700000000","result":6942,"accuracy":0.053162333,"title":"PDP+Product+Design+Gala+2011"}
{"id":4666991674,"url":"http://farm5.staticflickr.com/4037/4666991674_3bd62b41a7.jpg","path":"27f/1e3/27f1e370ecef8b14a412e59e4ba1b57a.jpg","date":"2010-06-03","year":2010,"month":6,"lon":24.94362,"lat":60.20272,"tags":"action,bicycle,bicycling,competition,helsinki,kilpapy%C3%B6r%C3%A4ily,ratakisa,sports,track,track+cycling,velodrome,velodromi","S2CellId":"4876840000000000","result":5378,"accuracy":0.105901495}
{"id":223779091,"url":"http://farm1.staticflickr.com/69/223779091_8843afe9bb.jpg","path":"823/1dc/8231dcece9cf44fe2bab4d21cda9fb7.jpg","date":"2006-08-18","year":2006,"month":8,"lon":24.949736,"lat":60.169514,"tags":"2006,ari+heljakka,clock,conference,fabianinkatu+33,finland,finnish+transhumanist+association,fta,h%2B,helsinki,humanity+plus,meeting,panel+discussion,suomen+transhumanistiliitto,timing,transhumanism,transvision,world+transhumanist+association,wta","S2CellId":"883cae5000000000","result":8363,"accuracy":0.06330727,"title":"2006-08-18_18-20-32_093m","description":"Ari+is+checking+that+the+panelist+stays+within+the+alloted+time+period."}
{"id":3675990018,"url":"http://farm3.staticflickr.com/2445/3675990018_838f3f82bd.jpg","path":"f79/ba6/f79ba65366757548fca99077c91ca78.jpg","date":"2009-06-29","year":2009,"month":6,"lon":24.9342,"lat":60.1756,"tags":"raw","S2CellId":"4878440000000000","result":5451,"accuracy":0.03354306,"title":"JWGC+2009","description":"Junior+World+Gliding+Championship+2009%2C+R%C3%A4ysk%C3%A4l%C3%A4%2C+Finland"}
{"id":10462500414,"url":"http://farm8.staticflickr.com/7305/10462500414_0f37981be1.jpg","path":"3b7/f15/3b7f15e3cde719d837b854199ddae.jpg","date":"2012-10-14","year":2012,"month":10,"lon":24.907764,"lat":60.27107,"tags":"helsinki,pitk%C3%A4koski","S2CellId":"47f9000000000000","result":4733,"accuracy":0.01531861,"title":"IMG_0539","description":"Pitk%C3%A4koski"}
{"id":8127870566,"url":"http://farm9.staticflickr.com/8475/8127870566_5574bf7d95.jpg","path":"61e/ae3/61eae3add90c5f986836ffc7a6ea9e.jpg","date":"2012-10-20","year":2012,"month":10,"lon":24.98748,"lat":60.14568,"tags":"finland,luonto,mets%C3%A4,nature,suomenlinna,suomi","S2CellId":"46920b9000000000","result":2990,"accuracy":0.13269849,"title":"Photo0013"}
{"id":8252186249,"url":"http://farm9.staticflickr.com/8209/8252186249_5c0acd4776.jpg","path":"222/379/2223793a83c0f516eb5a5bb8c59e68dd.jpg","date":"2012-12-07","year":2012,"month":12,"lon":24.937962,"lat":60.18171,"tags":"helsinki,talvi,winter","S2CellId":"4692094000000000","result":2982,"accuracy":0.13430995,"title":"Helsinki","description":"-3+celsius+degree+between+T%C3%B6%C3%B6l%C3%B6+and+Kallio."}
{"id":2832371403,"url":"http://farm4.staticflickr.com/3182/2832371403_b9125291f4.jpg","path":"2ea/cc6/2eacc690ec3792b8b5ab9012f39c85.jpg","date":"2008-09-06","year":2008,"month":9,"lon":24.932226,"lat":60.169296,"tags":"arched,arciform,blue,building,curved,europe,finland,helsinki,kamppi,outdoors,sky,tennispalatsi","S2CellId":"47c434b000000000","result":4258,"accuracy":0.020026427,"title":"Kamppi","description":"The+arched+roof+building+is+a+movie+center+AKA+Tennispalatsi."}
{"id":4639751546,"url":"http://farm5.staticflickr.com/4012/4639751546_2113d50cd3.jpg","path":"806/a69/806a69f5b1c96385882413b7e94d68c.jpg","date":"2010-05-25","year":2010,"month":5,"lon":24.776615,"lat":60.162373,"tags":"moomin,walk+with+moomin+daily,wwmd","S2CellId":"5f0b2c0000000000","result":6349,"accuracy":0.013515442,"title":"If+you+are+perplexed%2C+just+ask+yourself+%22What+would+Moomin+do%3F%22"}
{"id":4971728942,"url":"http://farm5.staticflickr.com/4092/4971728942_f5517384fe.jpg","path":"46e/7e8/46e7e8a3f5774bb13414c08529c6af69.jpg","date":"2010-09-08","year":2010,"month":9,"lon":24.99381,"lat":60.21378,"tags":"finland,helsinki,reeds,summer,water","S2CellId":"88d9f00000000000","result":8605,"accuracy":0.03823091,"title":"Lots+of+Reeds","description":"View+from+a+hide+by+Vanhankaupunginselk%C3%A4+bay.+Helsinki%2C+Finland."}
{"id":6666548481,"url":"http://farm8.staticflickr.com/7158/6666548481_c7607ecc5d.jpg","path":"e51/f44/e51f44c8cb93c42f2965dbdadad0412c.jpg","date":"2012-01-06","year":2012,"month":1,"lon":24.986311,"lat":60.14796,"tags":"feelings,finland,helsinki,january","S2CellId":"89c2588f00000000","result":8969,"accuracy":0.07294388,"title":"012"}
{"id":8568253160,"url":"http://farm9.staticflickr.com/8372/8568253160_f3b741aa43.jpg","path":"b2b/c5c/b2bc5cf11cca5fa01e4bd49af20dde3.jpg","date":"2013-03-18","year":2013,"month":3,"lon":24.81558,"lat":60.187107,"tags":"instagram+app,iphoneography,square,square+format,x-pro+ii","S2CellId":"89c258f900000000","result":8986,"accuracy":0.0030260612,"title":"Surface"}
{"id":489836222,"url":"http://farm1.staticflickr.com/227/489836222_5bfc6fc02f.jpg","path":"6e7/a23/6e7a2307ad7cf6518c36cbbf39f5396.jpg","date":"2007-05-08","year":2007,"month":5,"lon":24.935062,"lat":60.169792,"tags":"bluetagged,bt%3D000276c5027b,bt%3D0002eed090e0,bt%3D000eed842cdf,bt%3D00119fbd9d7d,bt%3D0011a53044cf,bt%3D0012d2305b5f,bt%3D00152a2dcb77,bt%3D00152aff2b7b,bt%3D0015a07b0d52,bt%3D0016cfdd1332,bt%3D0016cfde1320,bt%3D0016cfde1576,bt%3D00174b46af4a,bt%3D00174bce8220,bt%3D0017e3b283cf,bt%3D001842e75c68,bt%3D001842eab512,bt%3D0018c550e259,bt%3D0018c5577f3b,bt%3D0018c57e9b4b,bt%3D00192d4914a1,bt%3D001a169ec6e0,bt%3D001b333a75c5,ctxflickr,eurovision,finland,helsinki,jaiku,kamppi,lasipalatsi","S2CellId":"47c434b000000000","result":4258,"accuracy":0.06986478,"title":"20070508T163846"}
{"id":3592682642,"url":"http://farm4.staticflickr.com/3585/3592682642_5e2b5d531b.jpg","path":"beb/11a/beb11ab8a8a53983bdcf86f39291a17.jpg","date":"2009-05-31","year":2009,"month":5,"lon":24.923021,"lat":60.15793,"tags":"finland,helsinki,irish+naval+service,j%C3%A4tk%C3%A4saari,l.%C3%A9.+niamh,p52,seirbh%C3%ADs+chabhlaigh+na+h%C3%A9ireann,suomi","S2CellId":"346e774000000000","result":2220,"accuracy":0.10363069,"title":"l.%C3%A9.+niamh"}
{"id":8453474389,"url":"http://farm9.staticflickr.com/8094/8453474389_324f1afe7d.jpg","path":"cdd/ed3/cdded3f8f1efa49dfba6757c8bae5c7.jpg","date":"2013-01-20","year":2013,"month":1,"lon":24.947592,"lat":60.155785,"tags":"%23partridge,%C2%A3380,%C2%A3380+monocle,2013,808,been,cameraphone,cardigan,carl+zeiss,chill,designed,finland,flight.+%23partridge,for,has,helsinki,hugovk,hvk,in-flight,january,keeping,monocle+in-flight+cardigan+...+has+been+designed+specifically+for+keeping+the+chill+off+in+flight.,monocle+magazine,nokia,nokia+808+pureview,off,pureview,southern+finland,specifically,talvi,ullanlinna,uudenmaan+maakunta,winter","S2CellId":"0d19331000000000","result":217,"accuracy":0.0052754097,"title":"%C2%A3380+%22Monocle+in-flight+cardigan+...+has+been+designed+specifically+for+keeping+the+chill+off+in+flight.%22+%23partridge","description":"%3Ca+href%3D%22http%3A%2F%2Fmoby.to%2Fjujs5j%22+rel%3D%22nofollow%22%3Emoby.to%2Fjujs5j%3C%2Fa%3E"}
{"id":3134614651,"url":"http://farm4.staticflickr.com/3229/3134614651_04d2fab1e3.jpg","path":"6d8/673/6d86736c48bfb4197312eaaded5c4.jpg","date":"2008-12-25","year":2008,"month":12,"lon":24.98261,"lat":60.14316,"tags":"2008,200812,finland,helsinki,shozu","S2CellId":"477eae3000000000","result":3462,"accuracy":0.0069291457,"title":"200812251548","description":"-+Camera+phone+upload+powered+by+%3Ca+href%3D%22http%3A%2F%2Fwww.shozu.com%2F%3Futm_source%3Dupload%26utm_medium%3Dgraphic%26utm_campaign%3Dupload_graphic%2F%22+target%3D%22_newwindow%22%3EShoZu%3C%2Fa%3E"}
{"id":5643756711,"url":"http://farm6.staticflickr.com/5022/5643756711_f341257756.jpg","path":"23b/98a/23b98a3f7f6d779523786d837eaf55.jpg","date":"2011-04-19","year":2011,"month":4,"lon":24.955841,"lat":60.167458,"tags":"finl%C3%A0ndia,finland","S2CellId":"80dd370000000000","result":7380,"accuracy":0.012337341,"title":"DSC_5762.JPG"}
{"id":10648175455,"url":"http://farm6.staticflickr.com/5486/10648175455_08f0b0073a.jpg","path":"8c8/f18/8c8f18df99dff5fdd0ef2adb899ba27.jpg","date":"2013-11-03","year":2013,"month":11,"lon":24.871244,"lat":60.24784,"tags":"cx,hel","S2CellId":"87bf6d0000000000","result":7960,"accuracy":0.022995431,"title":"HEL+CX+3.11.2013+189"}
{"id":13651576275,"url":"http://farm4.staticflickr.com/3695/13651576275_e8feffda49.jpg","path":"c2f/f57/c2ff576b45aba4e46410e1422e2cbb.jpg","date":"2014-03-28","year":2014,"month":3,"lon":24.812922,"lat":60.217518,"tags":"%28germany%29,808,badge,bicycle,cameraphone,carl+zeiss,cyckel,fillari,finland,head,head+badge,helsinki,hugovk,hvk,kalkhoff,kalkhoff+%28germany%29+bicycle+head+badge+logo,konala,logo,nokia,nokia+808+pureview,pureview,southern+finland,uudenmaan+maakunta","S2CellId":"47c3715000000000","result":4187,"accuracy":0.0071545374,"title":"Kalkhoff+%28Germany%29+bicycle+head+badge+logo"}
{"id":1385864128,"url":"http://farm2.staticflickr.com/1281/1385864128_431ede44a4.jpg","path":"6b7/954/6b79541e9afba5819111b8299bf158.jpg","date":"2007-09-15","year":2007,"month":9,"lon":24.937506,"lat":60.161755,"tags":"bluetagged,bt%3D001a8905bd8f,ctxflickr,finland,fredrikinkatu,helsinki,jaiku,nokia","S2CellId":"80dd317000000000","result":7376,"accuracy":0.031153431,"title":"20070915T122114","description":"More+Punavuori."}
{"id":4324253131,"url":"http://farm3.staticflickr.com/2786/4324253131_9d10a9dccc.jpg","path":"ce1/a83/ce1a83385f19d9b1a5ac31f44b1088ee.jpg","date":"2010-02-02","year":2010,"month":2,"lon":24.816572,"lat":60.170036,"tags":"espoo,finland","S2CellId":"468df00000000000","result":2973,"accuracy":0.04322111,"title":"More+snow+in+southern+Finland+than+in+Lapland"}
{"id":5559698634,"url":"http://farm6.staticflickr.com/5065/5559698634_f0987a689d.jpg","path":"203/839/2038395fcfb6d7327de229ff9c1348f3.jpg","date":"2011-03-25","year":2011,"month":3,"lon":24.951614,"lat":60.16907,"tags":"finland,helsinki,mural,suomi","S2CellId":"9669000000000000","result":9899,"accuracy":0.006773214,"title":"Surviving+is+not+a+crime"}
{"id":8574957476,"url":"http://farm9.staticflickr.com/8527/8574957476_95a2854c68.jpg","path":"415/211/41521117c8692dfbd96e1cec9d6236.jpg","date":"2013-03-18","year":2013,"month":3,"lon":24.935745,"lat":60.165833,"tags":"50mm,alpha-51,appcampus,finland,finlande,helsinki,sony,uusimaa","S2CellId":"4876034f00000000","result":5196,"accuracy":0.011408072,"title":"Design+Excellence+Dinner+V","description":"Finland%2C+March+2013"}
{"id":8979644992,"url":"http://farm4.staticflickr.com/3731/8979644992_73fa330c04.jpg","path":"78a/c66/78ac66c7b6a26f9ae775d9c13dfbbdd.jpg","date":"2013-06-07","year":2013,"month":6,"lon":24.892874,"lat":60.223232,"tags":"alppiruusu,finland,haaga,helsinki,pekka+j%C3%A4rvel%C3%A4inen,rhododendron,rodopuisto","S2CellId":"4871740000000000","result":5039,"accuracy":0.006415627,"title":"IMG_3878","description":"Alppiruusuja"}
{"id":9404587999,"url":"http://farm4.staticflickr.com/3751/9404587999_ff4a3670ef.jpg","path":"4b5/c70/4b5c70dfd585442da6ec60391971acca.jpg","date":"2013-07-26","year":2013,"month":7,"lon":24.615576,"lat":60.269817,"tags":"2013,808,cameraphone,carl+zeiss,espoo,finland,hugovk,hvk,hynk%C3%A4nlampi,july,kes%C3%A4,nokia,nokia+808+pureview,pureview,southern+finland,sub24%3A,sub24%3A+hynk%C3%A4nlampi,summer,uudenmaan+maakunta","S2CellId":"463f000000000000","result":2783,"accuracy":0.05477204,"title":"Sub24%3A+Hynk%C3%A4nlampi"}
{"id":466499120,"url":"http://farm1.staticflickr.com/185/466499120_2cb98149f1.jpg","path":"9ca/d84/9cad849c7b1adc75c5b6e91b0c7cfed.jpg","date":"2007-04-17","year":2007,"month":4,"lon":24.971119,"lat":60.16123,"tags":"helsinki","S2CellId":"46920b9000000000","result":2990,"accuracy":0.18898714,"title":"Helsinki"}
{"id":3064261150,"url":"http://farm4.staticflickr.com/3056/3064261150_88059f3dc6.jpg","path":"2c7/6a2/2c76a27a26fd6b2789985e2f3da08941.jpg","date":"2008-11-27","year":2008,"month":11,"lon":24.93609,"lat":60.196766,"tags":"elisa,finland,helsinki,it%C3%A4-pasila,pasila,pikkujoulu,pikkujoulut","S2CellId":"89e7b00000000000","result":9388,"accuracy":0.011847717,"title":"2008_200811_20081127_164502_62.JPG"}
{"id":3734748226,"url":"http://farm3.staticflickr.com/2508/3734748226_820fe69b46.jpg","path":"9db/94e/9db94e6c47fb7ba1d7c795846d06716.jpg","date":"2009-07-19","year":2009,"month":7,"lon":24.99264,"lat":60.14508,"tags":"finland,helsinki,shozu","S2CellId":"40bc000000000000","result":2689,"accuracy":0.017138094,"title":"200907194747","description":"-+uploaded+by+%3Ca+href%3D%22http%3A%2F%2Fwww.shozu.com%2F%3Futm_source%3Dupload%26utm_medium%3Dgraphic%26utm_campaign%3Dupload_graphic%2F%22+target%3D%22_newwindow%22+rel%3D%22nofollow%22%3EShoZu%3C%2Fa%3E"}
{"id":4133532465,"url":"http://farm3.staticflickr.com/2791/4133532465_85b35f8c5d.jpg","path":"c52/49e/c5249e8d55862ef559aac1d5a72e20.jpg","date":"2009-11-25","year":2009,"month":11,"lon":24.94155,"lat":60.170135,"tags":"finnland,helsinki,night","S2CellId":"4887c79400000000","result":5717,"accuracy":0.074127674,"title":"Helsinki+City"}
{"id":8298008396,"url":"http://farm9.staticflickr.com/8354/8298008396_9688a5f79b.jpg","path":"627/8b1/6278b11cacac8298cdb07993b614e55.jpg","date":"2012-12-09","year":2012,"month":12,"lon":24.659008,"lat":60.16964,"tags":"lego,toys","S2CellId":"8085874300000000","result":6973,"accuracy":0.006634228,"title":"Lego+Holiplay+entry","description":"Although+we+didn%27t+win%2C+we+had+fun+submitting+some+entries+into+the+Lego+Holiplay+contest.+%3Ca+href%3D%22http%3A%2F%2Fhappyholiplay.lego.com%22+rel%3D%22nofollow%22%3Ehappyholiplay.lego.com%3C%2Fa%3E"}
{"id":8631164961,"url":"http://farm9.staticflickr.com/8109/8631164961_23271f97b0.jpg","path":"72d/f15/72df156cfaa58d8ca2dd352d13eb87.jpg","date":"2013-04-02","year":2013,"month":4,"lon":24.971766,"lat":60.189377,"tags":"2013,808,april,cameraphone,carl+zeiss,finland,gate,helsinki,hermanni,hugovk,hvk,kev%C3%A4t,nokia,nokia+808+pureview,pureview,slaughterhouse,slaughterhouse+gate,southern+finland,spring,uudenmaan+maakunta","S2CellId":"89d4d40000000000","result":9260,"accuracy":0.025235452,"title":"Slaughterhouse+Gate","description":"A+butcher+and+meat+restaurant+in+the+former+gatehouse+of+the+city+abattoir.+Does+good+burgers."}
{"id":1594987,"url":"http://farm1.staticflickr.com/2/1594987_a712a37609.jpg","path":"3e4/995/3e4995a755adce97bc959ae4674c5b.jpg","date":"2004-11-20","year":2004,"month":11,"lon":24.927114,"lat":60.196327,"tags":"helsinki,pasila,snow,winter","S2CellId":"6d318a3000000000","result":6816,"accuracy":0.006173658,"title":"lunta+puulla"}
{"id":2539133102,"url":"http://farm4.staticflickr.com/3090/2539133102_f6cbffd677.jpg","path":"d91/83d/d9183d7f1f446dc6283c65da6096c.jpg","date":"2008-05-31","year":2008,"month":5,"lon":24.99012,"lat":60.14671,"tags":"finland,helsinki,shozu,suomenlinna","S2CellId":"47b1870000000000","result":3987,"accuracy":0.21901873,"title":"20080531%28012%29","description":"-+Camera+phone+upload+powered+by+%3Ca+href%3D%22http%3A%2F%2Fwww.shozu.com%2F%3Futm_source%3Dupload%26utm_medium%3Dgraphic%26utm_campaign%3Dupload_graphic%2F%22+target%3D%22_newwindow%22%3EShoZu%3C%2Fa%3E"}
{"id":3777856794,"url":"http://farm3.staticflickr.com/2432/3777856794_4dc7043362.jpg","path":"1d5/349/1d53492ddfacb29d411b74e85984ae1.jpg","date":"2009-07-11","year":2009,"month":7,"lon":24.943943,"lat":60.166664,"tags":"finland,helsinki,tori","S2CellId":"3110174000000000","result":1711,"accuracy":0.008445671,"title":"Tori","description":"Traditional+food+at+Tori%0AFried+beet+patties"}
