{"id":5576859205,"url":"http://farm6.staticflickr.com/5012/5576859205_fffe8635be.jpg","path":"06c/8a5/06c8a5f3d56def457bfe43cee83c2b.jpg","date":"2011-03-26","year":2011,"month":3,"lon":11.115158,"lat":47.469822,"tags":"alpen,alps,partnachalm,schnee,wetterstein,wetterstein20110326,winter","S2CellId":"479d900000000000","result":3821,"accuracy":0.10295315,"title":"IMG_1982+Schneerest+bei+der+Partnachalm"}
{"id":8076634836,"url":"http://farm9.staticflickr.com/8332/8076634836_c02bfd8ec2.jpg","path":"7f3/cbb/7f3cbbf859ca28da85e9192db2ada5d.jpg","date":"2012-03-15","year":2012,"month":3,"lon":11.0905,"lat":47.491646,"tags":"alpen,garmisch-partenkirchen,hotel,hotel+zugspitze,zugspitze","S2CellId":"88fb8c0000000000","result":8745,"accuracy":0.22877988,"title":"Zimmer+im+Hotel+Zugspitze%2C+Garmisch-Partenkirchen","description":"Das+%3Cb%3EHotel+Zugspitze%3C%2Fb%3E+-+Ihr+Urlaubshotel+mitten+in+GARMISCH-Partenkirchen.%0A%0A4+Sterne.+Zentrale+und+doch+ruhige+Lage.+360+Grad+Bergpanoramablick.%0AWeitere+Informationen+unter+%3Ca+href%3D%22http%3A%2F%2Fwww.hotel-zugspitze.de%22+rel%3D%22nofollow%22%3Ewww.hotel-zugspitze.de%3C%2Fa%3E."}
{"id":4102366953,"url":"http://farm3.staticflickr.com/2515/4102366953_e646d923a8.jpg","path":"6c6/4dd/6c64dd97b819afc7b794685244ee5f29.jpg","date":"2009-11-07","year":2009,"month":11,"lon":11.394475,"lat":47.270718,"tags":"%C3%A4rztetagung,%C3%B6sterreich,07.11.2009,a,alpen,alps,austria,bergrettungs%C3%A4rztetagung,innsbruck,kongresszentrum,tagung,tirol","S2CellId":"48718ec000000000","result":5061,"accuracy":0.011267061,"title":"Bergrettungs%C3%A4rztetagung+7.11.2009","description":"Bergrettungs%C3%A4rztetagung+7.11.2009%2C+wie+dieses+Teil+verwendet+werden+soll+bleibt+mir+umklar."}
{"id":6956373392,"url":"http://farm9.staticflickr.com/8157/6956373392_97d057e211.jpg","path":"2d6/2bf/2d62bf2ddd0298acc1980d0b9bad7bd.jpg","date":"2012-04-21","year":2012,"month":4,"lon":11.183997,"lat":47.973698,"tags":"1.+andechs+trail,andechs,andechs+trail,kloster+andechs,laufen,mud,running,salomon,trail","S2CellId":"89b7b78500000000","result":8853,"accuracy":0.01537056,"title":"Andechs+Trail+-+April+2012","description":"Trail+Running%2C+Andechs"}
{"id":8050954709,"url":"http://farm9.staticflickr.com/8180/8050954709_a803ac98ee.jpg","path":"128/5a7/1285a7fc749e25861dffda4a7c84794.jpg","date":"2012-08-04","year":2012,"month":8,"lon":11.913191,"lat":47.082268,"tags":"alpen,alpes,alpi,alps,animal,animales,animals,ask+for+commercial+use,austria,aut,berg,bildagentur,canon,canon+eos+7d,cattle,city%3A+mayrhofen,country%3A+austria,countrycode%3A+aut,cow,creature,europa,europe,for+sale,green,hagens+world+-+photography,hagens_world,kommerzielle+nutzung,kuh,landscape,landschaft,lebewesen,location%3A+stilluptal,mayrhofen,meadow,monta%C3%B1a,mountain,mountains,natur,natura,nature,nutzungshonorar,paisaje,pflanze,pflanzen,plant,plants,state%3A+tirol,stock+photography,stock+photos,tier,tiere,tirol,vaca,vieh,wiese","S2CellId":"4776f00000000000","result":3424,"accuracy":0.078719065,"title":"Stilluppgrund","description":"The+Zillertal+is+the+biggest+valley+branching+off+the+Inn+valley+in+Tyrol%2C+Austria+drained+by+the+river+Ziller.+It+is+surrounded+by+the+strongly+glaciated+Zillertal+Alps+to+the+south+and+east%2C+the+lower+grass+peaks+of+the+Kitzb%C3%BChel+Alps+to+the+east+and+Tux+Alps+to+the+west.+The+largest+settlement+is+Mayrhofen.%0AThe+Zillertal+branches+from+the+Inn+trench+near+Jenbach%2C+about+40+km+northeast+of+Innsbruck%2C+running+mostly+in+a+north-south+direction.+The+Zillertal+proper+stretches+from+the+village+of+Strass+to+Mayrhofen%2C+where+it+separates+into+four+smaller+valleys%2C+the+Tux+valley+and+the+sparsely+settled%2C+so-called+Gr%C3%BCnde+-+Zamsergrund%2C+Zillergrund+and+Stilluppgrund.+Along+the+way%2C+two+more+Gr%C3%BCnde+and+the+Gerlos+valley%2C+which+leads+to+the+Gerlos+Pass+and+into+Salzburg%2C+branch+off.%0AUnlike+other+side+valleys+of+the+Inntal%2C+the+Zillertal+rises+constantly%2C+but+only+marginally%2C+from+one+end+to+the+other+-+only+about+100+m+over+30+km.+Permanent+settlements+cover+about+9%25+of+the+entire+area+of+the+Zillertal+municipalities.%0A%0A%3E%3EPhotos+for+Sale+-+just+contact+me%3C%3C%0A%0A%3Ca+target%3D%22_blank%22+href%3D%22http%3A%2F%2Fwww.flickr.com%2Fphotos%2Fhagens_world%2Fsets%2F72157631684041574%2Fdetail%2F%22%3EMore+Photos+in+the+Album%3A+Alps%3C%2Fa%3E"}
{"id":13135367845,"url":"http://farm8.staticflickr.com/7322/13135367845_9d483c51cf.jpg","path":"f28/bb7/f28bb73df9867d2570281a255e3eb9.jpg","date":"2014-03-07","year":2014,"month":3,"lon":11.39815,"lat":47.2816,"tags":"alpengarteninnsbruck,cornus,kornelkirsche","S2CellId":"883cae5000000000","result":8363,"accuracy":0.015871122,"title":"Kornelkirsche+im+Alpengarten+Innsbruck","description":"Kornelkirsche+%28Cornus+mas%29"}
{"id":13064014423,"url":"http://farm8.staticflickr.com/7357/13064014423_d8e4d8d5b9.jpg","path":"d9e/0a6/d9e0a6a3764a2dfbc19422b9cd32e8c.jpg","date":"2014-02-25","year":2014,"month":2,"lon":11.185594,"lat":47.32052,"tags":"%C3%B6sterreich,austria,dorf,nord,nordtirol,nordtyrol,oesterreich,oras,osterreich,salzburg,sat,seefeld,stadt,tirol,tyrol","S2CellId":"4771400000000000","result":3386,"accuracy":0.09196982,"title":"Seefeld+im+Tirol","description":"Nordtirol%2C+%C3%96sterreich"}
{"id":3472701423,"url":"http://farm4.staticflickr.com/3347/3472701423_8eb8719360.jpg","path":"46b/362/46b362679725948edf9eef6853fb4cfe.jpg","date":"2004-11-07","year":2004,"month":11,"lon":11.395305,"lat":47.268482,"tags":"%C3%B6sterreich,2004,altstadt,attraction,austria,bild,bronzestatue,bronzestatuen,cc,church,city,downtown,flickr,foto,franziskaner,franziskanerkirche,free,geo,grabdenkmal,grabeskirche,grabmal,herbst,high+resolution,historic,hofkirche,i.,image,innenstadt,innsbruck,jpeg,jpg,kirche,maximilian,memorial,november,old,photo,picture,schwarzmander,schwarzmander-kirche,stockphoto,tirol,touristic,town,tyrol","S2CellId":"47e67db000000000","result":4682,"accuracy":0.113894835,"title":"2004-11-06+11-07+Innsbruck+057+Hofkirche"}
{"id":5136686207,"url":"http://farm2.staticflickr.com/1167/5136686207_504acf12d8.jpg","path":"d1c/cb2/d1ccb2e95e6ed66d63a967c1631c4.jpg","date":"2010-11-01","year":2010,"month":11,"lon":11.311972,"lat":47.609406,"tags":"mmm+trip+zum+herzogstand","S2CellId":"479c400000000000","result":3812,"accuracy":0.113661684,"title":"_DSC2915","description":"MMM+trip+to+Herzogstand+%28Bavaria%2C+Germany%29"}
{"id":6903447737,"url":"http://farm8.staticflickr.com/7177/6903447737_85982a5314.jpg","path":"174/749/174749a9f68657f699d5aacf6a371919.jpg","date":"2012-02-12","year":2012,"month":2,"lon":11.753497,"lat":47.714916,"tags":"2011,2012,bavaria,bayern,deutschland,motiv,natur,nature,orte,schnee,snow,sonstige,tegernsee","S2CellId":"4786700000000000","result":3575,"accuracy":0.05452016,"title":"Sun+set+at+Tegernsee%2C+12.02.2012","description":"Sun+set+at+Tegernsee%0A%0AShot+with+a+Canon+EOS+60D+with+EF+24-104L+IS+USM.+Postprocessed+with+Adobe+Lightroom+3.6."}
{"id":6603529631,"url":"http://farm8.staticflickr.com/7174/6603529631_9442746aa1.jpg","path":"3b9/ccf/3b9ccfa35c0d2da8754386834fe316c.jpg","date":"2011-12-30","year":2011,"month":12,"lon":11.176003,"lat":47.32677,"tags":"black,portrait,reflection,self,tennis,tree,white","S2CellId":"46920a3000000000","result":2985,"accuracy":0.0061507933,"title":"Ein+Schatten+seiner+selbst"}
{"id":3126810519,"url":"http://farm4.staticflickr.com/3260/3126810519_0a08e94b7c.jpg","path":"4b8/ca9/4b8ca9f4ecf85792cf9ffeddaa6d0bb.jpg","date":"2007-11-18","year":2007,"month":11,"lon":11.753311,"lat":47.71265,"tags":"tegernsee","S2CellId":"6002c00000000000","result":6427,"accuracy":0.10971212,"title":"Tegernsee+-+Sonne%2C+See+und+Schnee+18.11.2007"}
{"id":1127247114,"url":"http://farm2.staticflickr.com/1011/1127247114_ba610e326a.jpg","path":"161/ab1/161ab1fd9bb6baf6f1dd7ac959ff577.jpg","date":"2007-07-07","year":2007,"month":7,"lon":11.287422,"lat":47.91358,"tags":"hochzeit,wedding","S2CellId":"12c9100000000000","result":838,"accuracy":0.040834,"title":"CIMG0539"}
{"id":33743909,"url":"http://farm1.staticflickr.com/22/33743909_b376de8bd5.jpg","path":"173/ece/173eceb1435cbbed23ec1530d7af6a45.jpg","date":"2005-08-09","year":2005,"month":8,"lon":11.87725,"lat":47.417168,"tags":"alpachtal,austria","S2CellId":"478ef00000000000","result":3685,"accuracy":0.08788935,"title":"alpachtal"}
{"id":5827570929,"url":"http://farm3.staticflickr.com/2575/5827570929_56ef313a06.jpg","path":"d63/7a0/d637a0ac52516c8f0c35b848fea4b3.jpg","date":"2011-06-12","year":2011,"month":6,"lon":11.28107,"lat":47.66475,"tags":"freilichtmuseum,glentleiten,gro%C3%9Fweil,museum","S2CellId":"0d56c00000000000","result":472,"accuracy":0.009639392,"title":"Glentleiten"}
{"id":2397341757,"url":"http://farm3.staticflickr.com/2333/2397341757_3eedfc6782.jpg","path":"9ed/38d/9ed38dae101bc9cd8e3f91b80ac9481.jpg","date":"2008-04-06","year":2008,"month":4,"lon":11.37126,"lat":47.25582,"tags":"ya-city-innsbruck,ya-country-at,ya-state-austria,ya-vandal1,yellowarrow","S2CellId":"4773940000000000","result":3396,"accuracy":0.11025593,"title":"1pur","description":"%3Cb%3EBy%3C%2Fb%3E+%3Ca+href%3D%22http%3A%2F%2Fwww.flickr.com%2Fphotos%2Fyellowarrow%2Fsets%2F72157604391483852%2F%22%3Evandal1%3C%2Fa%3E%0A%3Cb%3ELocation%3A%3C%2Fb%3E+Stumpfstrasse%2C+%3Ca+href%3D%22http%3A%2F%2Fwww.flickr.com%2Fphotos%2Fyellowarrow%2Fsets%2F72157604434604697%2F%22%3EInnsbruck%3C%2Fa%3E%2C+%3Ca+href%3D%22http%3A%2F%2Fwww.flickr.com%2Fphotos%2Fyellowarrow%2Fsets%2F72157604434604653%2F%22%3EAustria%3C%2Fa%3E+%28%3Ca+href%3D%22http%3A%2F%2Fwww.flickr.com%2Fphotos%2Fyellowarrow%2Fsets%2F72157604434583013%2F%22%3EAT%3C%2Fa%3E%29%0A%0A%3Cb%3ETXT%3A%3C%2Fb%3E+horizontal+and+vertical+-+bridges+from+house+to+house"}
{"id":4103103796,"url":"http://farm3.staticflickr.com/2425/4103103796_46bedbec88.jpg","path":"d88/f89/d88f895b36d9934984fcffd93ee3a48b.jpg","date":"2009-11-07","year":2009,"month":11,"lon":11.394475,"lat":47.270718,"tags":"%C3%A4rztetagung,%C3%B6sterreich,07.11.2009,a,alpen,alps,austria,bergrettungs%C3%A4rztetagung,innsbruck,kongresszentrum,tagung,tirol","S2CellId":"89c258f100000000","result":8982,"accuracy":0.011051373,"title":"Bergrettungs%C3%A4rztetagung+7.11.2009","description":"Innenraum+eines+Skischlittens+zum+sehr+bequemen+Transport+von+Patienten."}
{"id":4278608085,"url":"http://farm5.staticflickr.com/4021/4278608085_2761cfcbd6.jpg","path":"b81/3c9/b813c9474598a1e92f503d9d7ce097.jpg","date":"2010-01-08","year":2010,"month":1,"lon":11.557091,"lat":47.760597,"tags":"83646,bad+t%C3%B6lz,bad+t%C3%B6lz-wolfratshausen,bavaria,bayern,br%C3%BCcke,bridge,bus,city,d,deutschland,fluss,germany,isar,oberbayern,omnibus,river,stadt,t%C3%B6l","S2CellId":"4691000000000000","result":2978,"accuracy":0.10526808,"title":"Bad+T%C3%B6lz+am+8.1.2010","description":"Beleuchteter+Omnibus+auf+der+Isarbr%C3%BCcke+%28Marktstra%C3%9Fe%29+in+Bad+T%C3%B6lz."}
{"id":9792481444,"url":"http://farm3.staticflickr.com/2809/9792481444_c462ef9745.jpg","path":"f61/be3/f61be3b2edf6dcb2347d15d6f4f0cc.jpg","date":"2013-08-27","year":2013,"month":8,"lon":11.086277,"lat":47.48902,"tags":"affrescate,case,garmisch,garmisch-partenkirchen,germania,partenkirchen","S2CellId":"47f9000000000000","result":4733,"accuracy":0.03825487,"title":"Garmisch-Partenkirchen+%5BD%5D%2C+2013.","description":"%3Cb%3EWikipedia%3A+%3Ca+href%3D%22http%3A%2F%2Fit.wikipedia.org%2Fwiki%2FGarmisch-Partenkirchen%22+rel%3D%22nofollow%22%3EGarmisch-Partenkirchen%3C%2Fa%3E.%3C%2Fb%3E"}
{"id":2282914475,"url":"http://farm4.staticflickr.com/3134/2282914475_0e9fc27235.jpg","path":"628/cb0/628cb094cfc9f02aef2be3d1f0d5d853.jpg","date":"2008-02-18","year":2008,"month":2,"lon":11.406238,"lat":47.239376,"tags":"austria,innsbruck,tcws08,tencompetence,winterschool2008","S2CellId":"47c3c4d000000000","result":4219,"accuracy":0.04540515,"title":"DSC_8530"}
{"id":10069053266,"url":"http://farm3.staticflickr.com/2826/10069053266_5954af7f07.jpg","path":"f6f/332/f6f332bd926ca7c7aa5be5568276ee.jpg","date":"2013-08-24","year":2013,"month":8,"lon":11.316208,"lat":47.58435,"tags":"16%3A9,2013,bavaria,bayern+%2F+bavaria,flickr,germany,hiking,kochel,luxtonnerre,outdoors,summer,wallpaper","S2CellId":"5353000000000000","result":6037,"accuracy":0.01735573,"title":"_MG_4319_Walchensee_DE_20130824.jpg"}
{"id":146289379,"url":"http://farm1.staticflickr.com/49/146289379_aaaf15657b.jpg","path":"f35/a13/f35a13d218fdb6760dfc8df9d45fcf8.jpg","date":"2005-09-24","year":2005,"month":9,"lon":11.061687,"lat":47.504215,"tags":"alpen,alps,bavaria,bayern,germany,zugspitze","S2CellId":"54866c0000000000","result":6114,"accuracy":0.25651672,"title":"DSC02029"}
{"id":7138967331,"url":"http://farm9.staticflickr.com/8015/7138967331_08614de9e0.jpg","path":"2ff/e5c/2ffe5c9c99473f5c5feef21f63ecee5.jpg","date":"2012-04-29","year":2012,"month":4,"lon":11.111726,"lat":47.493618,"tags":"bavaria,bayern,christ,christus,cross,garmisch-partenkirchen,inri,jesus,kreuz,partenkirchen,zugspitzland","S2CellId":"478d400000000000","result":3670,"accuracy":0.59360266,"title":"Jesus+Christus","description":"Kreuz+neben+der+Pfarrkirche+Partenkirchen+in+der+Ludwigstra%C3%9Fe."}
{"id":711848749,"url":"http://farm2.staticflickr.com/1378/711848749_a2f08a96c9.jpg","path":"84a/d2d/84ad2de72018cec812d05cd9dc72a1ad.jpg","date":"2007-07-04","year":2007,"month":7,"lon":11.065292,"lat":47.595657,"tags":"europe,germany,oberammergau","S2CellId":"89c8037000000000","result":9187,"accuracy":0.038145095,"title":"snake2","description":"another+snake+-+Reptilhaus+Oberammergau"}
{"id":8076639971,"url":"http://farm9.staticflickr.com/8194/8076639971_1f8c6c5f8c.jpg","path":"2f8/bce/2f8bce56455155bdd35b36c1238a8c.jpg","date":"2010-02-10","year":2010,"month":2,"lon":11.0905,"lat":47.491646,"tags":"alpen,garmisch-partenkirchen,hotel,hotel+zugspitze,zugspitze","S2CellId":"8421000000000000","result":7415,"accuracy":0.0028578017,"title":"Entspannendes+Bad+im+Hotel+Zugspitze%2C+Garmisch-Partenkirchen","description":"Das+%3Cb%3EHotel+Zugspitze%3C%2Fb%3E+-+Ihr+Urlaubshotel+mitten+in+GARMISCH-Partenkirchen.%0A%0A4+Sterne.+Zentrale+und+doch+ruhige+Lage.+360+Grad+Bergpanoramablick.%0AWeitere+Informationen+unter+%3Ca+href%3D%22http%3A%2F%2Fwww.hotel-zugspitze.de%22+rel%3D%22nofollow%22%3Ewww.hotel-zugspitze.de%3C%2Fa%3E."}
{"id":10748773115,"url":"http://farm6.staticflickr.com/5480/10748773115_9a6c22969c.jpg","path":"e35/85e/e3585edf77bcd0918f4ddf93074a269.jpg","date":"2013-07-14","year":2013,"month":7,"lon":11.334114,"lat":47.96039,"tags":"2013,bavaria,business+trip,germany,munich,travel","S2CellId":"479dcc0000000000","result":3824,"accuracy":0.06985223,"title":"Boats","description":"Starnberger+See"}
{"id":2745972897,"url":"http://farm4.staticflickr.com/3100/2745972897_0f56674b4d.jpg","path":"249/ff9/249ff9e8cb59cd27563bb5e79232da.jpg","date":"2008-08-03","year":2008,"month":8,"lon":11.114044,"lat":47.451077,"tags":"nature,partnach,river","S2CellId":"4776f00000000000","result":3424,"accuracy":0.26165238,"title":"Entlang+der+Partnach"}
{"id":4713547772,"url":"http://farm5.staticflickr.com/4013/4713547772_e42760eea8.jpg","path":"9af/75e/9af75e96d5835fb6e517b84eec4341c.jpg","date":"2010-06-05","year":2010,"month":6,"lon":11.107864,"lat":47.951077,"tags":"ammersee,basket,basketry,braun,brown,curve,die%C3%9Fen,dorena-wm,edge,flea+market,flechten,flohmarkt,gebogen,geflecht,korb,korbwaren,muster,ornament,pattern,rand,rund,wicker","S2CellId":"48761b3240000000","result":5320,"accuracy":0.036604613,"title":"Texture+of+Basket","description":"Sch%C3%B6ne+Korbwaren+am+Flohmarkt+in+Die%C3%9Fen+am+Ammersee%0ABeautiful+baskets+at+the+flea+market+in+Die%C3%9Fen+Ammersee"}
{"id":6320828534,"url":"http://farm7.staticflickr.com/6107/6320828534_faf686baf2.jpg","path":"13e/548/13e54844e0dcb695beaa82e91ae1fa7.jpg","date":"2011-11-03","year":2011,"month":11,"lon":11.398744,"lat":47.280636,"tags":"%C3%B6sterreich,2011,3.11.2011,a,austria,capital+city,herbst,innsbruck,landeshauptstadt,nachtbild,night+view,november,tirol","S2CellId":"479d700000000000","result":3820,"accuracy":0.20755789,"title":"Innsbruck+bei+Nacht+am+3.11.2011","description":"Blick+vom+Parkplatz+beim+Alpenzoo+%C3%BCber+das+abendliche+Innsbruck."}
{"id":9983469244,"url":"http://farm3.staticflickr.com/2833/9983469244_b55aaebc26.jpg","path":"d7d/92b/d7d92b5d5dd1b19eb4304e8ada8a3b.jpg","date":"2013-08-29","year":2013,"month":8,"lon":11.043838,"lat":47.44956,"tags":"h%C3%B6llentalklamm,lumia+920,wettersteingebirge","S2CellId":"479d100000000000","result":3817,"accuracy":0.092292,"title":"Rohre","description":"Rohre+am+be%C3%A4ngstigend+bedr%C3%BCckenden+Felsen+entlang+..."}
{"id":5144074678,"url":"http://farm2.staticflickr.com/1047/5144074678_bcc815ff68.jpg","path":"bf9/bfe/bf9bfec3fe7ecd31669763540865e17.jpg","date":"2008-08-16","year":2008,"month":8,"lon":11.131725,"lat":47.471626,"tags":"original+iphoto","S2CellId":"479d100000000000","result":3817,"accuracy":0.07919468,"title":"P1020032.JPG"}
{"id":6032401004,"url":"http://farm7.staticflickr.com/6205/6032401004_1fb691223d.jpg","path":"db6/c28/db6c28bcb5f242396d93e1c513855c7.jpg","date":"2011-08-06","year":2011,"month":8,"lon":11.854033,"lat":47.34182,"tags":"%C3%B6sterreich,06.08.2011,air,andy,austria,electro,event,f%C3%BCgen,festival,levar,music,oesterreich,open,openair,party,reise,younity,zillertal","S2CellId":"4777c00000000000","result":3426,"accuracy":0.19451204,"title":"IMG_0041"}
{"id":4977957262,"url":"http://farm5.staticflickr.com/4112/4977957262_db81e16855.jpg","path":"364/316/3643168f3d949c175714fbe8f1720eb.jpg","date":"2010-08-24","year":2010,"month":8,"lon":11.059799,"lat":47.591347,"tags":"bavaria,oberammergau","S2CellId":"479d700000000000","result":3820,"accuracy":0.077652074,"title":"Oberammergau%2CBavaria"}
{"id":8161236738,"url":"http://farm9.staticflickr.com/8198/8161236738_1f70c2fc24.jpg","path":"7d1/1c6/7d11c66ad233cccef157a8fdd5b01d69.jpg","date":"2012-11-03","year":2012,"month":11,"lon":11.656177,"lat":47.68035,"tags":"2012,alpen,alps,autumn,bayerische+voralpen,herbst,lenggries2012","S2CellId":"8620af4000000000","result":7522,"accuracy":0.052205674,"title":"IMG_5245"}
{"id":2209723674,"url":"http://farm3.staticflickr.com/2104/2209723674_635fd5c488.jpg","path":"112/3a4/1123a45fb7d1ecc4f0cb74143bef6ca.jpg","date":"2008-01-20","year":2008,"month":1,"lon":11.086063,"lat":47.494587,"tags":"2008,bavaria,garmisch,germany","S2CellId":"310b000000000000","result":1702,"accuracy":0.02990124,"title":"Three+Kings+Blessing"}
{"id":2786683615,"url":"http://farm4.staticflickr.com/3038/2786683615_508da91d83.jpg","path":"471/fef/471fefb2d4e7f18226f5feed8beb9.jpg","date":"2008-08-16","year":2008,"month":8,"lon":11.39411,"lat":47.26936,"tags":"austria,europe,innsbruck,mountains","S2CellId":"0da1000000000000","result":610,"accuracy":0.05960827,"title":"St.+James+Cathedral"}
{"id":8561551149,"url":"http://farm9.staticflickr.com/8376/8561551149_711ea6946d.jpg","path":"3df/9cb/3df9cb484f17468d1476431a915c394.jpg","date":"2013-03-16","year":2013,"month":3,"lon":11.345015,"lat":47.99512,"tags":"chameleon+filter,starnberger+see","S2CellId":"5490300000000000","result":6197,"accuracy":0.063310996,"title":"Quietness"}
{"id":2787160275,"url":"http://farm4.staticflickr.com/3212/2787160275_0479f7215f.jpg","path":"e47/cdf/e47cdf1b96145957f18dca825d34b4db.jpg","date":"2008-08-16","year":2008,"month":8,"lon":11.457118,"lat":47.20985,"tags":"alps,austria,clouds,europe,igls,innsbruck,mountains","S2CellId":"478e100000000000","result":3675,"accuracy":0.027462691,"title":"IMG_2472"}
{"id":2972054582,"url":"http://farm4.staticflickr.com/3198/2972054582_36b17841c2.jpg","path":"c18/518/c1851825be28a7c3011c7b375bccbd.jpg","date":"2007-07-12","year":2007,"month":7,"lon":11.504402,"lat":47.281906,"tags":"%C3%B6sterreich,austria,churches,hall+in+tirol,jesuit,jesuitenkirche","S2CellId":"479c400000000000","result":3812,"accuracy":0.3945579,"title":"IMG_2874+-+Hall+in+Tirol+-+Jesuitenkirche"}
{"id":2430788751,"url":"http://farm3.staticflickr.com/2131/2430788751_4d1192643e.jpg","path":"edc/8f0/edc8f03cd6de69f5f87073dd28c18726.jpg","date":"2008-04-20","year":2008,"month":4,"lon":11.639328,"lat":47.849945,"tags":"baum,blau,hackensee,kleinhartpenning,moorsee,wasser","S2CellId":"88d0a631cabb5071","result":8563,"accuracy":0.18176466}
{"id":13132510233,"url":"http://farm8.staticflickr.com/7342/13132510233_f41067c9b0.jpg","path":"f1e/b88/f1eb88f5bdfbe2166e2ed226e07c37a.jpg","date":"2014-03-07","year":2014,"month":3,"lon":11.398833,"lat":47.282234,"tags":"alpenzooinnsbruck,capreolus,reh","S2CellId":"8620a4c000000000","result":7506,"accuracy":0.15385655,"title":"Reh+im+Alpenzoo+Innsbruck","description":"Reh+%28Capreolus+capreolus"}
{"id":2784403427,"url":"http://farm4.staticflickr.com/3123/2784403427_b33efd4d26.jpg","path":"cee/93a/cee93ad5b9a0b5d4a34921a943f38d40.jpg","date":"2004-03-18","year":2004,"month":3,"lon":11.881456,"lat":47.71897,"tags":"2004,alpen,alps,bavaria,bayrischer,bergwald,bild,burgruine,cc,creative+commons,flickr,foto,fr%C3%BChling,free,high+resolution,hohenwaldeck,image,jpeg,jpg,lake,m%C3%A4rz,oberbayern,photo,picture,ruin,ruine,schliersee,see,stockphoto,upper,voralpen,voralpenland,wanderung,winter","S2CellId":"12b3000000000000","result":802,"accuracy":0.0056283833,"title":"2004-03-18+Schliersee+037"}
{"id":4903714625,"url":"http://farm5.staticflickr.com/4117/4903714625_4071a3182f.jpg","path":"54a/47f/54a47f44dc2f348286f0681dbcc9457.jpg","date":"2010-08-10","year":2010,"month":8,"lon":11.16995,"lat":47.08476,"tags":"2010,alpen,alps,aperer+turm,hiking,rinnenspitze,stubai,stubai2010,summer","S2CellId":"12a8400000000000","result":770,"accuracy":0.07221267,"title":"IMG_0318"}
{"id":5827509495,"url":"http://farm3.staticflickr.com/2519/5827509495_0699ea921d.jpg","path":"a8a/b36/a8ab362a32ca3ba2b2167aed6cf7ad34.jpg","date":"2011-06-12","year":2011,"month":6,"lon":11.28107,"lat":47.66475,"tags":"freilichtmuseum,glentleiten,gro%C3%9Fweil,museum","S2CellId":"961c000000000000","result":9868,"accuracy":0.0778931,"title":"Glentleiten"}
{"id":485494880,"url":"http://farm1.staticflickr.com/177/485494880_b7705cd993.jpg","path":"114/4c4/1144c4b0598b5eb12f209ba5a26c47ac.jpg","date":"2007-05-05","year":2007,"month":5,"lon":11.393251,"lat":47.268295,"tags":"innsbruck","S2CellId":"479d700000000000","result":3820,"accuracy":0.20212036}
{"id":2397319569,"url":"http://farm3.staticflickr.com/2373/2397319569_4867b9d111.jpg","path":"6b9/ca4/6b9ca4a4eb782e8be3c4bd259dadad.jpg","date":"2008-04-06","year":2008,"month":4,"lon":11.38011,"lat":47.26464,"tags":"ya-city-innsbruck,ya-country-at,ya-kathi,ya-state-austria,yellowarrow","S2CellId":"8842400000000000","result":8397,"accuracy":0.0075308774,"title":"d2er","description":"%3Cb%3EBy%3C%2Fb%3E+%3Ca+href%3D%22http%3A%2F%2Fwww.flickr.com%2Fphotos%2Fyellowarrow%2Fsets%2F72157604391481308%2F%22%3Ekathi%3C%2Fa%3E%0A%3Cb%3ELocation%3A%3C%2Fb%3E+F%C3%BCrstenweg%2C+%3Ca+href%3D%22http%3A%2F%2Fwww.flickr.com%2Fphotos%2Fyellowarrow%2Fsets%2F72157604434604697%2F%22%3EInnsbruck%3C%2Fa%3E%2C+%3Ca+href%3D%22http%3A%2F%2Fwww.flickr.com%2Fphotos%2Fyellowarrow%2Fsets%2F72157604434604653%2F%22%3EAustria%3C%2Fa%3E+%28%3Ca+href%3D%22http%3A%2F%2Fwww.flickr.com%2Fphotos%2Fyellowarrow%2Fsets%2F72157604434583013%2F%22%3EAT%3C%2Fa%3E%29%0A%0A%3Cb%3ETXT%3A%3C%2Fb%3E+Auf+diesem+sonst+so+tristen+Flughafen+gibt+es+Kunst+am+Boden."}
{"id":4554566874,"url":"http://farm3.staticflickr.com/2313/4554566874_a972fb81ef.jpg","path":"a1f/76c/a1f76cbd43e4cfb8c1b796f16268c6.jpg","date":"2010-04-26","year":2010,"month":4,"lon":11.593408,"lat":47.89206,"tags":"bad+t%C3%B6lz,baiernrain,dietramszell,m%C3%BCnchen,oberbayern,pf%C3%A4lzer+wein,pfalzwein,wein,winter","S2CellId":"479d900000000000","result":3821,"accuracy":0.044213835,"title":"IMG_0467"}
{"id":1069311313,"url":"http://farm2.staticflickr.com/1062/1069311313_553c2f3f9c.jpg","path":"75b/b7c/75bb7c2784eff28e2ecaffea5cf2aa6.jpg","date":"2007-07-23","year":2007,"month":7,"lon":11.055507,"lat":47.09011,"tags":"%C3%B6tztal,gries,oetztal,sulztal,winnebach,winnebachsee,winnebachseeh%C3%BCtte,winnebachseehuette","S2CellId":"4785700000000000","result":3567,"accuracy":0.20541963,"title":"Winnebachseehuette"}
{"id":3623905839,"url":"http://farm4.staticflickr.com/3625/3623905839_b13fe1bbdd.jpg","path":"f65/a22/f65a22ab32b4236060de9b5e34de11d9.jpg","date":"2009-06-12","year":2009,"month":6,"lon":11.472644,"lat":47.83413,"tags":"2009,bavaria,blue,germany,landscapes,sky,summer","S2CellId":"4691000000000000","result":2978,"accuracy":0.0371283,"title":"Bibisee","description":"near+Geretsried%2C+Bavaria%2C+Bad+T%C3%B6lz"}
{"id":5639680073,"url":"http://farm6.staticflickr.com/5270/5639680073_9d8abdee56.jpg","path":"57e/4f2/57e4f22544118afaca7c4279d52b851.jpg","date":"2011-04-20","year":2011,"month":4,"lon":11.139039,"lat":47.559677,"tags":"bagger,bavaria,eye-fi,germany,loisach,oberau","S2CellId":"477a400000000000","result":3437,"accuracy":0.102204084,"title":"Bagger+im+Wasser","description":"An+der+Kiesfalle+beim+Erlenweg+wird+mal+wieder+gebaggert."}
{"id":418631296,"url":"http://farm1.staticflickr.com/146/418631296_f7a6bde862.jpg","path":"e1f/25c/e1f25c112b4f3d5762c760c739eaf8a.jpg","date":"2007-03-11","year":2007,"month":3,"lon":11.862916,"lat":47.733723,"tags":"details,detschland,explore,germany,interestingness,ivanovbr,lagos,lake,m%C3%BCnchen,munich,schilersee","S2CellId":"4791700000000000","result":3714,"accuracy":0.008559185,"title":"Schliersee","description":"O+que+escrever%3F+N%C3%A3o+tenho+id%C3%A9ia...+ser%C3%A1+que+algum+poema+do+Leminski+entra+aqui%3F"}
{"id":3535150777,"url":"http://farm3.staticflickr.com/2131/3535150777_37847bf97b.jpg","path":"1fa/2e6/1fa2e6ea171a27f31f2361b7d3633e9.jpg","date":"2004-09-19","year":2004,"month":9,"lon":11.126661,"lat":47.466686,"tags":"2004,alpen,alps,bavaria,bayern,berg,berge,bergwald,bergwanderung,bild,cc,flickr,forest,foto,free,gap,garmisch,garmisch-partenkirchen,geo,herbst,high+resolution,hike,image,jpeg,jpg,land,mountain,mountains,oberbayern,partenkirchen,photo,picture,september,sommer,stockphoto,wanderung,werdenfels,werdenfelser","S2CellId":"5495f00000000000","result":6276,"accuracy":0.10804252,"title":"2004-09-19+Partenkirchen%2C+Wamberg%2C+Eckbauer+Alm%2C+Partnachklamm+036"}
{"id":6310786410,"url":"http://farm7.staticflickr.com/6050/6310786410_014c89c9db.jpg","path":"dea/a92/deaa9217e2363dcebb56a4dfdbc440ed.jpg","date":"2011-10-18","year":2011,"month":10,"lon":11.181979,"lat":47.975025,"tags":"andechs,church,germany,kloster,tower,travel,vacation","S2CellId":"479ec00000000000","result":3862,"accuracy":0.087979,"title":"Church+Tower"}
{"id":2398024964,"url":"http://farm4.staticflickr.com/3237/2398024964_c7e3d61a75.jpg","path":"2d4/744/2d47448503b13881c80ad53cf904a8b.jpg","date":"2008-04-06","year":2008,"month":4,"lon":11.46353,"lat":47.28784,"tags":"ya-city-rum,ya-country-at,ya-david000,ya-state-tirol,yellowarrow","S2CellId":"478ed00000000000","result":3684,"accuracy":0.03683555,"title":"9e15","description":"%3Cb%3EBy%3C%2Fb%3E+%3Ca+href%3D%22http%3A%2F%2Fwww.flickr.com%2Fphotos%2Fyellowarrow%2Fsets%2F72157604395933327%2F%22%3Edavid000%3C%2Fa%3E%0A%3Cb%3ELocation%3A%3C%2Fb%3E+D%C3%B6rferstrasse%2C+%3Ca+href%3D%22http%3A%2F%2Fwww.flickr.com%2Fphotos%2Fyellowarrow%2Fsets%2F72157604437784935%2F%22%3ERum%3C%2Fa%3E%2C+%3Ca+href%3D%22http%3A%2F%2Fwww.flickr.com%2Fphotos%2Fyellowarrow%2Fsets%2F72157604430024074%2F%22%3ETirol%3C%2Fa%3E+%28%3Ca+href%3D%22http%3A%2F%2Fwww.flickr.com%2Fphotos%2Fyellowarrow%2Fsets%2F72157604434583013%2F%22%3EAT%3C%2Fa%3E%29%0A%0A%3Cb%3ETXT%3A%3C%2Fb%3E+Ein+au%C3%9Fergew%C3%B6hnliches+Kunstwerk+in+einer+eher+konservativen+Umgebung."}
{"id":2677998228,"url":"http://farm4.staticflickr.com/3094/2677998228_798a963ef9.jpg","path":"296/918/296918bd8e239ae689dcc986a54bd745.jpg","date":"2008-07-02","year":2008,"month":7,"lon":11.76979,"lat":47.28147,"tags":"alps,austria,hiking,loassattel,longdistance+walking,mountains,rastkogelhutte,via-alpina","S2CellId":"478ef00000000000","result":3685,"accuracy":0.07437316,"title":"From+Rastkogelhutte+to+Loassattel"}
{"id":5703960406,"url":"http://farm3.staticflickr.com/2310/5703960406_bd86e7ea7e.jpg","path":"882/ff6/882ff6f1d4bf13f27c71d5e94551f8.jpg","date":"2011-05-06","year":2011,"month":5,"lon":11.14078,"lat":47.56676,"tags":"bavaria,eye-fi,germany,oberau","S2CellId":"5470000000000000","result":6094,"accuracy":0.12697402,"title":"Erdh%C3%BCgel+am+Fu%C3%9Fballplatz","description":"%C3%84hm%2C+eher+Erdh%C3%BCgel+an+der+Baustelle+f%C3%BCr+den+Fu%C3%9Fballplatz.+Aber+immerhin+geht+es+munter+weiter..."}
{"id":12321681994,"url":"http://farm3.staticflickr.com/2887/12321681994_2fc9136ab7.jpg","path":"411/8ff/4118ff68591341488c147824c599eb0.jpg","date":"2013-08-03","year":2013,"month":8,"lon":11.063318,"lat":47.59865,"tags":"baviera,bayern,estate,germania,germany,oberammergau,summer","S2CellId":"80dcd7df00000000","result":7356,"accuracy":0.04915594,"title":"oberammergau_21"}
{"id":13131925883,"url":"http://farm3.staticflickr.com/2620/13131925883_e0cd30186b.jpg","path":"739/260/73926037927e5139e0cef81dc81c78a4.jpg","date":"2014-03-07","year":2014,"month":3,"lon":11.3982,"lat":47.282516,"tags":"alpenzooinnsbruck,bison,wisent","S2CellId":"48708c0000000000","result":4987,"accuracy":0.02580128,"title":"Wisent+im+Alpenzoo+Innsbruck","description":"Wisent+oder+Europ%C3%A4ische+Bison+%28Bison+bonasus%29"}
{"id":13857376055,"url":"http://farm8.staticflickr.com/7421/13857376055_524a199da5.jpg","path":"74e/41e/74e41e763c391764e31dab767dd7e6.jpg","date":"2014-04-13","year":2014,"month":4,"lon":11.393361,"lat":47.26835,"tags":"2014,austria,cathedral,dom,palm+sunday,salzburg,st.+jakob","S2CellId":"470b94e900000000","result":3166,"accuracy":0.18534221,"title":"2014-04-13+10.25.38","description":"Palm+Sunday%2C+St.+Jakob%27s+Dom%2C+Innsbruck"}
{"id":1069299137,"url":"http://farm2.staticflickr.com/1125/1069299137_cc395100df.jpg","path":"ada/c61/adac615288437a9bf05abcdb3a1d5783.jpg","date":"2007-07-23","year":2007,"month":7,"lon":11.055507,"lat":47.09011,"tags":"%C3%B6tztal,gries,oetztal,seeblaskogel,sulztal,winnebach,winnebachsee,winnebachseeh%C3%BCtte,winnebachseehuette","S2CellId":"4715c00000000000","result":3204,"accuracy":0.23420614,"title":"P7230071"}
{"id":2971956232,"url":"http://farm4.staticflickr.com/3024/2971956232_48fe635abb.jpg","path":"927/0d3/9270d3209822722d3995417e62942188.jpg","date":"2008-10-25","year":2008,"month":10,"lon":11.401062,"lat":47.266125,"tags":"%C3%B6sterreich,austria,churches,innsbruck,servitenkirche","S2CellId":"479d700000000000","result":3820,"accuracy":0.08258563,"title":"IMG_2706-2707+-+Innsbruck+-+Servitenkirche"}
{"id":3506667943,"url":"http://farm4.staticflickr.com/3590/3506667943_cff0d988d3.jpg","path":"ca6/a3f/ca6a3f69bf573398682af72669de46fc.jpg","date":"2004-07-31","year":2004,"month":7,"lon":11.136788,"lat":47.44243,"tags":"2004,alpen,alpengarten,alps,bavaria,bayern,bild,bl%C3%BCte,blossom,blume,botanischer,cc,closeup,elmau,flickr,flower,foto,fr%C3%BChlingsblume,free,garden,garmisch,garten,geo,high+resolution,hike,himalayagarten,image,jpeg,jpg,juli,land,macro,makro,oberbayern,partenkirchen,photo,picture,schachen,sommer,stockphoto,wanderung,werdenfelser,wetterstein,wettersteingebirge","S2CellId":"4779c00000000000","result":3436,"accuracy":0.027090807,"title":"2004-07-31+Schachen%2C+Wettersteingebirge%2C+Garmisch+056"}
{"id":13955749932,"url":"http://farm8.staticflickr.com/7085/13955749932_af3b008d5c.jpg","path":"2d4/0c8/2d40c8f9a65c4b9a4fb903f9cbf8de4.jpg","date":"2014-04-21","year":2014,"month":4,"lon":11.623191,"lat":47.820705,"tags":"2013,77,a77,alpha,august,bavaria,bayern,bergsee,bild,cc,ellbachmoor,flickr,foto,fr%C3%BChling,geo,hi-res,high,image,jpeg,jpg,kirchsee,kirchseemoor,kloster,moorsee,oberbayern,photo,picture,resolution,reutberg,sachsenkam,see,slt-a77,sony,spring,stockphoto,voralpenland","S2CellId":"5470000000000000","result":6094,"accuracy":0.06055503,"title":"2014-04-21+Sachsenkam%2C+Kirchsee+001","description":"."}
{"id":4241420125,"url":"http://farm3.staticflickr.com/2777/4241420125_fa80f353fd.jpg","path":"c1e/f1d/c1ef1d5872ca7b5a3e28424c85757fb.jpg","date":"2010-01-03","year":2010,"month":1,"lon":11.307077,"lat":47.795326,"tags":"2010,bavaria,bayern,couchsurfing,deutschland,germany,hiking,januar,ostersee,sonne,spaziergang,sunshine,wanderung,winter","S2CellId":"89d5400000000000","result":9263,"accuracy":0.022025235,"title":"am+Ostersee+4","description":"winter+hikhing+afternoon+around+the+Ostersee+South+of+the+Starnberger+See+in+Bavaria"}
{"id":5718239318,"url":"http://farm4.staticflickr.com/3162/5718239318_7dd476b50d.jpg","path":"b81/d3e/b81d3e4dfad1b13a1565d9124f4a5b45.jpg","date":"2011-05-07","year":2011,"month":5,"lon":11.411533,"lat":47.607292,"tags":"black,canon,dog,eos+550d,flash,labrador,metz,portrait,strobist","S2CellId":"47e61d1d00000000","result":4562,"accuracy":0.009854128,"title":"...okay+one+more+shot+but+I+want+a+goodie%21","description":"Another+one+of+the+three+toothed+black+lab%21+%0AOnce+again+I+bought+his+patience+-+it%27s+a+give+and+take...+%0ATaken+during+a+hiking+tour+in+the+alps.+%0A%0A%0AStrobist%3A+Metz+50+AF-1+fired+bare%2C+camera+right%2C+set+to+1%2F8%2C+triggered+by+YONGNUO+CTR-301P"}
{"id":5730400512,"url":"http://farm4.staticflickr.com/3143/5730400512_816c4009d9.jpg","path":"e8b/e75/e8be755a1b8a0443a82291d570bb9.jpg","date":"2008-02-14","year":2008,"month":2,"lon":11.389904,"lat":47.267174,"tags":"architectural+facades,architectural+solutions,brise+soleil,colt,controllable+solar+shading,ellisse,facades,fixed+solar+shading,glass+louvres,louver,louvre,metal+louvres,natural+ventilation,pv+louvres,shading+louvres,sliding+shutter+system,solar+shading,sun+shading,timber+louvres,ventilation","S2CellId":"47a850c000000000","result":3919,"accuracy":0.015660815,"title":"Kinder+Und+Herzzentrum%2C+Innsbruck%283%29","description":"A+Colt+Ellisse+sliding+shutter+system+installation+at+Kinder+Und+Herzzentrum%2C+Innsbruck."}
{"id":8598015828,"url":"http://farm9.staticflickr.com/8388/8598015828_0c30b0a176.jpg","path":"674/18d/67418d4543b2a557819e666c63eeb3.jpg","date":"2013-02-23","year":2013,"month":2,"lon":11.196666,"lat":47.674667,"tags":"alpen,alpenhof+murnau,bayern,deutschland,gabriele+m%C3%BCnter,gabriele+m%C3%BCnter+haus,kandinsky,kulinarik,kunst,m%C3%BCnter+haus,markt+murnau,murnau","S2CellId":"89c258fb00000000","result":8987,"accuracy":0.053541873,"title":"Murnau_1_Gabriele_Muenter_Haus_Feb2013_030"}
{"id":9605726077,"url":"http://farm8.staticflickr.com/7334/9605726077_1d7efb67a4.jpg","path":"fd5/cd6/fd5cd67b0fb4c33404c43535aa8fd78.jpg","date":"2013-08-26","year":2013,"month":8,"lon":11.306304,"lat":47.674637,"tags":"deutschland,freilichtmuseum+glentleiten,gatters%C3%A4ge,germany,glentleiten,gro%C3%9Fweil,haus+aus+sauerlach,heribert++pohl,nikon+d300,s%C3%A4gem%C3%BChle","S2CellId":"40b5000000000000","result":2687,"accuracy":0.01693252,"title":"Sa%CC%88gemu%CC%88hle+von++1867+aus+Potzmu%CC%88hle%2C+Kreis+Rosenheim%2C+Oberbayern+--+Sawmill+in+1867+from+Potzmu%CC%88hle%2C+Rosenheim+district%2C+Upper+Bavaria+-1","description":"Freilichtmuseum+Glentleiten%2C+Gro%C3%9Fweil+Oberbayern+-+Glentleiten+Open+Air+Museum%2C+Gro%C3%9Fweil+Upper+Bavaria"}
{"id":5213991555,"url":"http://farm6.staticflickr.com/5001/5213991555_f17f489b05.jpg","path":"1d1/ab6/1d1ab6bc1b320e58a4329da9db896f5.jpg","date":"2010-11-27","year":2010,"month":11,"lon":11.854575,"lat":47.732986,"tags":"2010,55,a55,alpen,alpha,bavaria,bavarian,bayerische,bayern,bild,cc,deutschland,flickr,foto,geo,german,germany,hi-res,high+resolution,image,jpeg,jpg,kalkalpen,lake,november,oberbayern,photo,picture,schliersee,schnee,schneelandschaft,see,slt-a55,snow,sony,stockphoto,upper,voralpen,winter,winterlandschaft","S2CellId":"463f000000000000","result":2783,"accuracy":0.15603478,"title":"2010-11-27+Schliersee+040"}
{"id":5699679911,"url":"http://farm6.staticflickr.com/5066/5699679911_3d144f46a0.jpg","path":"1eb/3cd/1eb3cd170b081382ff32ef328a899f5.jpg","date":"2011-05-08","year":2011,"month":5,"lon":11.863689,"lat":47.73361,"tags":"alpen,alps,bavaria,bavi%C3%A8re,bayern,bierinsel,hohenwaldeck,oberbayern,schliersee,waldeck","S2CellId":"477ac00000000000","result":3438,"accuracy":0.049645334,"title":"Schliersee+08+Mai+2011_06"}
{"id":6937237995,"url":"http://farm8.staticflickr.com/7202/6937237995_8d90fbe709.jpg","path":"20a/797/20a7978913632886af9382a0ed7194ed.jpg","date":"2011-08-19","year":2011,"month":8,"lon":11.506682,"lat":47.003983,"tags":"trains","S2CellId":"487673c000000000","result":5371,"accuracy":0.07050709,"title":"O%CC%88BB+Class+4024+%28Bombardier+Talen+2006-%29+Interior"}
{"id":2221481687,"url":"http://farm3.staticflickr.com/2026/2221481687_d67b591c3c.jpg","path":"df1/8b5/df18b58d193fd50447dcf0bb7ec4e.jpg","date":"2007-06-10","year":2007,"month":6,"lon":11.868152,"lat":47.72941,"tags":"schliersee","S2CellId":"478ff00000000000","result":3693,"accuracy":0.23828594,"title":"Schliersee","description":"Kirche+St.-Sixtus"}
{"id":6128034968,"url":"http://farm7.staticflickr.com/6200/6128034968_7d3a6a256f.jpg","path":"9b5/7ac/9b57acf5b23dbdc51534ee4cd1272f2.jpg","date":"2011-09-06","year":2011,"month":9,"lon":11.515645,"lat":47.21441,"tags":"365,600d,adobe,austria,beam,beauty,bloom,blossom,canon,close,days,eos,europe,flickraward,flower,grass,green,itslegitx,little,marco,meadow,nature,near,photoshop,project,ray,rebel,summer,sun,t3i","S2CellId":"47a7400000000000","result":3897,"accuracy":0.0047550374,"title":"Lil%27+Beauties","description":"DAY%3A+one+hundred+four+%2F+three+hundred+sixty-five"}
{"id":8296095979,"url":"http://farm9.staticflickr.com/8500/8296095979_e783d94f31.jpg","path":"d59/3d1/d593d1a167271895827e7c5ac9c.jpg","date":"2007-06-23","year":2007,"month":6,"lon":11.386299,"lat":47.267117,"tags":"austria,europe,innsbruck","S2CellId":"48650c0000000000","result":4871,"accuracy":0.036298558}
{"id":2723164269,"url":"http://farm4.staticflickr.com/3203/2723164269_cc46b23ccb.jpg","path":"3dc/837/3dc837a6ee75a20727f6b31d9431399.jpg","date":"2006-11-16","year":2006,"month":11,"lon":11.025381,"lat":47.876835,"tags":"2006,abbey,baptist,barock,baroque,bavaria,bayern,bild,cc,church,commons,creative+commons,flickr,foto,free,herbst,high+resolution,image,johann,jpeg,jpg,kirche,kloster,klosterkirche,monastery,november,oberbayern,pfaffenwinkel,pfaffenwinkl,photo,picture,sankt,schmuzer,st.,stockphoto,stuckateur,upper,weilheim-schongau,wessobrunn,wessobrunner+schule,wikimedia","S2CellId":"479c400000000000","result":3812,"accuracy":0.08507376,"title":"2006-11-16+I+Wessobrunn+Kloster+018"}
{"id":2782400822,"url":"http://farm4.staticflickr.com/3122/2782400822_9f99c2a724.jpg","path":"0ae/5ca/0ae5cad9fc5b2c161d3ddada844db4.jpg","date":"2004-05-22","year":2004,"month":5,"lon":11.095762,"lat":47.94885,"tags":"2004,ammersee,augustiner,barock,baroque,bavaria,bayern,bild,cc,chorherrenstift,church,creative+commons,die%C3%9Fen,diessen,flickr,foto,fr%C3%BChling,free,high+resolution,himmelfahrt,image,kirche,kloster,m%C3%BCnster,mai,mariae,marienm%C3%BCnster,oberbayern,pfaffenwinkel,pfarrkirche,photo,picture,roccoco,rokoko,stiftskirche,stockphoto","S2CellId":"479c400000000000","result":3812,"accuracy":0.5035167,"title":"2005-05-22+Andechs%2C+Polling%2C+Diessen+057+Diessen"}
{"id":5650028863,"url":"http://farm6.staticflickr.com/5066/5650028863_a08b9261bb.jpg","path":"d96/bae/d96bae932e7ee93b9b460777791d19e.jpg","date":"2011-04-09","year":2011,"month":4,"lon":11.556197,"lat":47.76064,"tags":"83646,animal,bad+t%C3%B6lz,bad+t%C3%B6lz-wolfratshausen,bavaria,bayern,bird,city,deu,deutschland,germany,oberbayern,schwan,stadt,swan,t%C3%B6l,tier,vogel,wasservogel","S2CellId":"4ec0000000000000","result":5959,"accuracy":0.06693,"title":"Bad+T%C3%B6lz+am+9.4.2011","description":"Vom+Isarufer+aus+konnte+ich+diesen+Schwan+beobachten%2C+es+ist+bemerkenswert+wie+beweglich+der+Hals+ist."}
{"id":4197083577,"url":"http://farm3.staticflickr.com/2789/4197083577_fbaa47c2a7.jpg","path":"b66/dfa/b66dfad9e61fe2da62dd66cebd6329.jpg","date":"2009-12-19","year":2009,"month":12,"lon":11.526722,"lat":47.858246,"tags":"2004,altstadt,bild,cc,city,downtown,flickr,foto,fr%C3%BChling,franken,geo,hi-res,high+resolution,historic,image,jpeg,jpg,m%C3%A4rz,n%C3%BCrnberg,nuremberg,oberfranken,photo,picture,stockphoto","S2CellId":"5371c00000000000","result":6055,"accuracy":0.022318173,"title":"2009-12-19+Peretshofen+019"}
{"id":5560578731,"url":"http://farm6.staticflickr.com/5069/5560578731_cbaebe0200.jpg","path":"629/788/6297887395f2bfe436f933fb6182851e.jpg","date":"2011-03-26","year":2011,"month":3,"lon":11.071783,"lat":47.48833,"tags":"fachzeitschrift,h%C3%B6rtest,klang+%2B+ton,lautsprecher,lautsprecherselbstbau,selbstbau","S2CellId":"47ba500000000000","result":4074,"accuracy":0.009477297,"title":"H%C3%B6rtest"}
{"id":3739280229,"url":"http://farm4.staticflickr.com/3512/3739280229_4399c750ba.jpg","path":"094/99d/09499d8d6254586bfc7131fe3daa7a.jpg","date":"2009-07-19","year":2009,"month":7,"lon":11.753954,"lat":47.7083,"tags":"abend,abendrot,dawn,sonnenuntergang,stimmung,sunset,tegernsee","S2CellId":"487cf00000000000","result":5622,"accuracy":0.07698188,"title":"Tegernsee+Sunset"}
{"id":7419894598,"url":"http://farm8.staticflickr.com/7128/7419894598_3567e08309.jpg","path":"a5a/4e9/a5a4e97bbff227c3ab186145cbca37.jpg","date":"2011-06-16","year":2011,"month":6,"lon":11.389389,"lat":47.269188,"tags":"iphoto+original","S2CellId":"479d700000000000","result":3820,"accuracy":0.16559991,"title":"Innsbruck"}
{"id":6642230963,"url":"http://farm8.staticflickr.com/7150/6642230963_966b3c8f08.jpg","path":"86d/1fe/86d1fec4bb44e9f8cfef81d8fd6ae0c9.jpg","date":"2011-10-17","year":2011,"month":10,"lon":11.398326,"lat":47.282104,"tags":"alpenzoo,animal,bison,insbruck,mammal,s%C3%A4ugetier,tier","S2CellId":"487add4000000000","result":5534,"accuracy":0.0105174575,"title":"bison"}
{"id":13144179215,"url":"http://farm8.staticflickr.com/7452/13144179215_cea7201b9a.jpg","path":"a73/2b8/a732b87d1ab2be2212f2517291b34fe.jpg","date":"2014-03-07","year":2014,"month":3,"lon":11.397883,"lat":47.281933,"tags":"alpenzooinnsbruck,stechginster,ulex","S2CellId":"88d0a631cabb5071","result":8563,"accuracy":0.043439962,"title":"Stechginster+im+Alpenzoo+Innsbruck","description":"Stechginster+%28Ulex+europaeus%29"}
{"id":4994512520,"url":"http://farm5.staticflickr.com/4105/4994512520_6d260fb3fb.jpg","path":"77e/ae6/77eae6fb8e1e5c1ef298d821d898542.jpg","date":"2010-07-24","year":2010,"month":7,"lon":11.428158,"lat":47.27357,"tags":"austria,gundolf+family,innsbruck,tirol,tiroler+abend,tyrol,tyrolean+evenings,yodelling","S2CellId":"4770400000000000","result":3384,"accuracy":0.023883449,"title":"DSC_9143","description":"Tyrolean+Evening+at+the+Gasthaus+Sandwirt"}
{"id":1443825910,"url":"http://farm2.staticflickr.com/1047/1443825910_468a956565.jpg","path":"c86/266/c8626621aaf7858c39a7ec617e24f7c.jpg","date":"2006-09-23","year":2006,"month":9,"lon":11.754341,"lat":47.711033,"tags":"alpenvorland,bachmair+am+see,bayern,m%C3%BCnchen,munich,oberbayern,rottach-egern,tegernsee","S2CellId":"479d900000000000","result":3821,"accuracy":0.23728432,"title":"Tegernsee+September+2007_0573"}
{"id":13211461214,"url":"http://farm4.staticflickr.com/3780/13211461214_512b6cd85d.jpg","path":"ebf/933/ebf9332c2a2b59ab89731efb19a9ed0.jpg","date":"2013-09-06","year":2013,"month":9,"lon":11.249505,"lat":47.42757,"tags":"2013,austria,flickr,hiking,klamm+%2F+gorge,leutasch,luxtonnerre,mountain,outdoors,summer,tyrol,water","S2CellId":"479c900000000000","result":3813,"accuracy":0.15469186,"title":"_MG_4391_Leutaschklamm_AT_20130906.jpg"}
{"id":5382421576,"url":"http://farm6.staticflickr.com/5088/5382421576_421718b53d.jpg","path":"c14/323/c143238fbf1cf26fc696d63ff33de75.jpg","date":"2011-01-09","year":2011,"month":1,"lon":11.10913,"lat":47.95031,"tags":"2011,55,a55,alpha,ammersee,anleger,bavaria,bild,bootsanleger,bootshaus,cc,die%C3%9Fen,diessen,flickr,flying,foto,geo,hafen,harbour,hi-res,high+resolution,image,januar,jpeg,jpg,lake,m%C3%B6we,m%C3%B6wen,oberbayern,pfaffenwinkel,photo,picture,seagull,seem%C3%B6we,slt-a55,sony,steg,stockphoto,vogelflug,voralpen,voralpenland,winter","S2CellId":"4c90000000000000","result":5830,"accuracy":0.028795324,"title":"2011-01-09+Diessen%2C+Ammersee+017"}
{"id":6079559091,"url":"http://farm7.staticflickr.com/6196/6079559091_d27f2fcdb7.jpg","path":"f7e/af6/f7eaf6776b8ba9e9807cab236efb6670.jpg","date":"2011-08-21","year":2011,"month":8,"lon":11.86242,"lat":47.16706,"tags":"alpid,alpiexpress,alps,bicycle,eesti,puhkus,rattamatk,summer,suvi,vacation","S2CellId":"4771400000000000","result":3386,"accuracy":0.042978898,"title":"first+lift+up","description":"mayrhofen"}
{"id":6320398935,"url":"http://farm7.staticflickr.com/6106/6320398935_e2375cc56f.jpg","path":"42e/414/42e414dd5dc94df36f5e5829eb3a787.jpg","date":"2011-11-03","year":2011,"month":11,"lon":11.395161,"lat":47.268593,"tags":"%C3%B6sterreich,2011,3.11.2011,a,austria,capital+city,church,door,eingang,franziskanerkirche,herbst,hofkirche,innsbruck,kirche,landeshauptstadt,nachtbild,night+view,november,t%C3%BCr,tirol","S2CellId":"8589400000000000","result":7437,"accuracy":0.046734776,"title":"Innsbruck+bei+Nacht+am+3.11.2011","description":"Die+beleuchtete+T%C3%BCre+zur+Hof-+bzw.+Franziskanerkirche."}
{"id":2209668694,"url":"http://farm3.staticflickr.com/2044/2209668694_4c501a8911.jpg","path":"80c/7dc/80c7dc32648050818aa9ed1ffa9fd30.jpg","date":"2008-01-20","year":2008,"month":1,"lon":11.086063,"lat":47.494587,"tags":"2008,bavaria,garmisch,germany","S2CellId":"479d100000000000","result":3817,"accuracy":0.04446805,"title":"AFRC+Edelweiss+Mural"}
{"id":6889953904,"url":"http://farm7.staticflickr.com/6223/6889953904_026edf2978.jpg","path":"85c/5b2/85c5b2164ffeba16012d1f1c794b90.jpg","date":"2012-04-01","year":2012,"month":4,"lon":11.359863,"lat":47.987507,"tags":"2012,50mm,d7000,lake,munich,nikon,see,starnberg,starnberger","S2CellId":"5470000000000000","result":6094,"accuracy":0.14643972,"title":"Starnberger+See"}
{"id":6956365040,"url":"http://farm8.staticflickr.com/7243/6956365040_51be1b25a2.jpg","path":"beb/375/beb3759ed6c2d8e8ff208b31d64da08.jpg","date":"2012-04-21","year":2012,"month":4,"lon":11.183997,"lat":47.973698,"tags":"1.+andechs+trail,andechs,andechs+trail,kloster+andechs,laufen,mud,running,salomon,trail","S2CellId":"89b7b85000000000","result":8887,"accuracy":0.31890976,"title":"Andechs+Trail+-+April+2012","description":"Trail+Running%2C+Andechs"}
{"id":2513207937,"url":"http://farm3.staticflickr.com/2188/2513207937_4bea4c4577.jpg","path":"ca2/60b/ca260bf7d4b7cbf5433874a2f64b48.jpg","date":"2008-05-22","year":2008,"month":5,"lon":11.560578,"lat":47.738716,"tags":"bad+t%C3%B6lz,ostern_2008","S2CellId":"5351f00000000000","result":6036,"accuracy":0.02980989,"title":"5-03_Ostern2008","description":"Spaziergang+entlang+der+Isar+bei+Bad+T%C3%B6lz"}
{"id":2144783417,"url":"http://farm3.staticflickr.com/2037/2144783417_52b4938805.jpg","path":"9ad/021/9ad0218fd33c43654140b5f850cd629d.jpg","date":"2007-10-15","year":2007,"month":10,"lon":11.393366,"lat":47.268467,"tags":"austria,innsbruck,kwong","S2CellId":"479d700000000000","result":3820,"accuracy":0.5382421,"title":"Golden+Roof"}
{"id":2738396444,"url":"http://farm4.staticflickr.com/3010/2738396444_7684f6753e.jpg","path":"536/478/5364780b0e0f47da76884d861c064a1.jpg","date":"2006-10-01","year":2006,"month":10,"lon":11.836309,"lat":47.737072,"tags":"2006,alpen,alpenrand,bavaria,bayern,bild,cc,cow,creative+commons,flickr,foto,free,hausham,herbst,high+resolution,huberspitz,image,k%C3%BChe,kuh,oberbayern,oktober,photo,picture,rotbunt,schlierach,schliersee,stockphoto,voralpen,wanderung","S2CellId":"478e900000000000","result":3682,"accuracy":0.085766345,"title":"2006-10-01+Hausham%2C+Schliersee+023"}
{"id":8188179901,"url":"http://farm9.staticflickr.com/8349/8188179901_9dcf430bb7.jpg","path":"a64/44a/a6444a3d1a8d97368648f36512c1ff.jpg","date":"2011-08-28","year":2011,"month":8,"lon":11.342782,"lat":47.999973,"tags":"see,starnberger","S2CellId":"4790c00000000000","result":3710,"accuracy":0.051048808,"title":"CIMG0006"}
{"id":3333441680,"url":"http://farm4.staticflickr.com/3304/3333441680_59344629d0.jpg","path":"869/c9e/869c9eced2f2a25d3f1ab3cfc4c581c2.jpg","date":"2004-08-08","year":2004,"month":8,"lon":11.044691,"lat":47.452816,"tags":"2004,alpen,alps,alpspitze,august,bavaria,bayern,berge,bergsteigen,bild,cc,clouds,felsen,flickr,foto,free,geo,gipfel,h%C3%B6henwanderung,h%C3%B6henweg,high+resolution,hike,image,jpeg,jpg,klettersteig,oberbayern,photo,picture,rock,sommer,sonne,stockphoto,summit,upper,voralpen,wanderung,wanderweg,wetterstein,wettersteingebirge,wolken","S2CellId":"479d100000000000","result":3817,"accuracy":0.15709765,"title":"2004-08-08+Alpspitze%2C+Kochelsee+014"}
{"id":8489116834,"url":"http://farm9.staticflickr.com/8385/8489116834_f4e86c0334.jpg","path":"b42/148/b42148b763a2a8ad2a501db4cfed7cdf.jpg","date":"2013-02-19","year":2013,"month":2,"lon":11.0791,"lat":47.31342,"tags":"austria,bulldog,french,tyrol","S2CellId":"48795b0000000000","result":5481,"accuracy":0.02001492,"title":"You+better+not+wake+them+up","description":"French+Bulldog+puppies"}
{"id":6056499398,"url":"http://farm7.staticflickr.com/6072/6056499398_b8d391206a.jpg","path":"634/469/6344697a3b9167bfaaa95c3e4bf.jpg","date":"2011-08-17","year":2011,"month":8,"lon":11.296348,"lat":47.435287,"tags":"3.5-5.6%2F18-55+sam,a330,karwendel,karwendelbahn,mittenwald,sony+alpha+330,westliche+karwendelspitze","S2CellId":"479d100000000000","result":3817,"accuracy":0.15266468,"title":"Westliche+Karwendelspitze+I","description":"Sony+alpha+330+%2F+Sony+18-55+3.5-5.6+SAM%0AWestliche+Karwendelspitze+%282385m%29%2C+Mittenwald%2C+Bavaria"}
{"id":4335779150,"url":"http://farm5.staticflickr.com/4006/4335779150_b7ee3ab41c.jpg","path":"2dc/658/2dc658e46cb82168e198162768bdf158.jpg","date":"2010-02-06","year":2010,"month":2,"lon":11.316797,"lat":47.59648,"tags":"bavaria,bayern,deutschland,germany,schnee,snow,walchensee,wandern,winter","S2CellId":"467c000000000000","result":2949,"accuracy":0.008258105,"title":"Parkplatz+Bergbahn+Herzogstand","description":"Schneewandertour+06.02.2010"}
{"id":5065884006,"url":"http://farm5.staticflickr.com/4128/5065884006_1577f05a68.jpg","path":"271/eb6/271eb64138b7ccd760b2e5fca929d83c.jpg","date":"2010-09-12","year":2010,"month":9,"lon":11.538725,"lat":47.67384,"tags":"2010,alpen,alpenvorland,alps,bad,bavaria,bayerische,bayerisches,bayern,berg,bergblick,berge,bergwanderung,bergwelt,bild,brauneck,cc,deutschland,fernsicht,fl%C3%B6%C3%9Ferdorf,flickr,foto,gebirge,geo,german,germany,herbst,hi-res,high+resolution,hike,image,isarwinkel,jpeg,jpg,lenggries,mountain,mountains,oberbayern,panorama,panoramablick,photo,picture,september,sommer,stockphoto,t%C3%B6lz,trail,view,viewpoint,voralpen,wanderung,wolfratshausen","S2CellId":"479d900000000000","result":3821,"accuracy":0.1472432,"title":"2010-09-12+Lenggries%2C+Brauneck+008"}
{"id":8430979382,"url":"http://farm9.staticflickr.com/8054/8430979382_28e8758839.jpg","path":"d06/b6b/d06b6b5c0f444f46f33372321896fc6.jpg","date":"2013-01-26","year":2013,"month":1,"lon":11.417772,"lat":47.696507,"tags":"2013,26.01.2013,83671,alpenwarmbad,bad+t%C3%B6lz-wolfratshausen,bavaria,bayern,benediktbeuern,deu,deutschland,freibad,germany,januar,oberbayern,pool,schwimmbad,winter","S2CellId":"5304000000000000","result":6019,"accuracy":0.02493852,"title":"Benediktbeuern+am+26.01.2013","description":"Sieht+eher+nicht+so+warm+aus+das+Alpenwarmbad."}
{"id":3500216455,"url":"http://farm4.staticflickr.com/3619/3500216455_2cf110d1b5.jpg","path":"a68/68e/a6868ebc2829e3c7f2b459ed41344d.jpg","date":"2009-05-03","year":2009,"month":5,"lon":11.813238,"lat":47.929367,"tags":"2009,ausflug,bavaria,bayern,bergtierpark,bild,blindham,cc,flickr,foto,fr%C3%BChling,free,geo,goat,high+resolution,image,jpeg,jpg,kinder,m%C3%BCnchen,mai,munich,oberbayern,photo,picture,sonne,sonnenschein,spring,stockphoto,tierpark,ziege,ziegen,ziegenbock,zoo","S2CellId":"48761b7000000000","result":5331,"accuracy":0.012391723,"title":"2009-05-03+Bergtierpark+Blindham+009"}
{"id":2397310683,"url":"http://farm4.staticflickr.com/3220/2397310683_b65eae155f.jpg","path":"9de/467/9de467d97b9d94c2f23819d28dc2023.jpg","date":"2008-04-06","year":2008,"month":4,"lon":11.41604,"lat":47.28942,"tags":"ya-city-innsbruck,ya-country-at,ya-state-tirol,ya-tobsn,yellowarrow","S2CellId":"4774400000000000","result":3401,"accuracy":0.060616367,"title":"w1k8","description":"%3Cb%3EBy%3C%2Fb%3E+%3Ca+href%3D%22http%3A%2F%2Fwww.flickr.com%2Fphotos%2Fyellowarrow%2Fsets%2F72157604391479670%2F%22%3Etobsn%3C%2Fa%3E%0A%3Cb%3ELocation%3A%3C%2Fb%3E+Josefschraffl+Stra%C3%9Fe%2C+%3Ca+href%3D%22http%3A%2F%2Fwww.flickr.com%2Fphotos%2Fyellowarrow%2Fsets%2F72157604434583143%2F%22%3EInnsbruck%3C%2Fa%3E%2C+%3Ca+href%3D%22http%3A%2F%2Fwww.flickr.com%2Fphotos%2Fyellowarrow%2Fsets%2F72157604430024074%2F%22%3ETirol%3C%2Fa%3E+%28%3Ca+href%3D%22http%3A%2F%2Fwww.flickr.com%2Fphotos%2Fyellowarrow%2Fsets%2F72157604434583013%2F%22%3EAT%3C%2Fa%3E%29%0A%0A%3Cb%3ETXT%3A%3C%2Fb%3E+Hast+du+es+satt+im+grauen+Stadtalltag+eingesperrt+zu+sein%3F+Jetzt+hast+du+die+Chance%21+Das+Tor+zur+Freiheit+steht+dir+offen%21"}
{"id":4884944226,"url":"http://farm5.staticflickr.com/4096/4884944226_4e7420203f.jpg","path":"e63/359/e633598458b9307ed37c873315cdb98.jpg","date":"2010-08-12","year":2010,"month":8,"lon":11.338791,"lat":47.988773,"tags":"abend,hdr,mrsv,steg","S2CellId":"8825400000000000","result":8232,"accuracy":0.050653595,"title":"HDR_MRSV_Steg"}
{"id":13132964913,"url":"http://farm4.staticflickr.com/3824/13132964913_cd9966ea1a.jpg","path":"1de/2ef/1de2ef17bce1a7e2af5a3bb5b7817a20.jpg","date":"2014-03-07","year":2014,"month":3,"lon":11.398066,"lat":47.2819,"tags":"alpenzooinnsbruck,perleidechse,timon","S2CellId":"9aab000000000000","result":9926,"accuracy":0.12796955,"title":"Perleidechse+im+Alpenzoo+Innsbruck","description":"Perleidechse+%28Timon+lepidus%29"}
{"id":2613293793,"url":"http://farm4.staticflickr.com/3063/2613293793_5943ef0a74.jpg","path":"dab/7ab/dab7ab3918f9f43096f2643d7f3fadb5.jpg","date":"2008-06-18","year":2008,"month":6,"lon":11.293634,"lat":47.869705,"tags":"boats,boote,drachen,lac,lack,spiegelung","S2CellId":"46416d0000000000","result":2792,"accuracy":0.03320216,"title":"Reflections","description":"Unser+Drachen+am+Starnberger+See+-+vor+dem+Start+in+die+neue+Saison%21"}
{"id":2274018859,"url":"http://farm3.staticflickr.com/2083/2274018859_16ecfb1340.jpg","path":"494/a6b/494a6bff12cdd433a53c5b267fc541b.jpg","date":"2008-02-18","year":2008,"month":2,"lon":11.405353,"lat":47.24772,"tags":"austria,grillhof,innsbruck,winterschool,winterschool2008","S2CellId":"463f000000000000","result":2783,"accuracy":0.03485463,"title":"IMG_0059"}
{"id":8090680898,"url":"http://farm9.staticflickr.com/8470/8090680898_a0a1248780.jpg","path":"41d/8a6/41d8a6eb7cd4667a71679b2dd870799a.jpg","date":"2012-08-26","year":2012,"month":8,"lon":11.816666,"lat":47.928738,"tags":"2012,77,77v,alpha,august,aying,bayern,bergtierpark,bild,blindham,cc,flickr,foto,geo,hi-res,high,image,jpeg,jpg,kleintiere,m%C3%BCnchen,munich,oberbayern,photo,picture,resolution,slt-a77,sommer,sony,stockphoto,summer,tierpark,zoo","S2CellId":"487add4000000000","result":5534,"accuracy":0.024003228,"title":"2012-08-26+Bergtierpark+Blindham+038"}
{"id":9610808166,"url":"http://farm4.staticflickr.com/3725/9610808166_1ab70a743d.jpg","path":"563/4c3/5634c339c7b67c79167f22f1b0602c17.jpg","date":"2013-08-13","year":2013,"month":8,"lon":11.120009,"lat":47.46721,"tags":"garmisch+partenkirchen","S2CellId":"48d7400000000000","result":5814,"accuracy":0.029162593,"title":"IMG_2951"}
{"id":884406196,"url":"http://farm2.staticflickr.com/1314/884406196_f2c72a8fb9.jpg","path":"97e/e2a/97ee2abdfd3396fbd0a9732b7de11a.jpg","date":"2007-07-22","year":2007,"month":7,"lon":11.397178,"lat":47.27144,"tags":"innsbruck,tirol,tyrol","S2CellId":"5485dc0000000000","result":6108,"accuracy":0.0031556527,"title":"IMG_3443.JPG"}
{"id":383150068,"url":"http://farm1.staticflickr.com/182/383150068_f9cb6dd122.jpg","path":"8e1/e7e/8e1e7e9155627fba30dbb503965f3c7.jpg","date":"2007-02-03","year":2007,"month":2,"lon":11.757001,"lat":47.711666,"tags":"alpen,alps,bavaria,bayern,berge,clouds,deutschland,germany,lake,mountains,schnee,see,snow,tegernsee,winter,wolken","S2CellId":"4776b00000000000","result":3422,"accuracy":0.18800598,"title":"Tegernsee"}
{"id":5064789169,"url":"http://farm5.staticflickr.com/4111/5064789169_66901e3492.jpg","path":"707/37a/70737a8fdc8eaf40d3a23b41ccd142be.jpg","date":"2010-08-29","year":2010,"month":8,"lon":11.596047,"lat":47.849525,"tags":"2010,august,augustiner,barock,barocke,barockkirche,baroque,bavaria,bayern,bild,cc,chorherrenstift,church,deutschland,dietramszell,flickr,foto,geo,german,germany,hi-res,high+resolution,image,innenraum,interieur,jpeg,jpg,kirche,klosterkirche,oberbayern,photo,picture,rokoko,salesianerinnen,sommer,stockphoto","S2CellId":"479c400000000000","result":3812,"accuracy":0.52489954,"title":"2010-08-29+Umland+M%C3%BCnchen+045+Dietramszell%2C+Klosterkirche"}
{"id":8429901429,"url":"http://farm9.staticflickr.com/8043/8429901429_1124f1c7fa.jpg","path":"a43/99a/a4399ab263afdb95204bb03b2f2f7813.jpg","date":"2013-01-26","year":2013,"month":1,"lon":11.412875,"lat":47.70765,"tags":"2013,26.01.2013,83671,bad+t%C3%B6lz-wolfratshausen,bavaria,bayern,benediktbeuern,deu,deutschland,germany,haus,house,januar,oberbayern,winter","S2CellId":"48d60b4000000000","result":5793,"accuracy":0.045209028,"title":"Benediktbeuern+am+26.01.2013","description":"Ich+glaube+das+ist+das+Pfarrhaus%2C+rechts+daneben+sieht+man+den+Eingang+zur+Marienkirche."}
{"id":9799868676,"url":"http://farm8.staticflickr.com/7350/9799868676_e272641ee0.jpg","path":"d7d/7c1/d7d7c1b39d1ede4e2ba41895ba3b75b0.jpg","date":"2013-08-29","year":2013,"month":8,"lon":11.394367,"lat":47.267494,"tags":"austria,innsbruck,tirol,tirolo","S2CellId":"470dc00000000000","result":3185,"accuracy":0.1430614,"title":"Innsbruck+%5BA%5D%2C+2013.","description":"%3Cb%3EWikipedia%3A+%3Ca+href%3D%22http%3A%2F%2Fit.wikipedia.org%2Fwiki%2FInnsbruck%22+rel%3D%22nofollow%22%3EInnsbruck%3C%2Fa%3E.%3C%2Fb%3E"}
{"id":6909724442,"url":"http://farm8.staticflickr.com/7191/6909724442_3ab50d02c5.jpg","path":"6f8/67e/6f867e18d2646d4f784f0a053661e76.jpg","date":"2012-04-08","year":2012,"month":4,"lon":11.86358,"lat":47.73346,"tags":"instagram+app,iphoneography,normal,square,square+format","S2CellId":"47bdb00000000000","result":4101,"accuracy":0.023740498,"title":"white+on+white+cables"}
{"id":9985458875,"url":"http://farm8.staticflickr.com/7307/9985458875_263bd909df.jpg","path":"bbb/315/bbb315eb10ecacf8953f15c2683b81d8.jpg","date":"2013-04-14","year":2013,"month":4,"lon":11.792369,"lat":47.70417,"tags":"920,lumia","S2CellId":"479c400000000000","result":3812,"accuracy":0.11948822,"title":"Test","description":"test+123"}
{"id":2814257547,"url":"http://farm4.staticflickr.com/3009/2814257547_71f02f95b5.jpg","path":"70e/a5f/70ea5f3d2411edfb532ffbc2c5f59fdf.jpg","date":"2008-08-31","year":2008,"month":8,"lon":11.006069,"lat":47.419144,"tags":"jubil%C3%A4umsgrat,powershot+g9","S2CellId":"4776d00000000000","result":3423,"accuracy":0.3100494,"title":"Jubil%C3%A4umsgrat+-+H%C3%B6llental"}
{"id":4738260514,"url":"http://farm5.staticflickr.com/4076/4738260514_7bf97481e6.jpg","path":"4bc/ec8/4bcec8a0eecc999838a0b723f55c6a4.jpg","date":"2010-06-27","year":2010,"month":6,"lon":11.257209,"lat":47.88757,"tags":"busch,dorena-wm,flickrdiamond,landscape,landschaft,licht,light,natur,nature,sonne,sun,train,zug","S2CellId":"47bfc00000000000","result":4134,"accuracy":0.037659172,"title":"Light-flooded","description":"Sehr+fr%C3%BCh+am+Morgen+aus+dem+Zugfenster+fotografiert+-+auf+der+Fahrt+von+Weilheim+nach+M%C3%BCnchen.%0AVery+early+morning+shot+from+the+train+window+-+the+trip+from+Weilheim+to+Munich."}
{"id":3922461656,"url":"http://farm3.staticflickr.com/2463/3922461656_a125c381e6.jpg","path":"8cc/b60/8ccb60795153be9225de9f84c93793c.jpg","date":"2009-09-07","year":2009,"month":9,"lon":11.779124,"lat":47.719967,"tags":"alpen,berge,clouds,himmel,mountains,rastst%C3%A4tte,sky,wolken","S2CellId":"4776b00000000000","result":3422,"accuracy":0.058472846,"title":"Rastst%C3%A4tte+I"}
{"id":3893970334,"url":"http://farm3.staticflickr.com/2440/3893970334_bf8f022e60.jpg","path":"fb8/3e1/fb83e16035a171a3211ea238d87d1.jpg","date":"2009-09-05","year":2009,"month":9,"lon":11.284332,"lat":47.54409,"tags":"alps,bavaria,biking,germany","S2CellId":"4776f00000000000","result":3424,"accuracy":0.05025431,"title":"guest+house"}
{"id":5958439753,"url":"http://farm7.staticflickr.com/6012/5958439753_f694af5b75.jpg","path":"9ef/aaa/9efaaa5efd4c3f576bfcca5a559429c.jpg","date":"2011-07-04","year":2011,"month":7,"lon":11.39133,"lat":47.306763,"tags":"2011,hafelekar,innsbruck,nordkette","S2CellId":"4776f00000000000","result":3424,"accuracy":0.30055758,"title":"Nordkette","description":"Hafelekarbahn"}
{"id":6630069997,"url":"http://farm8.staticflickr.com/7142/6630069997_210574f539.jpg","path":"c3f/d2e/c3fd2e92e7f92a73fc6dc884d536.jpg","date":"2012-01-03","year":2012,"month":1,"lon":11.882786,"lat":47.68734,"tags":"18-55mm,550d,canon,emsiproduction,eos,fall,fog,forest,holz,josephstal,like+fog,mountains,natur,nature,neuhaus.+wasserfall,schliersee,smooth,stones,trekking,wald,wandern,wasser,water,waterfall,wood,woods,wurzel","S2CellId":"54cd000000000000","result":6310,"accuracy":0.13886602,"title":"Josephstal","description":"canon+eos+550d+%2B+90mm+tamron"}
{"id":2075916143,"url":"http://farm3.staticflickr.com/2143/2075916143_28ffc579b1.jpg","path":"62b/e41/62be412389f29ae452c806ed4898e91.jpg","date":"2007-09-22","year":2007,"month":9,"lon":11.398004,"lat":47.708073,"tags":"architecture,architektur,bavaria,bayern,bendiktbeuern,benedikt,benediktiner,benediktinerabtei,bonifacius,br%C3%BCder,bruder,deutschland,di%C3%B6zese,don-boscos,germany,kirche,kloster,kochelsee,m%C3%B6nch,oberbayern,salesianer,tegernsee,textilmarkt","S2CellId":"4772c00000000000","result":3389,"accuracy":0.07829006,"title":"Kloster+Benediktbeuern+-+Textilmarkt","description":"Kloster+Benediktbeuern+-+Textilmarkt+Herbst+2007%0A%0A%0A%3Ca+href%3D%22http%3A%2F%2Fde.wikipedia.org%2Fwiki%2FKloster_Benediktbeuern%22%3Ede.wikipedia.org%2Fwiki%2FKloster_Benediktbeuern%3C%2Fa%3E%0A%0A%3Ca+href%3D%22http%3A%2F%2Fwww.kloster-benediktbeuern.de%2Fwiki%2Findex.php%2FHauptseite%22%3Ewww.kloster-benediktbeuern.de%2Fwiki%2Findex.php%2FHauptseite%3C%2Fa%3E%0A%0A%0AAufnahme+mit+Canon+Digital+IXUS+II+am+21.09.2007"}
{"id":2988417821,"url":"http://farm4.staticflickr.com/3231/2988417821_171f64f4b1.jpg","path":"b34/341/b34341ca6952298fd37ba9f7ba61763.jpg","date":"2008-09-28","year":2008,"month":9,"lon":11.918406,"lat":47.463467,"tags":"2008,austria,bandas,cerveza,d70,fiesta,kirchtag,kramsach,m%C3%BAsica,nikon,osterreich,tirol,weiko","S2CellId":"4776f00000000000","result":3424,"accuracy":0.087223224,"title":"Postal+tirolesa","description":"Kirchtag+2008%0AKramsach%2C+Tirol%0A%0AM%C3%A1s+fotos+en+este+Set%3A+%3Ca+href%3D%22http%3A%2F%2Fflickr.com%2Fphotos%2Fgotcoffee%2Fsets%2F72157608451845103%2F%22%3EKirchtag%3C%2Fa%3E"}
{"id":276149409,"url":"http://farm1.staticflickr.com/101/276149409_ac8a2a5945.jpg","path":"b37/541/b37541b967748033d5329fee2e442d9.jpg","date":"2004-05-30","year":2004,"month":5,"lon":11.017238,"lat":47.4033,"tags":"2004,alpen,hochgebirge,reintal,uni","S2CellId":"478f100000000000","result":3686,"accuracy":0.13370088,"title":"reintal+011"}
{"id":2787949216,"url":"http://farm4.staticflickr.com/3030/2787949216_d3420ed466.jpg","path":"f3e/6a7/f3e6a73611b636833a4913fc8f3415.jpg","date":"2008-08-16","year":2008,"month":8,"lon":11.410269,"lat":47.230824,"tags":"alps,austria,clouds,europe,igls,innsbruck,mountains","S2CellId":"4790c00000000000","result":3710,"accuracy":0.029226,"title":"Flowers+and+Decorations+around+Igls"}
{"id":1001378024,"url":"http://farm2.staticflickr.com/1307/1001378024_cbef78bb71.jpg","path":"504/bdb/504bdb29e954d7caa11ca34898b992.jpg","date":"2007-07-29","year":2007,"month":7,"lon":11.310768,"lat":47.04328,"tags":"alps,clouds,habicht,mountain,stubai","S2CellId":"4785500000000000","result":3566,"accuracy":0.03249733,"title":"Into+the+light","description":"What+can+you+say%2C+rising+from+the+clouds%3F+Nothing+at+all."}
{"id":6329198197,"url":"http://farm7.staticflickr.com/6098/6329198197_1e2c8f7dd8.jpg","path":"f9a/e70/f9ae70b998d6a9622b8c7e67337e0.jpg","date":"2011-08-03","year":2011,"month":8,"lon":11.069658,"lat":47.305794,"tags":"2011,antiatom,endlich+abschalten,energiewende,junge+gr%C3%BCne,sommertour,telfs,tirol","S2CellId":"0d19331000000000","result":217,"accuracy":0.097099796,"title":"endlich+abschalten+Sommertour+Telfs+%2815%29"}
{"id":7461788014,"url":"http://farm9.staticflickr.com/8142/7461788014_7657f7eac5.jpg","path":"1bd/277/1bd277195b7febed634514246313d92.jpg","date":"2012-06-24","year":2012,"month":6,"lon":11.337363,"lat":47.450912,"tags":"2012,alpen,alps,hiking,karwendel,w%C3%B6rner,w%C3%B6rner+%28karwendel%29,w%C3%B6rner2012","S2CellId":"479d100000000000","result":3817,"accuracy":0.18665919,"title":"IMG_4336"}
{"id":13057685543,"url":"http://farm4.staticflickr.com/3693/13057685543_ddc3ff03df.jpg","path":"1a2/da0/1a2da0f93bdc84bb39df507c82b8c5fb.jpg","date":"2014-03-07","year":2014,"month":3,"lon":11.397683,"lat":47.282116,"tags":"alpenzooinnsbruck,falco,turmfalke","S2CellId":"88d9300000000000","result":8584,"accuracy":0.025174936,"title":"Turmfalke+im+Alpenzoo+Innsbruck","description":"Turmfalke+%28Falco+tinnunculus%29"}
{"id":13144657734,"url":"http://farm8.staticflickr.com/7327/13144657734_5d0a209a03.jpg","path":"267/e61/267e6118a976d0a7585b12072cbf1ec.jpg","date":"2014-03-07","year":2014,"month":3,"lon":11.3987,"lat":47.2822,"tags":"alpenzoo,hepatica,innsbruck,leberbl%C3%BCmchen","S2CellId":"54bf400000000000","result":6299,"accuracy":0.019202046,"title":"Leberbl%C3%BCmchen+im+Alpenzoo+Innsbruck","description":"Leberbl%C3%BCmchen+%28Hepatica+nobilis%29"}
{"id":348271360,"url":"http://farm1.staticflickr.com/164/348271360_d10f3b3597.jpg","path":"296/9e9/2969e9e84cfef6cb605898ee3357d2.jpg","date":"2009-09-08","year":2009,"month":9,"lon":11.361923,"lat":47.29006,"tags":"2006,2006%2F2007,2007,austria,by+diueine,cold,digital,diueine,diueine+monteiro,europa,europe,europe2006,frio,froid,golden+hour,golden+light,high,innsbruck,inverno,kalt,landscape,magic+hour,monteiro,neige,neve,nieve,p%26s,peak,reise,schnee,seegrube,snow,travel,travelphotography,view,winter","S2CellId":"479d100000000000","result":3817,"accuracy":0.09471716,"title":"Seegrube+-+Innsbruck","description":"2000+meters+high.+Innsbruck+is+down+there."}
{"id":2788011314,"url":"http://farm4.staticflickr.com/3064/2788011314_1739bb1f36.jpg","path":"52a/7fa/52a7fadb8d7274bb8849557dd65f91.jpg","date":"2008-08-16","year":2008,"month":8,"lon":11.457118,"lat":47.20985,"tags":"alps,austria,clouds,europe,igls,innsbruck,mountains","S2CellId":"548ff00000000000","result":6177,"accuracy":0.031931106,"title":"IMG_2470"}
{"id":3724251730,"url":"http://farm3.staticflickr.com/2423/3724251730_115dd5bd9d.jpg","path":"664/527/664527e61eed7a920da77ec193c719.jpg","date":"2009-06-24","year":2009,"month":6,"lon":11.433334,"lat":47.365803,"tags":"alps,austria,d-lux+4,hiking,karwendel,karwendelhaus,longdistance+walking,mountains,via-alpina","S2CellId":"3724000000000000","result":2419,"accuracy":0.005948713,"title":"Karwendelhaus"}
{"id":257865942,"url":"http://farm1.staticflickr.com/91/257865942_05dbe085e8.jpg","path":"5c5/550/5c5550602ce218b595c86778de08fde.jpg","date":"2006-09-23","year":2006,"month":9,"lon":11.50835,"lat":47.32591,"tags":"austria,civil+engineering,halltal,mountian,nature,tirol,tyrol,water","S2CellId":"477a400000000000","result":3437,"accuracy":0.067330465,"title":"Tiroler+Wehr"}
{"id":4993901585,"url":"http://farm5.staticflickr.com/4084/4993901585_f0bb468415.jpg","path":"478/839/478839ee42fa336366f6211e889808f.jpg","date":"2010-07-24","year":2010,"month":7,"lon":11.428158,"lat":47.27357,"tags":"austria,gundolf+family,innsbruck,tirol,tiroler+abend,tyrol,tyrolean+evenings,yodelling","S2CellId":"8644400000000000","result":7567,"accuracy":0.033226077,"title":"DSC_9097","description":"Tyrolean+Evening+at+the+Gasthaus+Sandwirt"}
{"id":13081099983,"url":"http://farm8.staticflickr.com/7392/13081099983_dd3a0102db.jpg","path":"915/5f9/9155f9f64ca2ac830a46e97809bb57f.jpg","date":"2014-03-07","year":2014,"month":3,"lon":11.397933,"lat":47.281265,"tags":"alpenzoo,fischotter,innsbruck,lutra","S2CellId":"9aab000000000000","result":9926,"accuracy":0.0230112,"title":"Fischotter+im+Alpenzoo+Innsbruck","description":"Fischotter+%28Lutra+lutra%29"}
{"id":3857601518,"url":"http://farm3.staticflickr.com/2673/3857601518_a786717fa3.jpg","path":"3d1/76e/3d176ef3b385c5dd713414469f9f69.jpg","date":"2009-08-07","year":2009,"month":8,"lon":11.337654,"lat":47.10913,"tags":"2009,alps,austria,besinnungsweg,break,forest,michael,reflection,stubai,stubaital,summer,tim,tirol,valley","S2CellId":"54c1c00000000000","result":6304,"accuracy":0.040249966,"title":"Father+%26+son","description":"So+nice+to+see+a+boy+absorbing+whatever+dad%27s+gotta+say.+At+least+if+it%27s+smart+enough%2C+as+it+is+often+enough+in+Michael%27s+case."}
{"id":8175789623,"url":"http://farm9.staticflickr.com/8350/8175789623_348660d4dd.jpg","path":"462/21d/46221d9a20ed490228648294b28fd5.jpg","date":"2012-09-22","year":2012,"month":9,"lon":11.773287,"lat":47.972137,"tags":"aying,ayinger+brewery,bavaria,brauerei+aying,deutschland,tyskland","S2CellId":"47d8f40000000000","result":4466,"accuracy":0.038001623,"title":"Brauerei+Aying","description":"This+is+as+close+as+we+got+to+a+tour+at+the+Ayinger+brewery%2C+looking+in+at+the+nine+grain+silos%2C+each+with+a+capacity+of+200+tonne+malt."}
{"id":9983912985,"url":"http://farm4.staticflickr.com/3797/9983912985_cb875e8e67.jpg","path":"3fb/720/3fb720675fe82ac45bcc025811cac26.jpg","date":"2013-08-29","year":2013,"month":8,"lon":11.044011,"lat":47.464,"tags":"garmisch+partenkirchen,lumia+920,wettersteingebirge","S2CellId":"477a400000000000","result":3437,"accuracy":0.043127988,"title":"Zwillingst%C3%BCrme","description":"Wie+zwei+Schornsteine+eines+gewaltigen+Industriekomplexes+erheben+sich+dieses+Beiden+gen+Himmel+...+mit+einer+Wolke+die+wirkt+wie+Rauch%2C+der+aus+ihnen+empor+steigt+..."}
{"id":712722610,"url":"http://farm2.staticflickr.com/1394/712722610_66e1a3e378.jpg","path":"dd5/773/dd5773f1488032f4d14a4a492335a7.jpg","date":"2007-07-04","year":2007,"month":7,"lon":11.065292,"lat":47.595657,"tags":"europe,germany,oberammergau","S2CellId":"486b6c0000000000","result":4926,"accuracy":0.010654533,"title":"snake","description":"another+snake+at+the+Reptilhaus"}
{"id":5158151830,"url":"http://farm5.staticflickr.com/4067/5158151830_aabea79a4a.jpg","path":"b79/44c/b7944c604a769fcf79a2e4efc42cbce.jpg","date":"2010-11-07","year":2010,"month":11,"lon":11.704945,"lat":47.346756,"tags":"herbst,hipstamatic,iphone,schwaz,spaziergang","S2CellId":"478f700000000000","result":3689,"accuracy":0.07641442,"title":"IMG_1463"}
{"id":12769886244,"url":"http://farm3.staticflickr.com/2824/12769886244_c6a915399d.jpg","path":"fd9/fdf/fd9fdf891727b63cbdc37d28de62c642.jpg","date":"2014-02-22","year":2014,"month":2,"lon":11.177794,"lat":47.3191,"tags":"%C3%B6sterreich,alpen,aussicht,berge,gschwandkopf,schnee,seefeld,skigebiet,skipiste,telfs,tirol,winter","S2CellId":"4778300000000000","result":3428,"accuracy":0.14809191,"description":"Aussicht+vom+Gschwandkopfskigebiet+auf+Seefeld"}
{"id":3829802704,"url":"http://farm3.staticflickr.com/2504/3829802704_ae76503abe.jpg","path":"2cd/e14/2cde1408188925ff4f3f7841cc4dce.jpg","date":"2009-08-16","year":2009,"month":8,"lon":11.044735,"lat":47.46489,"tags":"germany,hammersbach","S2CellId":"864e640000000000","result":7620,"accuracy":0.12301815,"title":"IMG_0492"}
{"id":2700368611,"url":"http://farm4.staticflickr.com/3147/2700368611_af96ee927a.jpg","path":"e2b/515/e2b51543582c06f98f0e5f518682b.jpg","date":"2008-01-26","year":2008,"month":1,"lon":11.29961,"lat":47.934242,"tags":"2008,atmosphere,baum,bavaria,bayern,bild,blau,cc,creative+commons,feldafing,flickr,foto,free,herbststimmung,high+resolution,image,januar,lake,m%C3%BCnchen,mood,munich,oberbayern,p%C3%B6cking,photo,picture,possenhofen,roseninsel,sea,see,silhouette,starnberg,starnberger,stockphoto,tree,voralpen,wasser,water,winter","S2CellId":"479dcc0000000000","result":3824,"accuracy":0.067488335,"title":"2008-01-26+Possenhofen%2C+Starnberg+064"}
{"id":4723610296,"url":"http://farm2.staticflickr.com/1385/4723610296_037df92cac.jpg","path":"888/f4f/888f4f366cee7575cc0ffda4b6b2a87.jpg","date":"2010-06-11","year":2010,"month":6,"lon":11.14571,"lat":47.842663,"tags":"akelei,bl%C3%BCte,blau,blossom,blue,blume,columbine,dblringexcellence,dorena-wm,flower,garden,garten,gr%C3%BCn,green,macro,my_gear_and_me_bronze,my_gear_and_me_gold,my_gear_and_me_premium,my_gear_and_me_silver,natur,nature,thebestofmimamorsgroups,thegalaxy","S2CellId":"1458300000000000","result":1202,"accuracy":0.046332628,"title":"Columbine","description":"Akelei+in+meinem+Garten%0AColumbine+in+my+garden"}
{"id":495209833,"url":"http://farm1.staticflickr.com/225/495209833_088d354965.jpg","path":"708/76a/70876a259cbba119d8fb7310f8b38e6d.jpg","date":"2007-05-07","year":2007,"month":5,"lon":11.936044,"lat":47.240665,"tags":"kingi,krautwurst.vali","S2CellId":"45d4000000000000","result":2755,"accuracy":0.03135307,"title":"00039.jpg"}
{"id":8087502371,"url":"http://farm9.staticflickr.com/8196/8087502371_923df8d388.jpg","path":"476/1f4/4761f49b39755f97205a13fc4825eba5.jpg","date":"2012-08-03","year":2012,"month":8,"lon":11.710433,"lat":47.49797,"tags":"2012+austria-croatia,achenkirch,alpen,alpes,alpi,alps,art,arte,ask+for+commercial+use,austria,aut,berg,bildagentur,canon,canon+eos+7d,city%3A+achenkirch,country%3A+austria,countrycode%3A+aut,europa,europe,flickr,for+sale,hagens+world+-+photography,hagens_world,kommerzielle+nutzung,kultur,kunst,landscape,landschaft,location%3A+achensee,monta%C3%B1a,mountain,mountains,natur,natura,nature,nutzungshonorar,paisaje,selection,state%3A+tirol,stock+photography,stock+photos,tirol","S2CellId":"47edc00000000000","result":4703,"accuracy":0.067478165,"title":"Wooden+Gate","description":"There+are+numerous+ways+to+explore+and+experience+a+destination+but+none+as+intimate+and+personal+as+taking+the+time+to+enjoy+your+vacation+destination+on+foot.+Walking+and+hiking+in+Austria+will+get+you+close+to+nature+and+allow+you+to+get+to+know+the+people+and+the+wonderful+traditions+in+Austria.%0A%0A%3E%3EPhotos+for+Sale+-+just+contact+me%3C%3C%0A%0A%3Ca+target%3D%22_blank%22+href%3D%22http%3A%2F%2Fwww.flickr.com%2Fphotos%2Fhagens_world%2Fsets%2F72157631684041574%2Fdetail%2F%22%3EMore+Photos+in+the+Album%3A+Alps%3C%2Fa%3E"}
{"id":9273558594,"url":"http://farm6.staticflickr.com/5445/9273558594_299beaa3dc.jpg","path":"ead/dca/eaddcae8f366056bacbe8055969c32.jpg","date":"2013-06-21","year":2013,"month":6,"lon":11.995791,"lat":47.194912,"tags":"%C3%B6sterreich,gerlos,tirol,zillertal","S2CellId":"548e400000000000","result":6158,"accuracy":0.019750156,"title":"Rehbock+im+Schwarzachtal","description":"Zillertal%2C+Tirol"}
{"id":8196613399,"url":"http://farm9.staticflickr.com/8067/8196613399_1a14a8eb88.jpg","path":"737/ded/737ded51cf84e27f5c96c246351924d.jpg","date":"2012-07-25","year":2012,"month":7,"lon":11.396136,"lat":47.26903,"tags":"%C3%B6sterreich,canon+ef-s+15-85mm+f3.5-5.6+is+usm,canon+eos+7d,grabmal,hofkirche,innsbruck,kaiser+maximilian+i.,oesterreich,sommer,tirol,urlaub","S2CellId":"47e6703000000000","result":4646,"accuracy":0.09184012,"title":"Cimburgis+von+Masowien","description":"%28Photo%3A+Andreas+Issleib%29"}
{"id":485541235,"url":"http://farm1.staticflickr.com/225/485541235_bb05491531.jpg","path":"1d4/93e/1d493eaabaf89d3ea941c88775e45.jpg","date":"2007-05-05","year":2007,"month":5,"lon":11.393347,"lat":47.269466,"tags":"innsbruck","S2CellId":"0d5914f000000000","result":486,"accuracy":0.20326367,"title":"St.+Jakob"}
{"id":8669312912,"url":"http://farm9.staticflickr.com/8387/8669312912_1f1a48cdca.jpg","path":"87a/0f4/87a0f4b389c3f3f9d57d4aaad8db268f.jpg","date":"2013-04-21","year":2013,"month":4,"lon":11.1425,"lat":47.370834,"tags":"toucan+filter","S2CellId":"479d900000000000","result":3821,"accuracy":0.032048408,"title":"Probieren+mal"}
{"id":5762554768,"url":"http://farm4.staticflickr.com/3533/5762554768_c820d80971.jpg","path":"34d/cf8/34dcf8ee7f69b66fbc18c3bb4fb93c.jpg","date":"2011-05-26","year":2011,"month":5,"lon":11.7565,"lat":47.706665,"tags":"bayern,hiking,tegernsee,wandeling,wanderung","S2CellId":"5484400000000000","result":6097,"accuracy":0.14094009,"title":"More+Doom"}
{"id":9799919863,"url":"http://farm6.staticflickr.com/5447/9799919863_37c63a3ff1.jpg","path":"b04/d36/b04d36a4e182908fad9af4c7bdf11ead.jpg","date":"2013-08-29","year":2013,"month":8,"lon":11.394367,"lat":47.267494,"tags":"austria,innsbruck,tirol,tirolo","S2CellId":"14d1000000000000","result":1328,"accuracy":0.13384861,"title":"Innsbruck+%5BA%5D%2C+2013.","description":"%3Cb%3EWikipedia%3A+%3Ca+href%3D%22http%3A%2F%2Fit.wikipedia.org%2Fwiki%2FInnsbruck%22+rel%3D%22nofollow%22%3EInnsbruck%3C%2Fa%3E.%3C%2Fb%3E"}
{"id":5542856840,"url":"http://farm6.staticflickr.com/5252/5542856840_e3b6f40681.jpg","path":"a4d/323/a4d32391a1976cd45799c749e987e4a3.jpg","date":"2011-03-20","year":2011,"month":3,"lon":11.16726,"lat":47.99724,"tags":"instagram+app,iphoneography,square,square+format,sutro","S2CellId":"5f0b2c0000000000","result":6349,"accuracy":0.0036769644,"title":"Climbing"}
{"id":276172088,"url":"http://farm1.staticflickr.com/122/276172088_80c478f404.jpg","path":"dfd/e96/dfde96aad672a48b85ed801b263cd8dd.jpg","date":"2004-09-20","year":2004,"month":9,"lon":11.044694,"lat":47.407074,"tags":"2004,alpen,deutschland,europa,gel%C3%A4nde%C3%BCbung,geophysik,hochgebirge,projektseminar,reintal,uni,wien","S2CellId":"4776f00000000000","result":3424,"accuracy":0.18492015,"title":"PICT0019"}
{"id":390147310,"url":"http://farm1.staticflickr.com/173/390147310_0baa60d8a8.jpg","path":"a8e/a13/a8ea13420675f80ac0cb208c6db0b8.jpg","date":"2007-02-11","year":2007,"month":2,"lon":11.29652,"lat":47.18493,"tags":"alps,austria,axamer,axamer+lizum,axams,cameraphone,lift,n90,ski+lift,skiing,sky,snow,snowboarding,snowing","S2CellId":"8752700000000000","result":7830,"accuracy":0.072459415,"title":"Kuva293"}
{"id":2284423132,"url":"http://farm3.staticflickr.com/2284/2284423132_bcf935a737.jpg","path":"4c7/5a3/4c75a3bfffe9d49c298a5dd32e1282a.jpg","date":"2008-02-17","year":2008,"month":2,"lon":11.39802,"lat":47.254353,"tags":"%C3%A9glise,%C3%B6sterreich,alpen,alps,austria,basilika,church,innsbruck,kirche,la+iglesia,mariae+empf%C3%A4ngnis,tirol,wilten","S2CellId":"479d700000000000","result":3820,"accuracy":0.07615927,"title":"Innsbruck+am+17.02.2008+%2816%29.jpg","description":"Das+Innere+der+Basilika."}
{"id":6949323503,"url":"http://farm8.staticflickr.com/7051/6949323503_7fe06e4846.jpg","path":"794/b55/794b55ad29d766b36065889056633ad.jpg","date":"2012-02-27","year":2012,"month":2,"lon":11.194767,"lat":47.33004,"tags":"2012,bergen,birkenwald,oostenrijk,seefeld,wintersport","S2CellId":"479d100000000000","result":3817,"accuracy":0.18226002,"title":"2012-03-02+Wintersport+Seefeld+Oostenrijk+%2821%29","description":"Uitzicht+op+zonnige+bergen+vanuit+het+appartement"}
{"id":5777468344,"url":"http://farm6.staticflickr.com/5308/5777468344_ab4794455c.jpg","path":"a41/82f/a4182fc15da9f13c6fe77ceb338a442.jpg","date":"2011-05-30","year":2011,"month":5,"lon":11.142582,"lat":47.567463,"tags":"baustelle,bavaria,eye-fi,germany,oberau,tunnel,westumfahrung","S2CellId":"4776f00000000000","result":3424,"accuracy":0.32275733,"title":"Rubbish+Hill","description":"Mal+schauen%2C+wie+lange+der+Berg+noch+hier+steht.+Ob+er+vor+dem+6.+Juli+weg+kommt.+Oder+auf+ewig+stehen+bleibt..."}
{"id":2209654042,"url":"http://farm3.staticflickr.com/2012/2209654042_d4e3e38b80.jpg","path":"9f1/677/9f167723404a576383e996ade5d6292a.jpg","date":"2008-01-19","year":2008,"month":1,"lon":11.086063,"lat":47.494587,"tags":"2008,bavaria,garmisch,germany","S2CellId":"479d100000000000","result":3817,"accuracy":0.047148935,"title":"DSCN5583"}
{"id":2485634721,"url":"http://farm3.staticflickr.com/2094/2485634721_f491bd68df.jpg","path":"809/410/809410841d26b79f4ea294bff36af87.jpg","date":"2008-05-12","year":2008,"month":5,"lon":11.390032,"lat":47.269722,"tags":"focolare+run4unity+run4unity+run4unity+run4unity+run4unity,fokolarbewegung,fokolare,geeinte+welt,jugendliche,jugendliche+f%C3%BCr+eine+geeinte+welt,run4unity+run4unity","S2CellId":"60188cbc00000000","result":6499,"accuracy":0.059157033,"title":"Innsbruck"}
{"id":8062400551,"url":"http://farm9.staticflickr.com/8175/8062400551_6d7f80f4ac.jpg","path":"cfe/0b2/cfe0b2aca794a80e622e01d3c75082.jpg","date":"2012-10-03","year":2012,"month":10,"lon":11.561513,"lat":47.685036,"tags":"1930er,1935,1936,1945,1971,2002,architektur,brauneck,bundeswehr,gebirgsj%C3%A4gerkaserne,gebirgsj%C3%A4gerkaserne+lenggries,heimatschutzstil,kaserne,konversion,lenggries,lost-places,milit%C3%A4rarchitektur,ns-zeit,prinz-heinrich-kaserne,us-army,wehrmacht","S2CellId":"479e7c0000000000","result":3861,"accuracy":0.012708608,"title":"ehem.+Prinz-Heinrich-Kaserne+%28Gebirgsj%C3%A4gerkaserne%29+Lenggries+Oktober+2012_040"}
{"id":1052627716,"url":"http://farm2.staticflickr.com/1028/1052627716_90458a204b.jpg","path":"164/193/164193a3f039bb1889cedef8a217bfc6.jpg","date":"2007-08-05","year":2007,"month":8,"lon":11.298301,"lat":47.838158,"tags":"boote,segeln,segelschiffe,starnbergersee","S2CellId":"479c400000000000","result":3812,"accuracy":0.09555459,"title":"Sailing+in+Bavaria"}
{"id":4178798911,"url":"http://farm5.staticflickr.com/4001/4178798911_76c78217af.jpg","path":"85a/7ff/85a7ff88841c7157cba311a14952a46.jpg","date":"2009-10-01","year":2009,"month":10,"lon":11.448698,"lat":47.122097,"tags":"baviera,bayern,by+johnny,m%C3%BCnchen,monaco,munchen,munich,oktoberfest,oktoberfest+2009,theresienwiese,wiesn","S2CellId":"4777400000000000","result":3425,"accuracy":0.044847105,"title":"dsc00495.jpg","description":"A+Matrei+il+tempo+lascia+sempre+un+po%27+a+desiderare..."}
{"id":1622916236,"url":"http://farm3.staticflickr.com/2226/1622916236_f93458ca04.jpg","path":"e93/efd/e93efd324a4493a93a26aaeb99a58fd.jpg","date":"2007-05-20","year":2007,"month":5,"lon":11.646527,"lat":47.461784,"tags":"%C3%B6sterreich,achensee,berge,meironke,mountains,mtb,rating3,sport","S2CellId":"4776f00000000000","result":3424,"accuracy":0.09549722,"title":"MTB+Tour+um+den+Achensee+-+Uphill+zum+Schleims-Sattel","description":"...+mit+einer+sch%C3%B6nen+Aussicht%21"}
{"id":5064814237,"url":"http://farm5.staticflickr.com/4105/5064814237_60ce436405.jpg","path":"c3c/9dc/c3c9dc9effa4c627cac5938ef7887ebf.jpg","date":"2010-08-29","year":2010,"month":8,"lon":11.596047,"lat":47.849525,"tags":"2010,august,augustiner,barock,barocke,barockkirche,baroque,bavaria,bayern,bild,cc,chorherrenstift,church,deutschland,dietramszell,flickr,foto,geo,german,germany,hi-res,high+resolution,image,innenraum,interieur,jpeg,jpg,kirche,klosterkirche,oberbayern,photo,picture,rokoko,salesianerinnen,sommer,stockphoto","S2CellId":"479c400000000000","result":3812,"accuracy":0.47075763,"title":"2010-08-29+Umland+M%C3%BCnchen+050+Dietramszell%2C+Klosterkirche"}
{"id":8019264044,"url":"http://farm9.staticflickr.com/8448/8019264044_8bf458ae74.jpg","path":"633/31f/63331fd15b24a074a730fe77cf77f958.jpg","date":"2012-08-22","year":2012,"month":8,"lon":11.405783,"lat":47.263638,"tags":"austria,europe,innsbruck,storm,tirol","S2CellId":"478ac00000000000","result":3644,"accuracy":0.4859368,"title":"storm","description":"We+were+greeted+in+Innsbruck+by+a+cracking%2C+sudden+storm%2C+right+on+sunset.+The+sky+changed+colours+every+couple+of+minutes%2C+and+it+was+all+gone+within+a+half+hour%2C+leaving+the+city+washed+clean+and+the+drains+overflowing."}
{"id":11669335206,"url":"http://farm4.staticflickr.com/3691/11669335206_096a36367b.jpg","path":"499/2fd/4992fd0d08ab1def89889ab2e1566.jpg","date":"2013-12-31","year":2013,"month":12,"lon":11.420861,"lat":47.931526,"tags":"instagram+app,iphoneography,square,square+format","S2CellId":"47c5c30000000000","result":4284,"accuracy":0.004139767,"title":"chapel+ceiling"}
{"id":13040156724,"url":"http://farm4.staticflickr.com/3589/13040156724_32eb8db50f.jpg","path":"bda/c4c/bdac4c2fdc8197c1688cbe13f581238d.jpg","date":"2014-03-07","year":2014,"month":3,"lon":11.397166,"lat":47.28095,"tags":"aegypius,alpenzooinnsbruck,m%C3%B6nchsgeier","S2CellId":"88de100000000000","result":8640,"accuracy":0.028080916,"title":"M%C3%B6nchsgeier+im+Alpenzoo+Innsbruck","description":"M%C3%B6nchsgeier+%28Aegypius+monachus%29"}
{"id":2746812516,"url":"http://farm4.staticflickr.com/3155/2746812516_a3c01f15b9.jpg","path":"343/ac6/343ac6254bedc6e3341798dacabc4f2.jpg","date":"2008-08-03","year":2008,"month":8,"lon":11.099967,"lat":47.423927,"tags":"forest,nature","S2CellId":"4778300000000000","result":3428,"accuracy":0.11795664,"title":"Entlang+der+Partnach"}
{"id":9554899787,"url":"http://farm4.staticflickr.com/3772/9554899787_1161bd37db.jpg","path":"f9b/3be/f9b3be2792fcf1c6895335288da67d.jpg","date":"2013-08-16","year":2013,"month":8,"lon":11.026369,"lat":47.198597,"tags":"alpen,alps,berg,berge,bergsteigen,landschaft,mountain,wandern","S2CellId":"a9d5400000000000","result":9944,"accuracy":0.17587106,"title":"Alpine+View","description":"Stubaier+Alpen+bei+K%C3%BChtai"}
{"id":2778214683,"url":"http://farm4.staticflickr.com/3034/2778214683_d1bc34a4d8.jpg","path":"26f/f3e/26ff3edbc0272de247574754fd71e541.jpg","date":"2008-08-17","year":2008,"month":8,"lon":11.173782,"lat":47.69266,"tags":"staffelsee","S2CellId":"465f77d000000000","result":2906,"accuracy":0.061769564,"title":"The+Staffelsee+%28lake%29"}
{"id":1140777010,"url":"http://farm2.staticflickr.com/1212/1140777010_92e922fc2e.jpg","path":"a1a/69d/a1a69d4d6850ff282c1cb45b6680551c.jpg","date":"2007-07-01","year":2007,"month":7,"lon":11.036013,"lat":47.405014,"tags":"2007,alpen,alpenexkursion,exkursion,hochgebirge,ostalpentraverse,uni","S2CellId":"4771400000000000","result":3386,"accuracy":0.079846285,"title":"Alpenexkursion+2007","description":"An+der+Reintalangerh%C3%BCtte"}
{"id":5064828181,"url":"http://farm5.staticflickr.com/4107/5064828181_6fc5758c92.jpg","path":"3a7/026/3a7026c83aceb9ff4acaf399927b6aab.jpg","date":"2010-08-29","year":2010,"month":8,"lon":11.596047,"lat":47.849525,"tags":"2010,august,augustiner,barock,barocke,barockkirche,baroque,bavaria,bayern,bild,cc,chorherrenstift,church,deutschland,dietramszell,flickr,foto,geo,german,germany,hi-res,high+resolution,image,innenraum,interieur,jpeg,jpg,kirche,klosterkirche,oberbayern,photo,picture,rokoko,salesianerinnen,sommer,stockphoto","S2CellId":"479c400000000000","result":3812,"accuracy":0.09929457,"title":"2010-08-29+Umland+M%C3%BCnchen+053+Dietramszell%2C+Klosterkirche"}
{"id":8090747099,"url":"http://farm9.staticflickr.com/8049/8090747099_7743beaf41.jpg","path":"784/e71/784e71cff8e8586ecd335894bd6ae628.jpg","date":"2012-08-26","year":2012,"month":8,"lon":11.815491,"lat":47.928898,"tags":"2012,77,77v,alpha,august,aying,bayern,bergtierpark,bild,blindham,cc,flickr,foto,geo,hi-res,high,image,jpeg,jpg,kleintiere,m%C3%BCnchen,munich,oberbayern,photo,picture,resolution,slt-a77,sommer,sony,stockphoto,summer,tierpark,zoo","S2CellId":"88d0a631cabb5071","result":8563,"accuracy":0.02544009,"title":"2012-08-26+Bergtierpark+Blindham+046"}
{"id":411684058,"url":"http://farm1.staticflickr.com/161/411684058_bc938d2ba2.jpg","path":"a13/a4e/a13a4ef7199aa09f9a1d7cc363237a61.jpg","date":"2004-04-27","year":2004,"month":4,"lon":11.393455,"lat":47.26726,"tags":"%C3%B6sterreich,austria,innsbruck,oesterreich","S2CellId":"479d700000000000","result":3820,"accuracy":0.6719359,"title":"P4270006.JPG"}
{"id":33741029,"url":"http://farm1.staticflickr.com/21/33741029_4bb0092acd.jpg","path":"113/9ed/1139edf87a175345ebda0cb381b95c3.jpg","date":"2005-08-08","year":2005,"month":8,"lon":11.87725,"lat":47.417168,"tags":"alpachtal,austria","S2CellId":"36f4000000000000","result":2416,"accuracy":0.40296218,"title":"Lake"}
{"id":5929958292,"url":"http://farm7.staticflickr.com/6005/5929958292_111bee2e7f.jpg","path":"65a/cc8/65acc8fb473a86fc388fa8a68c8d78.jpg","date":"2011-07-10","year":2011,"month":7,"lon":11.781094,"lat":47.5912,"tags":"2011,alpen,alps,blauberge,blauberge2011july,halserspitz,hiking,summer","S2CellId":"479d900000000000","result":3821,"accuracy":0.094036005,"title":"IMG_2928","description":"Von+der+Halserspitz+richtung+Karwendel.%0A2011-07-10."}
{"id":6227420076,"url":"http://farm7.staticflickr.com/6038/6227420076_b6d3ec9182.jpg","path":"c75/fee/c75feeab6b5fcd93f75992633f75b762.jpg","date":"2007-06-03","year":2007,"month":6,"lon":11.396341,"lat":47.267323,"tags":"austria,innsbruck","S2CellId":"4771400000000000","result":3386,"accuracy":0.31554538,"title":"P6031202","description":"Innsbruck%2C+Austria"}
{"id":7526821052,"url":"http://farm9.staticflickr.com/8026/7526821052_f2d3039058.jpg","path":"d8b/148/d8b148fad257a56e0d46878f48783df.jpg","date":"2012-06-26","year":2012,"month":6,"lon":11.798597,"lat":47.16922,"tags":"%C3%B6sterreich,alpen,alps,austria,b%26w,finkenberg,shadow,tirol,tyrol,wood,zillertal","S2CellId":"479e7c0000000000","result":3861,"accuracy":0.0051543233,"title":"Decking","description":"Penkenjochhaus"}
{"id":9617589886,"url":"http://farm8.staticflickr.com/7299/9617589886_4373f590cc.jpg","path":"2b8/b6b/2b8b6bcaa8a49be37df11bb7fa1b1cf7.jpg","date":"2013-08-28","year":2013,"month":8,"lon":11.778769,"lat":47.974426,"tags":"aing,aying,deutschland,dorf,german,germania,oras,pitoresc,sat,stadt","S2CellId":"4772c00000000000","result":3389,"accuracy":0.03393935,"title":"Aying","description":"Aying%2C+Germany"}
{"id":7222322086,"url":"http://farm8.staticflickr.com/7097/7222322086_f4829b51d0.jpg","path":"425/eb3/425eb3a9bd67cceb807229bec4bb2.jpg","date":"2012-05-18","year":2012,"month":5,"lon":11.334333,"lat":47.867332,"tags":"altbayern,ambach,bavaria,bavi%C3%A8re,bayern,couple,f%C3%BCnfseenland,f%C3%BCrstensee,oberbayern,ostufer,paar,seeufer,starnberger+see","S2CellId":"479af00000000000","result":3806,"accuracy":0.11245375,"title":"T%C3%AAte-%C3%A0-t%C3%AAte","description":"Nachmittagsstimmung+am+Seeufer+in+Ambach"}
{"id":8842925389,"url":"http://farm6.staticflickr.com/5350/8842925389_e8faeea37f.jpg","path":"385/861/38586199c8d57beca78449d5976bab3.jpg","date":"2013-05-26","year":2013,"month":5,"lon":11.727213,"lat":47.349857,"tags":"instagram+app,iphoneography,square,square+format","S2CellId":"88f5b00000000000","result":8731,"accuracy":0.015711127,"title":"it+is+said+that+once+upon+a+time+we+all+used+to+live+on+trees+%23backtotheroots"}
{"id":8090689512,"url":"http://farm9.staticflickr.com/8055/8090689512_e36654f0bf.jpg","path":"602/f1c/602f1c6234406c88c3fef53cae6b44ad.jpg","date":"2012-08-26","year":2012,"month":8,"lon":11.816494,"lat":47.928738,"tags":"2012,77,77v,alpha,august,aying,bayern,bergtierpark,bild,blindham,cc,flickr,foto,geo,hi-res,high,image,jpeg,jpg,kleintiere,m%C3%BCnchen,munich,oberbayern,photo,picture,resolution,slt-a77,sommer,sony,stockphoto,summer,tierpark,zoo","S2CellId":"487add4000000000","result":5534,"accuracy":0.034801833,"title":"2012-08-26+Bergtierpark+Blindham+039"}
{"id":8430251640,"url":"http://farm9.staticflickr.com/8214/8430251640_866cfd1d79.jpg","path":"508/e67/508e679682c91f630127612bcdcbf.jpg","date":"2013-01-30","year":2013,"month":1,"lon":11.281833,"lat":47.183167,"tags":"austria,axamer+lizum,malamute,nica,skiing,sun,tirol,winter1213","S2CellId":"478f900000000000","result":3690,"accuracy":0.12881812,"title":"the+girls"}
{"id":420275605,"url":"http://farm1.staticflickr.com/177/420275605_492d07dc3c.jpg","path":"d58/fff/d58fffbc9f5682ff694ffe1c9b42f750.jpg","date":"2007-03-12","year":2007,"month":3,"lon":11.34716,"lat":47.99693,"tags":"bavaria,bayern,fx30,lumix,lumixdmcfx30,starnberg,starnbergersee","S2CellId":"548ff00000000000","result":6177,"accuracy":0.41958213,"title":"Starnberger+See"}
{"id":2093585939,"url":"http://farm3.staticflickr.com/2195/2093585939_7bc39ea692.jpg","path":"9c5/e11/9c5e11d8b0e93979e62f8b786920e978.jpg","date":"2007-11-28","year":2007,"month":11,"lon":11.08375,"lat":47.569366,"tags":"froutes,kofel,oberammergau,wandern","S2CellId":"45d4000000000000","result":2755,"accuracy":0.038564604,"title":"Umgebung+Kofel+im+Winter","description":"Aufgenommen+auf+einer+%3Ca+href%3D%22http%3A%2F%2Fwww.froutes.de%2FRO00000123_Oberammergau_Ettal%22%3EWanderung+von+Oberammergau+zum+Kloster+Ettal%3C%2Fa%3E."}
{"id":5486858165,"url":"http://farm6.staticflickr.com/5220/5486858165_7fd2a0f6e2.jpg","path":"d42/180/d42180c59d2378ab7461ec193ed44db.jpg","date":"2011-02-27","year":2011,"month":2,"lon":11.397998,"lat":47.269016,"tags":"365%3A2011,austria,church,d90,gimp,innsbruck,mountains,project365,roofs,snow,tokina+af+11-16mm+f%2F2.8,tokina+at-x+116+pro+dx,winter","S2CellId":"479d700000000000","result":3820,"accuracy":0.48503396,"title":"View","description":"58%2F365+-+2%2F27%2F11"}
{"id":1140646103,"url":"http://farm2.staticflickr.com/1403/1140646103_0bfd199a19.jpg","path":"7f9/671/7f96718e8d5dbcec60e3a62968bff62d.jpg","date":"2007-07-01","year":2007,"month":7,"lon":11.008869,"lat":47.40215,"tags":"2007,alpen,alpenexkursion,exkursion,hochgebirge,ostalpentraverse,uni","S2CellId":"4776f00000000000","result":3424,"accuracy":0.16830789,"title":"Alpenexkursion+2007","description":"Blick+ins+Reintal+-+Blickrichtung+Talausgang"}
{"id":6301989563,"url":"http://farm7.staticflickr.com/6105/6301989563_0558cb9d67.jpg","path":"cca/82b/cca82be67c3ec74d5a37dc3535b.jpg","date":"2011-10-30","year":2011,"month":10,"lon":11.830043,"lat":47.593548,"tags":"ladybird","S2CellId":"88d0a631cabb5071","result":8563,"accuracy":0.0032392854,"title":"ladybird"}
{"id":10842364506,"url":"http://farm3.staticflickr.com/2817/10842364506_bd381f08d2.jpg","path":"81d/768/81d76835fecca5a6466969ea44a09af2.jpg","date":"2013-11-08","year":2013,"month":11,"lon":11.390402,"lat":47.26231,"tags":"%C3%B6sterreich,08.11.2013,alpen,alps,austria,aut,catholic,church,city,herz-jesu-kirche,innsbruck,katholisch,kirche,landeshauptstadt,maximilianstra%C3%9Fe,november,november+2013,stadt,tirol","S2CellId":"46eecfd000000000","result":3104,"accuracy":0.11230431,"title":"Innsbruck+am+08.11.2013","description":"Au%C3%9Fenfassade+und+Kirchturm+der+Herz-Jesu-Kirche."}
{"id":357994289,"url":"http://farm1.staticflickr.com/126/357994289_aad90a1020.jpg","path":"915/da9/915da9fb9ca6401a9fd026d81fd726cf.jpg","date":"2007-01-15","year":2007,"month":1,"lon":11.433334,"lat":47.25698,"tags":"amras,anas+platyrhynchos,austria,castle+amras,duck,innsbruck,mallard,tyrol","S2CellId":"88d0a631cabb5071","result":8563,"accuracy":0.033879142,"title":"Mallard+.1"}
{"id":5978717367,"url":"http://farm7.staticflickr.com/6002/5978717367_da235c0d33.jpg","path":"dde/cc2/ddecc26aa6b9fa4419acb1b459c6934.jpg","date":"2011-07-26","year":2011,"month":7,"lon":11.175413,"lat":47.687866,"tags":"7+inseln,alpen,bavaria,bayern,berge,blau,deutschland,erholung,germany,himmel,insel,inseln,murnau,see,seehausen,staffelsee,uffing,wasser,wei%C3%9F,wei%C3%9F+blau,wolken","S2CellId":"4790c00000000000","result":3710,"accuracy":0.04448123,"title":"Staffelsee+-+Bayern+-+Bavaria","description":"Staffelsee+-+Bayern+-+Bavaria%0A%0AStaffelsee%0ADer+Staffelsee+%28Oberbayern%29+ist+ein+Toteissee+aus+der+W%C3%BCrmeiszeit%2C+dessen+Becken+vom+Loisachgletscher+geformt+wurde.+Der+See+ist+wegen+seiner+gesch%C3%BCtzten+Lage+zwischen+den+Molasserippen+der+Murnauer+Mulde%2C+nur+flach+ausgesch%C3%BCrft.+Der+Staffelsee+enth%C3%A4lt+zahlreiche+vom+Eis+polierte+Konglomerat-Inseln+des+Oberoligoz%C3%A4n+%28sog.+W%C3%B6rth-Konglomerat%29.+Gegen+Ende+der+W%C3%BCrmeiszeit+war+der+Wasserspiegel+etwa+10+m+h%C3%B6her+als+heute.%0ADer+Staffelsee+geh%C3%B6rt+mit+seiner+gesamten+Fl%C3%A4che+%28einschlie%C3%9Flich+aller+Inseln%29+zur+Gemeinde+Seehausen+a.Staffelsee.+Im+Norden+und+Westen+hat+auch+die+Gemeinde+Uffing+Anteil+am+Seeufer%2C+im+%C3%A4u%C3%9Fersten+S%C3%BCdosten+die+Marktgemeinde+Murnau+am+Staffelsee+210+Meter+Seeufer+%28zwischen+Strandbad+Murnau+und+Schiffsanlegestelle%29.+Der+See+selbst+dagegen+ist+Eigentum+des+Freistaates+Bayern%2C+f%C3%BCr+dessen+Verwaltung+die+Bayerische+Verwaltung+der+staatlichen+Schl%C3%B6sser%2C+G%C3%A4rten+und+Seen+zust%C3%A4ndig+ist.%0ADer+See+ist+ein+beliebter+Badesee+mit+mildem%2C+moorhaltigem+Wasser%2C+das+sich+schnell+erw%C3%A4rmt.+Regelm%C3%A4%C3%9Fige+Messungen+%C3%BCberwachen+die+Wasserqualit%C3%A4t.+Im+Winter+finden+Eisl%C3%A4ufer%2C+Eishockeyspieler+und+Eisstocksch%C3%BCtzen+auf+der+ausgedehnten+Eisfl%C3%A4che+ein+weites+Bet%C3%A4tigungsfeld.+Die+Umgebung+l%C3%A4dt+zu+Wanderungen+in+der+weiten+Natur+der+Umgebung.+Der+Rundwanderweg+hat+eine+L%C3%A4nge+von+22+km.+Zwischen+den+Anliegergemeinden+Murnau%2C+Seehausen+a.Staffelsee+und+Uffing+verkehrt+das+Fahrgastschiff+MS+Seehausen.+Seit+1935+findet+jedes+Jahr+an+Fronleichnam+eine+Seeprozession+statt.+Von+der+Dorfkirche+zieht+der+Zug+durch+die+Stra%C3%9Fen+von+Seehausen+bis+an+den+See%2C+von+dort+weiter+mit+Booten+zur+Insel+W%C3%B6rth.+...+aus+Wikipedia+...+%0A%0A%3Ca+href%3D%22http%3A%2F%2Fde.wikipedia.org%2Fwiki%2FStaffelsee%22+rel%3D%22nofollow%22%3Ede.wikipedia.org%2Fwiki%2FStaffelsee%3C%2Fa%3E%0A%3Ca+href%3D%22http%3A%2F%2Fde.wikipedia.org%2Fwiki%2FBayerische_Verwaltung_der_staatlichen_Schl%C3%B6sser%2C_G%C3%A4rten_und_Seen%22+rel%3D%22nofollow%22%3Ede.wikipedia.org%2Fwiki%2FBayerische_Verwaltung_der_staatlich...%3C%2Fa%3E%0A%3Ca+href%3D%22http%3A%2F%2Fwww.staffelsee.org%2F%22+rel%3D%22nofollow%22%3Ewww.staffelsee.org%2F%3C%2Fa%3E"}
{"id":5971729850,"url":"http://farm7.staticflickr.com/6028/5971729850_cbd7fb9738.jpg","path":"759/3e6/7593e6ab23cf6ddd5ab909154e863b2.jpg","date":"2011-06-29","year":2011,"month":6,"lon":11.858496,"lat":47.16223,"tags":"%C3%B6sterreich,%D0%BC%D0%B0%D0%B9%D1%80%D1%85%D0%BE%D1%84%D0%B5%D0%BD,%D7%9E%D7%90%D7%99%D7%99%D7%A8%D7%94%D7%95%D7%A4%D7%9F,2011,4,500d,ahom,alps,apli,austria,autriche,bezirk,bortescristian,canon,cristian,cristianbortes,digital,eos,iphone,kiss,marktgemeinde,mayrhofen,mountain,mountains,munte,munti,oostenrijkse,penken,rebel,schwaz,summer,t1i,tirol,tyrol,vara,x3l,ziller,zillertal","S2CellId":"4777c00000000000","result":3426,"accuracy":0.10387251,"title":"Mayrhofen","description":"Austria+2011"}
{"id":524748578,"url":"http://farm1.staticflickr.com/194/524748578_464a803281.jpg","path":"437/d33/437d33d269ebf35fde2227844c67b.jpg","date":"2007-05-26","year":2007,"month":5,"lon":11.907119,"lat":47.82952,"tags":"bavaria,clouds,crossprocessed,himmel,silhouette,sky,tree","S2CellId":"0d39000000000000","result":327,"accuracy":0.006513702,"title":"silhouetted"}
{"id":3739997854,"url":"http://farm3.staticflickr.com/2499/3739997854_a1677d2009.jpg","path":"8bd/8fe/8bd8fe619266724c7925cca7eb93cabf.jpg","date":"2009-07-17","year":2009,"month":7,"lon":11.754088,"lat":47.709667,"tags":"fackler,hotel,tegernsee,zimmer","S2CellId":"3442aef000000000","result":2090,"accuracy":0.0060686124,"title":"Hotel+Fackler"}
{"id":5214507198,"url":"http://farm5.staticflickr.com/4129/5214507198_814e99511a.jpg","path":"682/351/682351c7b2db83bb5236895670b346.jpg","date":"2010-11-27","year":2010,"month":11,"lon":11.856744,"lat":47.720566,"tags":"2010,55,a55,alpen,alpha,bavaria,bavarian,bayerische,bayern,bild,cc,deutschland,flickr,foto,geo,german,germany,hi-res,high+resolution,image,jpeg,jpg,kalkalpen,lake,november,oberbayern,photo,picture,schliersee,schnee,schneelandschaft,see,slt-a55,snow,sony,stockphoto,upper,voralpen,winter,winterlandschaft","S2CellId":"477ac00000000000","result":3438,"accuracy":0.17331976,"title":"2010-11-27+Schliersee+029"}
