{"id":2740470609,"url":"http://farm4.staticflickr.com/3236/2740470609_9908b622e1.jpg","path":"455/041/45504178756258d2f6912df7b0b43c15.jpg","date":"2008-07-27","year":2008,"month":7,"lon":-88.49554,"lat":48.155136,"tags":"2008,boreal,camera,forest,greenstone+ridge,hike,hiking,isle+royale,isle+royale+national+park,mark,michigan,picture,taking,trail,trees,vacation","S2CellId":"536c000000000000","result":6045,"accuracy":0.03374551,"title":"Mark+Recording+the+View","description":"Day+1%3A+We+canoed+across+Tobin+Harbor+and+hiked+the+portage+route+to+Duncan+Bay.+Then+we+headed+east+along+the+Greenstone+Ridge+Trail+to+Lookout+Louise.+We+thought+we+might+walk+down+to+Hidden+Lake%2C+but+decided+we+were+all+pretty+tired+and+just+headed+back+to+the+canoes."}
{"id":1972354371,"url":"http://farm3.staticflickr.com/2111/1972354371_3c03cc31da.jpg","path":"b9c/b53/b9cb537c34ce735762420bec1db2ba4.jpg","date":"2007-11-11","year":2007,"month":11,"lon":-88.61881,"lat":48.798836,"tags":"eagle+canyon,john+mckenna,loimere,ouimet,thunder+bay","S2CellId":"54866c0000000000","result":6114,"accuracy":0.064312644,"title":"Eagle+Canyon"}
{"id":1972358305,"url":"http://farm3.staticflickr.com/2174/1972358305_4dd6f6f5a4.jpg","path":"772/753/7727539715994da5b22e2fb8aa441e36.jpg","date":"2007-11-11","year":2007,"month":11,"lon":-88.61881,"lat":48.798836,"tags":"eagle+canyon,john+mckenna,loimere,ouimet,thunder+bay","S2CellId":"89b1170000000000","result":8810,"accuracy":0.2709137,"title":"Eagle+Canyon"}
{"id":6128070698,"url":"http://farm7.staticflickr.com/6069/6128070698_c1aa04b5ba.jpg","path":"d6b/69d/d6b69dada48ab822131382e2bfe23094.jpg","date":"2011-09-01","year":2011,"month":9,"lon":-88.456825,"lat":48.17217,"tags":"2011,harbor,hike,hiking,island,isle,lookout,louise,michigan,national,park,rock,royal,royale,september,trail","S2CellId":"54bf400000000000","result":6299,"accuracy":0.030811096,"title":"Rock+cave+on+the+trail+to+Lookout+Louise%2C+Isle+Royale+National+Park%2C+Rock+Harbor%2C+Michigan.","description":"We+canoed+to+the+Hidden+Lake+boat+dock+then+took+a+mile-long+hike+that+was+pretty+much+uphill+to+get+to+Lookout+Louise+in+Isle+Royale+National+park."}
{"id":6127168363,"url":"http://farm7.staticflickr.com/6189/6127168363_34b8796468.jpg","path":"1dd/98a/1dd98a74d6f4b61d50e9bc7a68d73.jpg","date":"2011-08-30","year":2011,"month":8,"lon":-88.571175,"lat":48.097,"tags":"2011,august,caribou,harbor,island,islands,isle,national,park,rock,royal,royale,scenery,shoreline","S2CellId":"5140000000000000","result":5964,"accuracy":0.081584804,"title":"Boater+campground+dock+on+Caribou+Island+--Isle+Royale+National+Park%2C+Rock+Harbor%2C+Michigan","description":"Caribou+Island+has+a+campground+for+boaters.++Here+the+can+moor+their+boats+to+this+dock+while+staying+on+the+island.++From+the+tour+ship+Sandy+as+it+cruised+through+Rock+Harbor."}
{"id":8356629838,"url":"http://farm9.staticflickr.com/8335/8356629838_5933ffdf41.jpg","path":"493/623/493623e8fed6b4b2bd578d854b607bc8.jpg","date":"2013-01-06","year":2013,"month":1,"lon":-88.87767,"lat":48.5395,"tags":"5cardetmooc","S2CellId":"4d2d000000000000","result":5942,"accuracy":0.14075024,"title":"2013+01+05+long+run+on+the+shore"}
{"id":5995634746,"url":"http://farm7.staticflickr.com/6133/5995634746_7cd5dd2c7b.jpg","path":"441/fcd/441fcdecfee95bd32b89705e179f4883.jpg","date":"2011-07-27","year":2011,"month":7,"lon":-88.78833,"lat":48.400944,"tags":"7d,canon,dtwpuck,eos,eos7d,giant,great+lakes,lake,lake+superior,lake+superior+cicle+tour,lake+superior+circle+tour,northern+ontario,ontario,ontarion,photomatix,scott,scott+elliott+smithson,scott+smithson,sleeping,sleeping+giant+provincial+park,smithson,superior","S2CellId":"4d5c000000000000","result":5955,"accuracy":0.2218659,"title":"Ontario+Sleeping+Giant+Marie+Louise+Lake"}
{"id":9703344769,"url":"http://farm4.staticflickr.com/3806/9703344769_0a659d7e1e.jpg","path":"edb/447/edb44759ab547557a4b38954d7bea7d.jpg","date":"2013-08-30","year":2013,"month":8,"lon":-88.59486,"lat":48.091553,"tags":"daisy+farm,isle+royale,sunrise","S2CellId":"4d5c000000000000","result":5955,"accuracy":0.10760102,"title":"IMG_5687"}
{"id":6128214682,"url":"http://farm7.staticflickr.com/6186/6128214682_46c85f7631.jpg","path":"f44/873/f44873559bd422df9967b207b6d6fa.jpg","date":"2011-09-02","year":2011,"month":9,"lon":-88.49071,"lat":48.14381,"tags":"2011,building,harbor,hike,hiking,isle,isle+royale+national+park,michigan,national,park,rock,royal,royale,september,trail","S2CellId":"4c90000000000000","result":5830,"accuracy":0.06687677,"title":"Trees+and+sky%2C+Rock+Harbor%2C+Isle+Royale+National+Park%2C+Michigan","description":"Just+a+shot+of+the+trees+that+you+will+find+in+the+immediate+Rock+Harbor+area."}
{"id":176032656,"url":"http://farm1.staticflickr.com/68/176032656_ed03d28e01.jpg","path":"7a9/748/7a974848ceece57fbade24e355b3615.jpg","date":"2006-06-18","year":2006,"month":6,"lon":-88.725975,"lat":48.69,"tags":"international,international+harvester,s-120+series,truck","S2CellId":"872b640000000000","result":7770,"accuracy":0.032142345,"title":"at+rest","description":"always+looking+forward"}
{"id":130502340,"url":"http://farm1.staticflickr.com/53/130502340_0d464b4e26.jpg","path":"8d9/78c/8d978c9d57f3811f3577c928e84b921.jpg","date":"2004-07-01","year":2004,"month":7,"lon":-88.89939,"lat":48.547523,"tags":"animals,canada,moose,ontario,road+trip","S2CellId":"89b9400000000000","result":8914,"accuracy":0.14979991,"title":"Roadside+moose"}
