{"id":4496567556,"url":"http://farm5.staticflickr.com/4049/4496567556_df5debcec3.jpg","path":"274/4f1/2744f173cd3f1a9ca2a3eba24ced677.jpg","date":"2010-02-20","year":2010,"month":2,"lon":-76.83383,"lat":20.01848,"tags":"botanical+photos,cuba,pico+turquino","S2CellId":"4875d90000000000","result":5173,"accuracy":0.0063027856,"title":"P1060201"}
{"id":5463910092,"url":"http://farm6.staticflickr.com/5014/5463910092_7205a6e61a.jpg","path":"6b8/b16/6b8b16777eaabc3f784df1841336e4b6.jpg","date":"2011-02-20","year":2011,"month":2,"lon":-77.728645,"lat":18.16502,"tags":"appleton,hdr,hdr+expose,jamaica,y.s.+falls+%26+black+river+tour","S2CellId":"2dcc000000000000","result":1536,"accuracy":0.04082391,"title":"Sugarcane+plantation+near+Appleton+%28HDR%29"}
{"id":5541321271,"url":"http://farm6.staticflickr.com/5060/5541321271_656298169d.jpg","path":"d5c/61c/d5c61cfec423043d67e99536848ce0.jpg","date":"2009-05-26","year":2009,"month":5,"lon":-77.921906,"lat":18.472038,"tags":"beach,boat,carribean,crab,jamaica,lizard,margaritaville,ocean,our+room+in+jamaica+%28sitting+area%29,sun,sunset,tropical","S2CellId":"0c6a940000000000","result":154,"accuracy":0.028945187,"title":"Sunset+in+Jamaica"}
{"id":512550187,"url":"http://farm1.staticflickr.com/197/512550187_66c0452fca.jpg","path":"d36/936/d36936254a21c7d450c3227eb5925821.jpg","date":"2007-05-13","year":2007,"month":5,"lon":-75.20811,"lat":19.923164,"tags":"alaska,mountains","S2CellId":"aa74000000000000","result":9950,"accuracy":0.2392383,"title":"Mountains"}
{"id":95915305,"url":"http://farm1.staticflickr.com/21/95915305_d36585e20c.jpg","path":"db5/cd9/db5cd96719d3953aed21fb24b89b53.jpg","date":"2006-01-21","year":2006,"month":1,"lon":-76.30567,"lat":20.788755,"tags":"air+canada,airport,cuba,frank+pais,frank+pais+airport,hog,holguin","S2CellId":"47d9e10000000000","result":4481,"accuracy":0.23549503,"title":"This+Air+Canada+plane+left+before+our+plane+arrived"}
{"id":238956329,"url":"http://farm1.staticflickr.com/89/238956329_a9fa6506e3.jpg","path":"ce4/090/ce4090f595a1976269797fadb067f861.jpg","date":"2006-09-04","year":2006,"month":9,"lon":-77.2229,"lat":18.437923,"tags":"blue,green,jamaica,nyc,ocho+rios,simplyschmoopie,summer,vacation,water","S2CellId":"3461000000000000","result":2114,"accuracy":0.4980683,"title":"Clouds+touch+the+Water","description":"The+water+was+so+blue%2C+I+couldn%27t+take+my+eyes+off+of+it...."}
{"id":294789138,"url":"http://farm1.staticflickr.com/105/294789138_dd7c910501.jpg","path":"4ea/2d2/4ea2d246ac303f2f43592a294e17627.jpg","date":"2006-05-18","year":2006,"month":5,"lon":-77.108574,"lat":18.416182,"tags":"honeymoon,jamaica,sandals,travel","S2CellId":"9689f00000000000","result":9911,"accuracy":0.055356897,"title":"214_1481_IMG","description":"cruise+ship+in+the+rain"}
{"id":6884781322,"url":"http://farm8.staticflickr.com/7043/6884781322_732d589b49.jpg","path":"dc7/6cb/dc76cbbb7148b4d196bc8751abd5c.jpg","date":"2012-01-28","year":2012,"month":1,"lon":-75.86214,"lat":19.958666,"tags":"am%C3%A9rica,azul,barco,blue,boat,caribe,cuba,dos,fjtu,fjturban,humor,latam,latina,latinamerica,mar,offshore,santiago+de+cuba,sea,ship,two","S2CellId":"134c100000000000","result":1170,"accuracy":0.017088473,"title":"se+encuentran+dos+barcos+en+altamar+y+uno+le+dice+al+otro...","description":"...1%3A+%C2%A1loco%21%2C+%C2%BFqu%C3%A9+est%C3%A1s+fumando%3F%3F%3F%0A2%3A+no+s%C3%A9...pero+me+deja+%22flotando%22...+%C2%AC%C2%AC%0A%0Aeste+humo-r+hace+agua...+%3Ap%0A%0A%0Amejor+sobre+fondo+negro...Presion%C3%A1+L"}
{"id":405825396,"url":"http://farm1.staticflickr.com/149/405825396_159d15c98d.jpg","path":"551/bc7/551bc7fdb9c84481b0493a57b3e2a5d.jpg","date":"2005-10-01","year":2005,"month":10,"lon":-75.20811,"lat":19.923164,"tags":"voyager+of+the+seas","S2CellId":"94ce59f000000000","result":9723,"accuracy":0.009849177,"title":"carib-127"}
{"id":3400641211,"url":"http://farm4.staticflickr.com/3645/3400641211_92084d6861.jpg","path":"fef/b11/fefb11984e2dc61bc8aaabc86766dbcb.jpg","date":"2008-12-09","year":2008,"month":12,"lon":-75.829185,"lat":20.020538,"tags":"alte+autos,cars,classic+car,cuba,cuban+cars,d700,kuba,old+american+cars,old+cars,oldtimer,reparto+dagnesse,santiago+de+cuba,vintage+car,voiture,www.alschim.de","S2CellId":"88cd79b000000000","result":8555,"accuracy":0.41427588,"title":"Cuba+Cars","description":"Latitude%2FLongitude%3D%2820.020538+%2C+-75.829185+%29+Near+Geonames%3A+Reparto+Dagnesse+Santiago+de+Cuba+Cuba+%3Ca+href%3D%22http%3A%2F%2Fwww.geonames.org%2Fmaps%2Fgoogle_20.020538_-75.829185.html%22%3E+%28Map+link%29%3C%2Fa%3E%0A%0AOldtimer+of+Cuba"}
{"id":95915693,"url":"http://farm1.staticflickr.com/32/95915693_c18bdecf68.jpg","path":"548/425/548425dc66bcd288c8db603c7d9ea7e.jpg","date":"2006-01-21","year":2006,"month":1,"lon":-76.30567,"lat":20.788755,"tags":"air+transat,airport,cuba,frank+pais,frank+pais+airport,hog,holguin","S2CellId":"2e6b000000000000","result":1576,"accuracy":0.046870492,"title":"No+hop+ons%21"}
{"id":5354683849,"url":"http://farm6.staticflickr.com/5244/5354683849_fc97f882f5.jpg","path":"4b2/6ed/4b26ed8997cf1a9817ea3f7af47948.jpg","date":"2011-01-13","year":2011,"month":1,"lon":-75.20828,"lat":20.12751,"tags":"armada,cuba,guantanamo+bay,marineros,navy,nmcb-28,sailor,ship,u.s.+navy,united+states+navy","S2CellId":"4170000000000000","result":2739,"accuracy":0.036018327,"title":"Seabees+work+on+construction+project+in+Cuba.","description":"GUANTANAMO+BAY%2C+Cuba+%28Jan.+13%2C+2011%29+Steelworker+3rd+Class+Blake+Johns+and+Builder+1st+Class+Daniel+Monroe%2C+both+assigned+to+Naval+Mobile+Construction+Battalion+%28NMCB%29+28%2C+prepare+to+place+concrete+bollards+on+Cable+Beach+at+Naval+Station+Guantanamo+Bay+%28GTMO%29%2C+Cuba.+NMCB-28+is+deployed+to+GTMO+to+support+construction+projects+for+GTMO+and+tenant+commands.+%28U.S.+Navy+photo+by+Mass+Communication+Specialist+3rd+Class+Leona+Mynes%2FReleased%29"}
{"id":5111575023,"url":"http://farm2.staticflickr.com/1342/5111575023_08435e9529.jpg","path":"d4a/3a0/d4a3a088add21215b4fca7616119cd8e.jpg","date":"2010-10-16","year":2010,"month":10,"lon":-77.104454,"lat":18.39623,"tags":"d300,jamaica,ocho,rios,sailboat","S2CellId":"47acc00000000000","result":3959,"accuracy":0.01674051,"description":"So+lonely."}
{"id":3115677067,"url":"http://farm4.staticflickr.com/3114/3115677067_5d23e0301e.jpg","path":"ffb/bb2/ffbbb21c9f368c5e7819f812cbf1ed.jpg","date":"2008-12-03","year":2008,"month":12,"lon":-77.59987,"lat":18.482538,"tags":"beach,jamaica","S2CellId":"6b15000000000000","result":6711,"accuracy":0.1293254,"title":"Jamaica","description":"Beach+in+Jamaica"}
{"id":429890173,"url":"http://farm1.staticflickr.com/166/429890173_7366886e80.jpg","path":"9a7/558/9a75587a817128d316eba2db4f98cf.jpg","date":"2005-07-11","year":2005,"month":7,"lon":-75.17648,"lat":19.914288,"tags":"bay,californian,congresswomen,gitmo,gtmo,guantanamo,reading,wire","S2CellId":"89fd000000000000","result":9400,"accuracy":0.14750952,"title":"Congressional+Visit"}
{"id":6147607757,"url":"http://farm7.staticflickr.com/6209/6147607757_68220bf51d.jpg","path":"a27/896/a278962b8b4233a8eeb513afb9e5fe7.jpg","date":"2011-09-02","year":2011,"month":9,"lon":-77.9274,"lat":18.488888,"tags":"daum.net,flickriver,hdr,ian+halsey,images.google.com,jamaica,jamaica+tourist+board,mbj,montego+bay,royal+decameron+hotel,storm,storm+warning,thomson+holidays,tropical+storm","S2CellId":"8f4c400000000000","result":9516,"accuracy":0.04468405,"title":"Storm+Warning_Montego+Bay_Sep11","description":"A+brief++but+very+strong+storm+chases+across+Montego+Bay%2C+Jamaica.%0A%C2%A9+Image+%26+Design+Ian+Halsey+MMXI."}
{"id":2129444080,"url":"http://farm3.staticflickr.com/2235/2129444080_072ff4fd4d.jpg","path":"515/3cf/5153cfd4e9721a4a2342768a1b24c94.jpg","date":"2008-01-13","year":2008,"month":1,"lon":-75.476585,"lat":19.888624,"tags":"2007,35mm,bw,candid,cuba,film,ilford+dd-x,ilford+hp5%2B,nikonos+iii,people,pool,scan+from+print,silver+print,swimming,underwater","S2CellId":"47edc00000000000","result":4703,"accuracy":0.048254285}
{"id":70915080,"url":"http://farm1.staticflickr.com/18/70915080_1233ab880e.jpg","path":"e6b/c56/e6bc562eb0c19961701e486859fde383.jpg","date":"2005-12-06","year":2005,"month":12,"lon":-76.787735,"lat":18.000528,"tags":"email%27d,moblogin","S2CellId":"89d5400000000000","result":9263,"accuracy":0.047759824,"title":"Lunch+on+a+hectic+day.","description":"Lunch+on+a+hectic+day."}
{"id":172527682,"url":"http://farm1.staticflickr.com/56/172527682_53a6cfdc06.jpg","path":"4a8/0fc/4a80fca4c32b3e65f69469f97b06b6.jpg","date":"2004-09-29","year":2004,"month":9,"lon":-75.866455,"lat":19.967228,"tags":"cuba,oldtimer,santiago","S2CellId":"87bf500000000000","result":7956,"accuracy":0.018494517,"title":"oldtimer.jpg"}
{"id":8570867631,"url":"http://farm9.staticflickr.com/8238/8570867631_79279b8d46.jpg","path":"563/f4b/563f4bd7811ba8b2c37dd25f3cfb54.jpg","date":"2013-03-19","year":2013,"month":3,"lon":-76.396,"lat":18.176167,"tags":"belmount,jamaica,portantonio","S2CellId":"6f00000000000000","result":6856,"accuracy":0.08149404,"title":"MARNIN%27","description":"omg+what+a+spot"}
{"id":3341479314,"url":"http://farm4.staticflickr.com/3317/3341479314_00e00d4543.jpg","path":"627/e2d/627e2d2ea40a439a16091b8355b2d93.jpg","date":"2009-03-07","year":2009,"month":3,"lon":-76.69796,"lat":18.06877,"tags":"bench,blue+mountains,caribbean,jamaica,strawberry+hill","S2CellId":"7100000000000000","result":6857,"accuracy":0.06661249,"title":"strawberry+hill+bench+2","description":"A+bench+with+a+view%3B+at+Strawberry+Hill%2C+looking+out+to+Newcastle%3B+Blue+Mountains%2C+Jamaica%2C+7+March%2C+2009"}
{"id":2247426972,"url":"http://farm3.staticflickr.com/2160/2247426972_170c801bdb.jpg","path":"83a/f8a/83af8a67e5fc2f4afd2efde12432eea5.jpg","date":"2008-01-21","year":2008,"month":1,"lon":-77.91847,"lat":18.470491,"tags":"black,dancer,dancing,entertainement,jamaica,man","S2CellId":"47e66e26c0000000","result":4607,"accuracy":0.05488327,"title":"DSC09456-2"}
{"id":2287726804,"url":"http://farm4.staticflickr.com/3096/2287726804_6b72781067.jpg","path":"3d1/172/3d117278dcc134650945beb4018e952.jpg","date":"2008-02-20","year":2008,"month":2,"lon":-75.20811,"lat":19.923164,"tags":"ships","S2CellId":"80dd311000000000","result":7373,"accuracy":0.015312872,"title":"I+Think+This+is+Our+Pilot"}
{"id":8762066686,"url":"http://farm4.staticflickr.com/3805/8762066686_1cd68ce989.jpg","path":"51a/cca/51acca48080b2d76caa5e19b1ff439.jpg","date":"2013-05-18","year":2013,"month":5,"lon":-77.92889,"lat":18.488806,"tags":"%23fb,jamaica,montego+bay,saint+james+parish","S2CellId":"8f4c400000000000","result":9516,"accuracy":0.14197084,"title":"DSCN0376.jpg","description":"Catamaran"}
{"id":366732388,"url":"http://farm1.staticflickr.com/161/366732388_42e0d0a4bc.jpg","path":"8a8/e98/8a8e98553068855bc359f7db7c58b.jpg","date":"2007-01-15","year":2007,"month":1,"lon":-77.11201,"lat":18.410727,"tags":"cruise,dsc-h1,jamaica,ocho,ocho+rios,princess,rios,star,star+princess","S2CellId":"0c6a400000000000","result":151,"accuracy":0.19285128,"title":"DSC02745"}
{"id":2312122361,"url":"http://farm3.staticflickr.com/2115/2312122361_2f248d85b0.jpg","path":"971/97f/97197fe51ad52f2ed54168993a21888d.jpg","date":"2008-02-29","year":2008,"month":2,"lon":-77.10943,"lat":18.398022,"tags":"honeymoon,ocho+rios+jamaica","S2CellId":"2dd23d0000000000","result":1544,"accuracy":0.031044124,"title":"Ocho+Rios+Honeymoon+204"}
{"id":5490719858,"url":"http://farm6.staticflickr.com/5216/5490719858_21d1790b73.jpg","path":"d5e/3e7/d5e3e73092e43b8728b8d2efc4aa883.jpg","date":"2010-12-30","year":2010,"month":12,"lon":-77.74063,"lat":18.510702,"tags":"beach,caribbean,iberostar,iberostar+rose+hall+beach,jamaica,montego+bay,rose+hall+beach","S2CellId":"07aac00000000000","result":102,"accuracy":0.027338726,"title":"Iberostar+Rose+Hall+Beach"}
{"id":3400635203,"url":"http://farm4.staticflickr.com/3615/3400635203_07203fd3b7.jpg","path":"2b2/9c4/2b29c45275d8db854c638e51e94a7.jpg","date":"2008-12-08","year":2008,"month":12,"lon":-75.94924,"lat":20.049248,"tags":"alte+autos,cars,classic+car,cuba,cuban+cars,d700,el+cobre,kuba,old+american+cars,old+cars,oldtimer,santiago+de+cuba,vintage+car,voiture,www.alschim.de","S2CellId":"4781700000000000","result":3532,"accuracy":0.082932696,"title":"Cuba+Cars","description":"Oldtimer+of+Cuba"}
{"id":406986263,"url":"http://farm1.staticflickr.com/185/406986263_d83de6e841.jpg","path":"87f/ae2/87fae27536c625c2d12fb3fd724554d7.jpg","date":"2007-03-01","year":2007,"month":3,"lon":-77.92431,"lat":18.46878,"tags":"jamaica","S2CellId":"8edc000000000000","result":9506,"accuracy":0.052446354,"title":"DSC00407","description":"Early+morning+at+the+swim+up+pool."}
{"id":3107257995,"url":"http://farm4.staticflickr.com/3195/3107257995_6c055cd803.jpg","path":"3d3/d59/3d3d5911caa9e1d363a7eadea5b4eca.jpg","date":"2008-12-08","year":2008,"month":12,"lon":-75.48448,"lat":20.751217,"tags":"cayo+saetia,cuba,nipe+bay","S2CellId":"8e85000000000000","result":9491,"accuracy":0.16245197,"title":"IMG_5483"}
{"id":473160470,"url":"http://farm1.staticflickr.com/222/473160470_3cf821c849.jpg","path":"24b/698/24b698d3ae65caf782ee49bdaa3e4f2c.jpg","date":"2006-07-07","year":2006,"month":7,"lon":-77.211914,"lat":18.885496,"tags":"caribbean,cruise,hms+imagination","S2CellId":"8824c40000000000","result":8227,"accuracy":0.009397219,"title":"IMG_0207"}
{"id":82110267,"url":"http://farm1.staticflickr.com/37/82110267_75f86eee86.jpg","path":"5e2/a6a/5e2a6aa136d2afb511025f8f98543.jpg","date":"2005-12-31","year":2005,"month":12,"lon":-77.97246,"lat":18.097397,"tags":"hotels,jamaica,resorts","S2CellId":"7955400000000000","result":6875,"accuracy":0.034839153,"title":"PC31000102-Sandals+White+House%2C+Jamaica","description":"Taken+by+Dean"}
{"id":3108378809,"url":"http://farm4.staticflickr.com/3013/3108378809_92687e7d3a.jpg","path":"939/360/939360d6bfeb2e4f9299edcb186b8d2.jpg","date":"2008-12-13","year":2008,"month":12,"lon":-76.383644,"lat":18.15784,"tags":"15+years,bird,ecotoursim,gardens,hill,hotel,hotelmockingbirdhill,jamaica,mocking,party,saturday","S2CellId":"1030000000000000","result":645,"accuracy":0.055989783,"title":"vincent+2"}
{"id":5490717262,"url":"http://farm6.staticflickr.com/5297/5490717262_4b6c1dba00.jpg","path":"93b/117/93b117c58a49afa0ed26f88c4dc2933a.jpg","date":"2010-12-26","year":2010,"month":12,"lon":-77.74063,"lat":18.510702,"tags":"beach,caribbean,iberostar,iberostar+rose+hall+beach,jamaica,montego+bay,rose+hall+beach","S2CellId":"1314140000000000","result":970,"accuracy":0.04594298,"title":"Morning"}
{"id":5360830670,"url":"http://farm6.staticflickr.com/5122/5360830670_6dea1bfd59.jpg","path":"4bf/834/4bf834a09ccf2ef0c8222ccc4b58e230.jpg","date":"2010-01-05","year":2010,"month":1,"lon":-77.9195,"lat":18.47098,"tags":"america,angel,art,artwork,attraction,attractive,beauties,beautiful,beauty,blogtalkradio,broadcaster,celeb,celebrities,deejay,entertainer,entertainment,famous,fashion,females,flickr,florida,fun,fungchung,girls,goodlooking,gorgeous,hiphop,hot,hotchicks,hotgirls,hotmodels,image,images,jamaica,jamaican,ladies,lovely,model,models,music,photo,photobooth,photograph,photographs,photography,photos,photoshoots,pic,pics,pictures,portrait,portraits,posters,prettty,radio,sceneries,sexy,sexychicks,sexyfemales,sexygirls,supermodel,supermodels,superstar,superstars,thesexymonalisa,travels,women","S2CellId":"1dcc674000000000","result":1453,"accuracy":0.005518231,"title":"Amari+%22DJ+Mona-Lisa%22","description":"DJ+Mona-Lisa+In+Jamaica%21"}
{"id":5315952851,"url":"http://farm6.staticflickr.com/5125/5315952851_645a47e8a6.jpg","path":"a83/307/a83307b288b8455b29d2e1bd4091de.jpg","date":"2010-12-28","year":2010,"month":12,"lon":-77.92019,"lat":18.46813,"tags":"jamaica,vacation","S2CellId":"3468050000000000","result":2130,"accuracy":0.0455151,"title":"P1080143"}
{"id":2311170443,"url":"http://farm3.staticflickr.com/2387/2311170443_e9bcf16508.jpg","path":"31c/910/31c910babcefabb3f77db3539dc130.jpg","date":"2008-02-27","year":2008,"month":2,"lon":-77.92122,"lat":18.46935,"tags":"cruise,jamaica","S2CellId":"8859400000000000","result":8434,"accuracy":0.16646352,"title":"birdie"}
{"id":285227991,"url":"http://farm1.staticflickr.com/114/285227991_842de89d8a.jpg","path":"c75/6e2/c756e286161451b9ff369c8dfb257ff.jpg","date":"2006-10-07","year":2006,"month":10,"lon":-77.27491,"lat":18.46935,"tags":"a1,airport,jamaica,montegobay,ochorios,road,signs","S2CellId":"2300000000000000","result":1490,"accuracy":0.08561548,"title":"Trip+from+Ocho+Rios+to+MBJ+Airport%2C+Jamaica"}
{"id":8370269018,"url":"http://farm9.staticflickr.com/8043/8370269018_2a00a0a729.jpg","path":"344/be8/344be8958794471b0b41939ef93792c.jpg","date":"2012-12-10","year":2012,"month":12,"lon":-77.927055,"lat":18.47333,"tags":"enrichment+voyages,semester+at+sea","S2CellId":"89d5400000000000","result":9263,"accuracy":0.0076928097,"title":"Jamaican+%22Wata%22%21"}
{"id":6119961982,"url":"http://farm7.staticflickr.com/6189/6119961982_e91c379ee4.jpg","path":"17e/e1f/17ee1f69d1d6ccbb232833cc7bd7019.jpg","date":"2011-09-01","year":2011,"month":9,"lon":-77.923965,"lat":18.470943,"tags":"2011,jamaica","S2CellId":"8c04c00000000000","result":9413,"accuracy":0.09181397,"title":"Jamaican+Vacation"}
{"id":4496564218,"url":"http://farm5.staticflickr.com/4072/4496564218_7e6ff73853.jpg","path":"937/919/9379199bda16e893c36699bb3439c7d1.jpg","date":"2010-02-20","year":2010,"month":2,"lon":-76.83898,"lat":19.99122,"tags":"cloud+forest,epiphyte","S2CellId":"864e640000000000","result":7620,"accuracy":0.14231312,"title":"Hanging+epiphyte","description":"An+epiphyte+is+a+plant+that+grows%2C+without+roots+or+parasitism%2C+upon+another+plant.+It+gets+moisture+and+nutrients+from+the+air+and+from+dust+and+debris."}
{"id":4316170416,"url":"http://farm5.staticflickr.com/4023/4316170416_a879d8be19.jpg","path":"4f6/785/4f6785ce18cc95422e408910cfdb9db0.jpg","date":"2010-01-16","year":2010,"month":1,"lon":-77.9231,"lat":18.472363,"tags":"montego,sandals","S2CellId":"47e61d1d00000000","result":4562,"accuracy":0.009922305,"title":"Champagne+glasses+and+flowers"}
{"id":5401797397,"url":"http://farm6.staticflickr.com/5057/5401797397_c07902187a.jpg","path":"2e3/6fa/2e36faedb26d6d692532ea26c529d016.jpg","date":"2011-01-18","year":2011,"month":1,"lon":-77.10334,"lat":18.39855,"tags":"jamaica,ocho,peacock,plantation,rios,royal,sandals","S2CellId":"882ec00000000000","result":8278,"accuracy":0.011111298,"title":"Peahen","description":"Sandals+Royal+Plantation+resort%2C+Ocho+Rios%2C+Jamaica"}
{"id":9608346181,"url":"http://farm6.staticflickr.com/5445/9608346181_d549052b20.jpg","path":"db4/db5/db4db53aa630f2e6a83f42342af45df.jpg","date":"2013-08-21","year":2013,"month":8,"lon":-77.400566,"lat":18.465933,"tags":"family,jamaica,travel","S2CellId":"0d2f6c0000000000","result":298,"accuracy":0.056845356,"title":"2013-08-21+07-41-57+17+of+188","description":"Vacation+in+Discovery+Bay%2C+St.+Ann%2C+Jamaica"}
{"id":5800404336,"url":"http://farm4.staticflickr.com/3352/5800404336_c24d9603c2.jpg","path":"fdc/acc/fdcaccd5f1ae54f38bdebaa37ee2d52.jpg","date":"2011-05-31","year":2011,"month":5,"lon":-77.92534,"lat":18.477085,"tags":"beach,jamaica,montego+bay,ocean,sunset","S2CellId":"8e85000000000000","result":9491,"accuracy":0.08704368}
{"id":294794484,"url":"http://farm1.staticflickr.com/122/294794484_d641390ba8.jpg","path":"292/c3b/292c3bef15ec70d3d2ad8611265a045.jpg","date":"2006-05-20","year":2006,"month":5,"lon":-77.108574,"lat":18.416182,"tags":"honeymoon,jamaica,sandals,travel","S2CellId":"8f5d000000000000","result":9533,"accuracy":0.15163194,"title":"215_1509_IMG","description":"Hottie+husband"}
{"id":199828639,"url":"http://farm1.staticflickr.com/63/199828639_616da70c7a.jpg","path":"67e/fc3/67efc3fcb26d5096427aacdc9f75728.jpg","date":"2006-07-18","year":2006,"month":7,"lon":-75.82695,"lat":20.024403,"tags":"cuba,de,santiago","S2CellId":"07161c0000000000","result":88,"accuracy":0.050264288,"title":"IMG_1754"}
{"id":5213902592,"url":"http://farm5.staticflickr.com/4091/5213902592_cbe911b017.jpg","path":"e92/3d4/e923d4af7c73eb84ea21d6f374b5e4.jpg","date":"2010-11-20","year":2010,"month":11,"lon":-77.05133,"lat":18.371834,"tags":"beachertown,jamaica,sandals,white+house,white+river","S2CellId":"8edc000000000000","result":9506,"accuracy":0.41619065,"title":"Blue+Pools+-+White+River%2C+Newstead+Jamaica","description":"My+Trip+with+SuperKids+Inc%21+to+Jamacia+-+November+2010"}
{"id":405823182,"url":"http://farm1.staticflickr.com/171/405823182_90e0bde0b1.jpg","path":"f56/f37/f56f37cd717c8a13ede3f77970eb8612.jpg","date":"2005-09-28","year":2005,"month":9,"lon":-75.20811,"lat":19.923164,"tags":"caribbean","S2CellId":"3461000000000000","result":2114,"accuracy":0.21268134,"title":"carib-081"}
{"id":8522698004,"url":"http://farm9.staticflickr.com/8250/8522698004_a5ee26a394.jpg","path":"b5f/a80/b5fa80caafee3f953efbcfa98eedc591.jpg","date":"2009-02-07","year":2009,"month":2,"lon":-75.164696,"lat":19.893656,"tags":"2009,cuba,february,gtmo,lighthouse","S2CellId":"8085850000000000","result":6964,"accuracy":0.01671226,"title":"100_3269"}
{"id":4717439789,"url":"http://farm5.staticflickr.com/4065/4717439789_786400b76f.jpg","path":"fc6/c41/fc6c41566b78daba238eb7f95aa6df.jpg","date":"2010-06-16","year":2010,"month":6,"lon":-77.926025,"lat":18.472609,"tags":"jamaica","S2CellId":"8900400000000000","result":8768,"accuracy":0.022964576,"title":"038"}
{"id":214277006,"url":"http://farm1.staticflickr.com/89/214277006_308e911b65.jpg","path":"cc2/0c6/cc20c6f1584cba71473bc59227971d4.jpg","date":"2006-08-13","year":2006,"month":8,"lon":-76.8219,"lat":18.002243,"tags":"jamaica","S2CellId":"33bd000000000000","result":1947,"accuracy":0.055168036,"title":"Photo-0058"}
{"id":3306661985,"url":"http://farm4.staticflickr.com/3562/3306661985_cc5f5257ed.jpg","path":"476/ae1/476ae11d2f765817562b4fdeee6ddf.jpg","date":"2008-08-13","year":2008,"month":8,"lon":-75.82549,"lat":20.023113,"tags":"cuba,hairdresser%27s,hairdressing,peluqueria,peruqueria,salon,santiago","S2CellId":"89c2570000000000","result":8951,"accuracy":0.0061547817,"title":"Cuba","description":"Perruqueria+i+el+fot%C3%B2graf"}
{"id":69395471,"url":"http://farm1.staticflickr.com/15/69395471_657009714b.jpg","path":"62a/1bb/62a1bb72b7c13af1d1e4b7aa73d88410.jpg","date":"2005-11-23","year":2005,"month":11,"lon":-77.042656,"lat":18.416834,"tags":"beaches,jamaica,matt,mattroche,mottet,roche","S2CellId":"8924000000000000","result":8770,"accuracy":0.23204903,"title":"Roche%27s+Christmas+Card"}
{"id":285243002,"url":"http://farm1.staticflickr.com/120/285243002_8b2e902044.jpg","path":"77d/488/77d488dcff69f7824a9aab81319beb.jpg","date":"2006-10-07","year":2006,"month":10,"lon":-77.27491,"lat":18.46935,"tags":"a1,airport,jamaica,montegobay,ochorios,road,signs","S2CellId":"89b3400000000000","result":8818,"accuracy":0.057626378,"title":"Trip+from+Ocho+Rios+to+MBJ+Airport%2C+Jamaica"}
{"id":4317816946,"url":"http://farm5.staticflickr.com/4062/4317816946_bc5ea3d72f.jpg","path":"aa4/422/aa442245fcfcf1f27c2560929252df1.jpg","date":"2010-01-18","year":2010,"month":1,"lon":-77.9231,"lat":18.472363,"tags":"jamaica,montego,sandals","S2CellId":"8edc000000000000","result":9506,"accuracy":0.12277174,"title":"Shore+in+front+of+Almond+buildings","description":"At+Sandals+Montego+Bay+resort+in+Jamaica"}
{"id":6118046736,"url":"http://farm7.staticflickr.com/6061/6118046736_3b47876fce.jpg","path":"9c9/f18/9c9f18a4cc13b72f2e7a19dbc1522595.jpg","date":"2011-09-02","year":2011,"month":9,"lon":-77.923965,"lat":18.470943,"tags":"2011,jamaica","S2CellId":"14a3000000000000","result":1264,"accuracy":0.02511333,"title":"Jamaica+vacation"}
{"id":2333660400,"url":"http://farm3.staticflickr.com/2204/2333660400_b4973dff99.jpg","path":"eaa/18a/eaa18ac150339c40c66452545cc477f1.jpg","date":"2006-10-24","year":2006,"month":10,"lon":-77.01828,"lat":18.417078,"tags":"jamaica,sunrise","S2CellId":"0d1b400000000000","result":239,"accuracy":0.008585587,"title":"Jamaica+Sunrise"}
{"id":8521581827,"url":"http://farm9.staticflickr.com/8391/8521581827_1f6bf4158c.jpg","path":"419/1b3/4191b386c54fc73cf80245f476b4a63.jpg","date":"2009-02-06","year":2009,"month":2,"lon":-75.16367,"lat":19.901672,"tags":"2009,cuba,february,gtmo","S2CellId":"6d38ae4000000000","result":6834,"accuracy":0.021468578,"title":"IMG_0365"}
{"id":4781227094,"url":"http://farm5.staticflickr.com/4080/4781227094_b0b90a7120.jpg","path":"ab0/35c/ab035ca582833feb0a653e1291cb0.jpg","date":"2010-05-06","year":2010,"month":5,"lon":-76.24786,"lat":20.887041,"tags":"-jos.,cuba,fenomenolog%C3%ADa+de+la+reclusi%C3%B3n,fernbronx,holgu%C3%ADn,noisnois,painting,performance,romer%C3%ADas+de+mayo,screening","S2CellId":"8804c00000000000","result":8073,"accuracy":0.005188266,"title":"IMGP3068"}
{"id":77209941,"url":"http://farm1.staticflickr.com/43/77209941_cbfb0e6dd1.jpg","path":"531/d53/531d5391ccf6cc328249db38cf334b.jpg","date":"2005-12-25","year":2005,"month":12,"lon":-77.97246,"lat":18.097397,"tags":"jamaica","S2CellId":"8edc000000000000","result":9506,"accuracy":0.007818498,"title":"PC240025-Sandals+White+House%2C+Jamaica"}
{"id":3108096364,"url":"http://farm4.staticflickr.com/3177/3108096364_d57de5093e.jpg","path":"4f5/a8c/4f5a8c949f32c53c4f4575f747e3cf70.jpg","date":"2008-12-09","year":2008,"month":12,"lon":-75.52156,"lat":20.761572,"tags":"cayo+saetia,cuba","S2CellId":"1e70000000000000","result":1463,"accuracy":0.027012689,"title":"IMG_5570"}
{"id":8523757326,"url":"http://farm9.staticflickr.com/8516/8523757326_7d91c48bfe.jpg","path":"f45/299/f45299d1f1be4e88755f7ff8456288.jpg","date":"2009-05-02","year":2009,"month":5,"lon":-75.16219,"lat":19.918728,"tags":"2009,cuba,ferry,gtmo,may","S2CellId":"3461000000000000","result":2114,"accuracy":0.03587034,"title":"IMG_1627"}
{"id":57866556,"url":"http://farm1.staticflickr.com/25/57866556_68be7ef545.jpg","path":"449/bdc/449bdc442fea8eb7391743b36f139a.jpg","date":"2005-10-30","year":2005,"month":10,"lon":-76.79117,"lat":18.01865,"tags":"damage,flood,potholes,roads,wilma","S2CellId":"88d9010000000000","result":8577,"accuracy":0.15262604}
{"id":130103339,"url":"http://farm1.staticflickr.com/47/130103339_a4f53fba4b.jpg","path":"989/18f/98918f4ffaab8b3463bf15184da3c22.jpg","date":"2006-04-12","year":2006,"month":4,"lon":-75.82429,"lat":20.02158,"tags":"cuba,santiagodecuba","S2CellId":"8f2c000000000000","result":9511,"accuracy":0.09028389,"title":"Santiago+de+Cuba+street+scene"}
{"id":6151346618,"url":"http://farm7.staticflickr.com/6163/6151346618_6622d18ce3.jpg","path":"4d3/2e3/4d32e383230ba7485527dfc5fb5cbe1.jpg","date":"2011-09-15","year":2011,"month":9,"lon":-76.916115,"lat":20.560278,"tags":"citydoku,cuba,granma,r%C3%ADo+cauto,sudoku,yourdoku","S2CellId":"8852c00000000000","result":8415,"accuracy":0.064342774,"title":"R%C3%ADo+Cauto","description":"This+is+a+solvable+sudoku+made+with+the+characters+of+R%C3%ADo+Cauto+city+from+Granma+in+Cuba.%0A%0AView+%3Ca+href%3D%22http%3A%2F%2Fwww.yourdoku.com%2Fcity%2Friocautodoku%22+rel%3D%22nofollow%22%3Eriocautodoku%3C%2Fa%3E+or+make+your+own+design+at+%3Ca+href%3D%22http%3A%2F%2Fyourdoku.com%22+rel%3D%22nofollow%22%3Eyourdoku.com%3C%2Fa%3E"}
{"id":3046849228,"url":"http://farm4.staticflickr.com/3285/3046849228_c8fd8e2197.jpg","path":"b97/673/b976733165761f0983d36292593e2f4.jpg","date":"2008-11-16","year":2008,"month":11,"lon":-75.82111,"lat":20.014242,"tags":"club,cuba,nightclub,santiago,santiago+de+cuba","S2CellId":"8f57000000000000","result":9530,"accuracy":0.015395679,"title":"Disco+Club%21"}
{"id":8522662197,"url":"http://farm9.staticflickr.com/8107/8522662197_71f81ae021.jpg","path":"597/77c/59777ce9ec2774ac8662afd667854ac6.jpg","date":"2009-05-03","year":2009,"month":5,"lon":-75.16786,"lat":19.915361,"tags":"2009,cuba,diving,gtmo,may","S2CellId":"8c0c000000000000","result":9416,"accuracy":0.20229167,"title":"Picture+060"}
{"id":4219558711,"url":"http://farm5.staticflickr.com/4066/4219558711_e006a9fc99.jpg","path":"107/16b/10716bca33a5ec54898af5462dc59b34.jpg","date":"2006-01-07","year":2006,"month":1,"lon":-75.83955,"lat":20.035692,"tags":"%E6%91%84%E5%BD%B1,abeille,bee,canon,canon+t2i,cemetery+cementerio,cl%C3%A9,foto,fotograf%C3%ADa,key,photo,photography,pic,rebel,santiago+de+cuba,t2i","S2CellId":"133bbc0000000000","result":1153,"accuracy":0.020411583,"title":"Cementerio+Santa+Ifigenia"}
{"id":8142974009,"url":"http://farm9.staticflickr.com/8472/8142974009_6e10c84dcb.jpg","path":"ecf/dc3/ecfdc39540e360e57d675e737da670.jpg","date":"2011-08-07","year":2011,"month":8,"lon":-77.930504,"lat":18.484833,"tags":"carribean,jamaica","S2CellId":"7700000000000000","result":6860,"accuracy":0.026579851,"title":"IMG_0025"}
{"id":8521397197,"url":"http://farm9.staticflickr.com/8527/8521397197_d6dcdc0d32.jpg","path":"403/b2d/403b2d52864fc5ef88cf98d226f46d2.jpg","date":"2009-08-21","year":2009,"month":8,"lon":-75.16004,"lat":19.916971,"tags":"2009,august,cuba,gtmo,ship,usns+peary","S2CellId":"88fe740000000000","result":8760,"accuracy":0.028782817,"title":"IMG_3252"}
{"id":3440334838,"url":"http://farm4.staticflickr.com/3364/3440334838_29d53631f6.jpg","path":"eb2/b57/eb2b57332077c0dbf540f706fb905f.jpg","date":"2008-04-06","year":2008,"month":4,"lon":-76.79254,"lat":18.282413,"tags":"elizabeth+thomsen,ethomsen,horses,jamaica,robinsbay","S2CellId":"3461000000000000","result":2114,"accuracy":0.06348371,"title":"Leaving+Robin%27s+Bay","description":"Horses+by+the+side+of+the+road"}
{"id":8143196781,"url":"http://farm9.staticflickr.com/8323/8143196781_3531c75dfd.jpg","path":"1f7/a1c/1f7a1c21afd92887af6bfb409e5c65f4.jpg","date":"2012-04-02","year":2012,"month":4,"lon":-76.45285,"lat":18.17843,"tags":"carribean,jamaica","S2CellId":"808fb74000000000","result":7058,"accuracy":0.009595138,"title":"IMG_20120402_153742"}
{"id":79463978,"url":"http://farm1.staticflickr.com/39/79463978_efe313ccfd.jpg","path":"f5a/57c/f5a57cec66f9235190d2f1b7402a8fcf.jpg","date":"2005-12-30","year":2005,"month":12,"lon":-77.97246,"lat":18.097397,"tags":"jamaica,oceans,sandals%2C+white+house,water","S2CellId":"6bd0000000000000","result":6778,"accuracy":0.09696129,"title":"PC290031a-Sandals%2C+White+House%2C+Jamaica"}
{"id":237421404,"url":"http://farm1.staticflickr.com/86/237421404_f45097c1b0.jpg","path":"c39/936/c399362de6f474c7f5596ac84b76a8d.jpg","date":"2006-09-02","year":2006,"month":9,"lon":-77.2229,"lat":18.437923,"tags":"colorful,flowers,gorgeous,jamaica,nyc,ocho+rios,simplyschmoopie,striking,summer,vacation","S2CellId":"89c2f34000000000","result":9103,"accuracy":0.0077733994,"title":"Pink+and+Yellow+Explosions","description":"Jamaican+Lantana"}
{"id":3303967758,"url":"http://farm4.staticflickr.com/3533/3303967758_8cde62f2d9.jpg","path":"bf1/289/bf1289b4fe1f57cc1227e0c8a3fd.jpg","date":"2009-02-13","year":2009,"month":2,"lon":-77.19972,"lat":19.93317,"tags":"bridge,car,chassis,cuba,goatlet,goats,hike,marea+del+portillo,shannon,stream","S2CellId":"1950000000000000","result":1435,"accuracy":0.068908125,"title":"Bridge+%26+Goats","description":"The+princess+goat+is+there+on+the+left%2C+wouldn%27t+cross+the+stream%2C+mama+goat+wasn%27t+very+happy..."}
{"id":80557671,"url":"http://farm1.staticflickr.com/38/80557671_dac2c203f0.jpg","path":"c64/eb5/c64eb5108f8fb8ce83ef5ce3d0971d26.jpg","date":"2006-01-01","year":2006,"month":1,"lon":-77.13776,"lat":18.324545,"tags":"blue+mountains,jamacia,landscape,nature,waterfall","S2CellId":"7c06c00000000000","result":6897,"accuracy":0.09030436,"title":"Blue+Mountains+-+Jamacia"}
{"id":294801458,"url":"http://farm1.staticflickr.com/108/294801458_0b59156ca4.jpg","path":"df6/743/df67434f9414b26f9dd94fec79c1ce4.jpg","date":"2006-05-25","year":2006,"month":5,"lon":-77.108574,"lat":18.416182,"tags":"honeymoon,jamaica,sandals,travel","S2CellId":"2300000000000000","result":1490,"accuracy":0.18077868,"title":"215_1551_IMG","description":"Beach+%26+Ocean+Day"}
{"id":170415039,"url":"http://farm1.staticflickr.com/78/170415039_4f30061452.jpg","path":"ce7/035/ce7035b871f567111ca3c2e5fb58ac3.jpg","date":"2005-02-15","year":2005,"month":2,"lon":-77.92259,"lat":18.470818,"tags":"mobay,montegobay,rjmobay","S2CellId":"88cd740000000000","result":8551,"accuracy":0.064238146,"title":"cricket","description":"pretty+hot+place+to+play"}
{"id":418988794,"url":"http://farm1.staticflickr.com/167/418988794_c26fffbff6.jpg","path":"403/47c/40347c3347cf2599a2dcda1bbfdc3d5a.jpg","date":"2007-03-12","year":2007,"month":3,"lon":-76.36056,"lat":18.167381,"tags":"jamaica,peacecorps","S2CellId":"6f00000000000000","result":6856,"accuracy":0.05809359,"title":"GreatHuts_BostonBay_P101007"}
{"id":4502570211,"url":"http://farm5.staticflickr.com/4026/4502570211_4f7784ba97.jpg","path":"2d5/a38/2d5a389983c86a67a653333758aaaebc.jpg","date":"2010-03-29","year":2010,"month":3,"lon":-76.716156,"lat":18.126112,"tags":"coffee,craighton+estate","S2CellId":"8e6c000000000000","result":9486,"accuracy":0.045539897,"title":"Craighton+Estate+Coffee+Tour"}
{"id":4685642744,"url":"http://farm5.staticflickr.com/4012/4685642744_db25ab8c6e.jpg","path":"c4a/c32/c4ac322aaa4151dc32721f5f8f432b1.jpg","date":"2010-05-06","year":2010,"month":5,"lon":-75.82755,"lat":20.026339,"tags":"2010,cuba,may,santiago,santiagodecuba","S2CellId":"8737000000000000","result":7801,"accuracy":0.007445782,"title":"Santiago+de+Cuba"}
{"id":2312110737,"url":"http://farm4.staticflickr.com/3077/2312110737_08aae6f090.jpg","path":"c22/376/c22376987dacdb91f6d2a75f81d942e.jpg","date":"2008-02-29","year":2008,"month":2,"lon":-77.10943,"lat":18.398022,"tags":"honeymoon,ocho+rios+jamaica","S2CellId":"2300000000000000","result":1490,"accuracy":0.020219162,"title":"Ocho+Rios+Honeymoon+193"}
{"id":47530244,"url":"http://farm1.staticflickr.com/29/47530244_9730f68907.jpg","path":"1ae/a7c/1aea7cb56ccb23db54ac0b27f41e3c1.jpg","date":"2005-09-28","year":2005,"month":9,"lon":-76.787735,"lat":18.000528,"tags":"moblogin","S2CellId":"340400d000000000","result":1995,"accuracy":0.02504962,"title":"Breakfast"}
{"id":285235785,"url":"http://farm1.staticflickr.com/101/285235785_ff45061f41.jpg","path":"c92/d5f/c92d5faf3d8b3a3837bea58d859dd1d.jpg","date":"2006-10-07","year":2006,"month":10,"lon":-77.27491,"lat":18.46935,"tags":"a1,airport,jamaica,montegobay,ochorios,road,signs","S2CellId":"8b00000000000000","result":9401,"accuracy":0.25723004,"title":"Trip+from+Ocho+Rios+to+MBJ+Airport%2C+Jamaica"}
{"id":8279950345,"url":"http://farm9.staticflickr.com/8206/8279950345_03b87b1dab.jpg","path":"fa5/559/fa55593afa41639f4c9e7285c86c51e6.jpg","date":"2009-07-03","year":2009,"month":7,"lon":-77.9243,"lat":18.471478,"tags":"10-22mm,canon+camera,clouds,from+the+roof,hdr,honeymoon,jamaica,rebel+xt,sunset,wide+angle","S2CellId":"7955400000000000","result":6875,"accuracy":0.018242886,"title":"Jamaican+Sunset","description":"I+just+remembered+I+had+some+photos+from+our+honeymoon+that+might+be+uploadable.%0A%0ATurns+out+I+was+right%21"}
{"id":2354389742,"url":"http://farm3.staticflickr.com/2200/2354389742_14ea10c9f3.jpg","path":"b1e/cc7/b1ecc7a49ccc0846a3274d9f65b7b9.jpg","date":"2008-03-04","year":2008,"month":3,"lon":-75.655106,"lat":19.945978,"tags":"baconao,bocanao,byreet,cuba08,parque,prehistorico,santiago","S2CellId":"1835000000000000","result":1425,"accuracy":0.015750628,"title":"Run%2C+little+goat"}
{"id":5316547798,"url":"http://farm6.staticflickr.com/5289/5316547798_b230c332e2.jpg","path":"37f/19c/37f19c6c8c633479366fee4c61d35690.jpg","date":"2010-12-28","year":2010,"month":12,"lon":-77.92019,"lat":18.46813,"tags":"jamaica,vacation","S2CellId":"8fa5000000000000","result":9566,"accuracy":0.0144916,"title":"P1080180"}
{"id":13747384135,"url":"http://farm3.staticflickr.com/2896/13747384135_44d4d431e6.jpg","path":"a95/449/a9544960c11e3e739bd3a2b434532e.jpg","date":"2007-09-21","year":2007,"month":9,"lon":-76.6401,"lat":20.364326,"tags":"bayamo,building,color,cuba,marika+bortolami,nature,people,sky,street,travel","S2CellId":"0715000000000000","result":78,"accuracy":0.15124369,"title":"Bayamo+-+Cuba","description":"2007"}
{"id":95909381,"url":"http://farm1.staticflickr.com/38/95909381_7557e63f48.jpg","path":"d72/cb1/d72cb149d7e89635bd69523896fcc0d9.jpg","date":"2006-01-20","year":2006,"month":1,"lon":-76.24649,"lat":20.900513,"tags":"cuba,goat,holguin","S2CellId":"48761b7000000000","result":5331,"accuracy":0.07794087,"title":"Baaaaaah%21"}
{"id":2228559680,"url":"http://farm3.staticflickr.com/2064/2228559680_7d33ea0be3.jpg","path":"6a2/15a/6a215a57306e14bf6a5af1b81081b4.jpg","date":"2008-01-23","year":2008,"month":1,"lon":-77.92843,"lat":18.46984,"tags":"clouds,cruise,harbor,jamaica,landscape,montego+bay,night,ocean,sea,sky,sun,sunset,vacation,voyager,voyager+of+the+seas,water","S2CellId":"54950a5000000000","result":6246,"accuracy":0.039156195,"title":"Sunset+over+Montego+Bay","description":"%3Ca+href%3D%22http%3A%2F%2Fwww.bighugelabs.com%2Fflickr%2Fonblack.php%3Fid%3D2228559680%22%3EView+On+Black%3C%2Fa%3E"}
{"id":2005765984,"url":"http://farm3.staticflickr.com/2144/2005765984_864c47190f.jpg","path":"ff5/b39/ff5b397487c083fd5d4dcd1c281f5f56.jpg","date":"2007-11-09","year":2007,"month":11,"lon":-76.37884,"lat":18.161755,"tags":"beach,horse,jamaica,sunset","S2CellId":"3051c00000000000","result":1610,"accuracy":0.048499785,"title":"horse+bath%2C+Winifred+beach"}
{"id":4685650600,"url":"http://farm5.staticflickr.com/4045/4685650600_64aae86e82.jpg","path":"7b4/5fa/7b45fa0793050cf16e219af278b7ecd.jpg","date":"2010-05-05","year":2010,"month":5,"lon":-75.82755,"lat":20.026339,"tags":"2010,cuba,may,santiago,santiagodecuba","S2CellId":"56b0000000000000","result":6317,"accuracy":0.032191373,"title":"Santiago+de+Cuba"}
{"id":6118085748,"url":"http://farm7.staticflickr.com/6210/6118085748_21aee77564.jpg","path":"ccb/897/ccb89777b7317c620965f6b7feea1cf.jpg","date":"2011-09-05","year":2011,"month":9,"lon":-77.923965,"lat":18.470943,"tags":"2011,jamaica","S2CellId":"88d9b49400000000","result":8595,"accuracy":0.05004583,"title":"Jamaica+vacation"}
{"id":4718125824,"url":"http://farm5.staticflickr.com/4060/4718125824_65b3fa6b79.jpg","path":"942/321/9423214235a05c4f4159b68332c98f76.jpg","date":"2010-06-17","year":2010,"month":6,"lon":-77.926025,"lat":18.472609,"tags":"jamaica","S2CellId":"8c05400000000000","result":9414,"accuracy":0.06831697,"title":"107","description":"duplicate+%2824196%29"}
{"id":200072821,"url":"http://farm1.staticflickr.com/69/200072821_4fe8b96644.jpg","path":"857/0fd/8570fd90e574119baba98f3a665ae45.jpg","date":"2006-07-26","year":2006,"month":7,"lon":-77.11304,"lat":18.404373,"tags":"dolphin+cove,jamaica,ocho+rios","S2CellId":"88d0a631cabb5071","result":8563,"accuracy":0.042139973,"title":"African+Gray+Parrot","description":"I+regret+that+I+cannot+remember+the+name+of+this+gorgeous+creature."}
{"id":2311865989,"url":"http://farm3.staticflickr.com/2266/2311865989_a3d99d61bf.jpg","path":"e0a/49f/e0a49f1c9610dea6af4c0671f2519a9.jpg","date":"2008-02-26","year":2008,"month":2,"lon":-77.10943,"lat":18.398022,"tags":"honeymoon,ocho+rios+jamaica","S2CellId":"8edc000000000000","result":9506,"accuracy":0.10745235,"title":"Ocho+Rios+Honeymoon+020"}
{"id":8522694736,"url":"http://farm9.staticflickr.com/8506/8522694736_957e86f295.jpg","path":"5c3/9ad/5c39ad226abee4181c52199f15cae13.jpg","date":"2009-02-07","year":2009,"month":2,"lon":-75.14934,"lat":19.915,"tags":"2009,cuba,february,gitmo,gtmo,sunrise","S2CellId":"876c900000000000","result":7897,"accuracy":0.0067656673,"title":"IMG_0388"}
{"id":47530246,"url":"http://farm1.staticflickr.com/28/47530246_e1a98b751e.jpg","path":"64b/a2e/64ba2ec1463d47c2fddab294cea6435e.jpg","date":"2005-09-28","year":2005,"month":9,"lon":-76.787735,"lat":18.000528,"tags":"moblogin","S2CellId":"89c8b00000000000","result":9204,"accuracy":0.008994493,"title":"Now+in+Kingston","description":"Firefox%27s+Forecastfox+in+the+lower+right+corner+of+the+lappy+screen....+but+also+showing+off+my+new+camera+phone%27s+abilities.+%28sepia-toned+pict%29"}
{"id":3370938712,"url":"http://farm4.staticflickr.com/3631/3370938712_db524f1e5e.jpg","path":"a8c/a2b/a8ca2b2bcbeec266b88cfcb54b6745f.jpg","date":"2009-02-15","year":2009,"month":2,"lon":-77.1599,"lat":19.957537,"tags":"50,cuba,film,fuji,granma,pool,river,scan,velvia,vines","S2CellId":"9240000000000000","result":9638,"accuracy":0.06353921,"title":"Vines","description":"A+scan+of+my+velvia+film+shots."}
{"id":5328772259,"url":"http://farm6.staticflickr.com/5044/5328772259_e54d5ef06b.jpg","path":"794/1b3/7941b3fd26fea564f15ef4c78e0dba5.jpg","date":"2010-09-04","year":2010,"month":9,"lon":-75.82949,"lat":20.020794,"tags":"blue,catedral,cathedral,church,cuba,dome,hdr,iglesia,santiago","S2CellId":"9662c5b000000000","result":9881,"accuracy":0.027762303,"title":"Interior+of+the+dome","description":"Interior+of+the+dome+of+the+cathedral+Nuestra+Se%C3%B1ora+de+la+Asuncion%2C+in+Santiago+de+Cuba."}
{"id":3027226865,"url":"http://farm4.staticflickr.com/3136/3027226865_4cecff8501.jpg","path":"76f/229/76f229b05f82e03252ffa3913d391e2b.jpg","date":"2008-01-14","year":2008,"month":1,"lon":-77.92568,"lat":18.43141,"tags":"bej,bird,jamaica,mywinners,rockland,rockland+bird+sanctuary,rubyphotographer,sanctuary","S2CellId":"88d0a631cabb5071","result":8563,"accuracy":0.008920844,"title":"Jamaica+-+Rockland+Bird+Sanctuary","description":"Feeding+a+%22Colibri%22+.This+is+the+National+bird+of+Jamaica%2C+having+the+colors+of+their+flag.+The+place+called+Rockland+Bird+Sanctuary+%21%21%21"}
{"id":5417851330,"url":"http://farm6.staticflickr.com/5095/5417851330_346aff6435.jpg","path":"467/19b/46719bfcddd891e3515ee3a24166fae3.jpg","date":"2011-01-24","year":2011,"month":1,"lon":-77.039825,"lat":18.421186,"tags":"couples,hdr,jamaica,tower+isle","S2CellId":"7700000000000000","result":6860,"accuracy":0.08389027,"title":"Bayside"}
{"id":285245825,"url":"http://farm1.staticflickr.com/110/285245825_038ccd1d1f.jpg","path":"df8/3db/df83dbbb5c9dbe72b38831b3e6d1e.jpg","date":"2006-10-07","year":2006,"month":10,"lon":-77.27491,"lat":18.46935,"tags":"a1,airport,jamaica,montegobay,ochorios,road,signs","S2CellId":"88d8f00000000000","result":8576,"accuracy":0.020825377,"title":"Trip+from+Ocho+Rios+to+MBJ+Airport%2C+Jamaica"}
{"id":4501531160,"url":"http://farm3.staticflickr.com/2770/4501531160_bc2c9d9ced.jpg","path":"81d/5c0/81d5c097272740e7ce33376a89947345.jpg","date":"2010-01-18","year":2010,"month":1,"lon":-77.9231,"lat":18.472363,"tags":"flower,hibiscus,jamaica,red","S2CellId":"6d318a3000000000","result":6816,"accuracy":0.0070925057,"title":"Red+hibiscus"}
{"id":6862647748,"url":"http://farm8.staticflickr.com/7188/6862647748_77b8ce805a.jpg","path":"f69/161/f69161987ec4db3b9298c4947d9f362.jpg","date":"2012-02-18","year":2012,"month":2,"lon":-75.87862,"lat":19.983753,"tags":"cayo+granma,cuba","S2CellId":"9669000000000000","result":9899,"accuracy":0.016591132,"title":"DSC_0206"}
{"id":8402955911,"url":"http://farm9.staticflickr.com/8232/8402955911_fbb3721a81.jpg","path":"716/b98/716b986f8fc66064fd2df7f3e47d3ac9.jpg","date":"2012-01-28","year":2012,"month":1,"lon":-75.8275,"lat":20.033575,"tags":"ayer,cartel,cuba,her%C3%B3ica,hospitalia,hoy,independencia,propaganda,rebelde,revoluci%C3%B3n,santiago+de+cuba,siempre","S2CellId":"95b7000000000000","result":9827,"accuracy":0.0108209625,"title":"Her%C3%B3ica+siempre","description":"Santiago+de+Cuba"}
{"id":432489789,"url":"http://farm1.staticflickr.com/83/432489789_4bdaaccb96.jpg","path":"3c4/d50/3c4d5099b6bf563a7326c28c6443e635.jpg","date":"2007-01-11","year":2007,"month":1,"lon":-77.541504,"lat":18.37086,"tags":"jamaica+2007,jamaica2006,wedding","S2CellId":"8edc000000000000","result":9506,"accuracy":0.13720094,"title":"Kala+%26+Devin+close+%40+Dunn%27s+River+Falls.jpg"}
{"id":69411596,"url":"http://farm1.staticflickr.com/9/69411596_97cc572c80.jpg","path":"5c8/3e7/5c83e7dc511cff18a228e9cbae91e060.jpg","date":"2005-11-26","year":2005,"month":11,"lon":-77.042656,"lat":18.416834,"tags":"jamaica","S2CellId":"8eb4000000000000","result":9501,"accuracy":0.10035917,"title":"Little+Alamo"}
{"id":253612268,"url":"http://farm1.staticflickr.com/59/253612268_b0cdd7e0a3.jpg","path":"a94/de9/a94de9d064b1f1f615b50b62c61da.jpg","date":"2006-09-02","year":2006,"month":9,"lon":-75.86334,"lat":19.978512,"tags":"2006,beach,cuba,front,holiday,mountain,sea,shore,travel","S2CellId":"5470000000000000","result":6094,"accuracy":0.11138107,"title":"Mountains"}
{"id":6582784665,"url":"http://farm8.staticflickr.com/7015/6582784665_e8ec757533.jpg","path":"5ae/9a5/5ae9a550c4bb8f77b0fb2dc349cfa44b.jpg","date":"2011-12-18","year":2011,"month":12,"lon":-77.88089,"lat":18.520037,"tags":"jamaica,resort,sandals","S2CellId":"80c8c5d000000000","result":7249,"accuracy":0.0053187744,"title":"From+the+Resort+Room+%284%29"}
{"id":3008278437,"url":"http://farm4.staticflickr.com/3186/3008278437_68e7916c1b.jpg","path":"86b/18e/86b18e80eff5d7721e339f26ca9d12e9.jpg","date":"2008-11-06","year":2008,"month":11,"lon":-75.16357,"lat":19.911783,"tags":"guantanamo,message,obama,president,torture,usa","S2CellId":"3e45dc0000000000","result":2591,"accuracy":0.4865573,"title":"Something+easy+to+start+with...","description":"%3Ca+href%3D%22http%3A%2F%2Fwww.flickr.com%2Fgroups%2Fmessageforobama%2F%22%3Ewww.flickr.com%2Fgroups%2Fmessageforobama%2F%3C%2Fa%3E"}
{"id":3889955434,"url":"http://farm4.staticflickr.com/3465/3889955434_7516c1efe8.jpg","path":"1e8/be5/1e8be5603317dcbc3bc6cfcfdfa164c.jpg","date":"2009-08-10","year":2009,"month":8,"lon":-77.13673,"lat":18.406004,"tags":"2009,bahamas,bob+marley,jamaica,ocho+rios,summer,zion","S2CellId":"6f00000000000000","result":6856,"accuracy":0.2017287,"title":"Pilgrimage+To+Zion+Pic0325"}
{"id":2495680164,"url":"http://farm3.staticflickr.com/2193/2495680164_9c7d8c0390.jpg","path":"b94/839/b94839bffd3986ddd4dacfd401c7779.jpg","date":"2008-03-10","year":2008,"month":3,"lon":-76.25507,"lat":20.8949,"tags":"2008,cuba,henry,holguin,holiday,jason,jeremiah,liz,march,naomi,wedding","S2CellId":"47e61d1d00000000","result":4562,"accuracy":0.04300595,"title":"Cuba-134"}
{"id":4496601072,"url":"http://farm3.staticflickr.com/2750/4496601072_373bafe76a.jpg","path":"913/b5d/913b5ded385cb4d78d3664242fb578b.jpg","date":"2010-02-22","year":2010,"month":2,"lon":-75.829285,"lat":20.021242,"tags":"santiagodecuba","S2CellId":"304ac40000000000","result":1594,"accuracy":0.19632311,"title":"Streets+of+Santiago%2C+near+the+cathedral"}
{"id":294799994,"url":"http://farm1.staticflickr.com/121/294799994_b902bd08ea.jpg","path":"d86/2c0/d862c0f250639679e38318ebd9ca7566.jpg","date":"2006-05-22","year":2006,"month":5,"lon":-77.108574,"lat":18.416182,"tags":"honeymoon,jamaica,sandals,travel","S2CellId":"7955400000000000","result":6875,"accuracy":0.062821604,"title":"215_1543_IMG"}
{"id":4085877773,"url":"http://farm3.staticflickr.com/2691/4085877773_0fca186e3c.jpg","path":"a9a/c1a/a9ac1abb8952ad8bca6b1696e57aacef.jpg","date":"2006-01-07","year":2006,"month":1,"lon":-75.81801,"lat":20.025991,"tags":"%E6%91%84%E5%BD%B1,26,canon,canon+t2i,foto,fotograf%C3%ADa,photo,photography,pic,rebel,santiago+de+cuba,t2i","S2CellId":"3e45c40000000000","result":2588,"accuracy":0.059837107,"title":"Caserne+Moncada"}
{"id":10635002904,"url":"http://farm6.staticflickr.com/5522/10635002904_c2e134f5d5.jpg","path":"24d/0b6/24d0b6582c9f7b8d9f9e70a49a48ffd7.jpg","date":"2013-10-23","year":2013,"month":10,"lon":-77.05141,"lat":18.371775,"tags":"allure,allure+of+the+seas,caribbean","S2CellId":"8fa0400000000000","result":9555,"accuracy":0.13251299,"title":"Blue+Hole+Waterfalls"}
{"id":6976271686,"url":"http://farm8.staticflickr.com/7105/6976271686_d927bd435e.jpg","path":"c36/23e/c3623e6c621327dca9d53c8f1159df27.jpg","date":"2012-02-23","year":2012,"month":2,"lon":-77.60924,"lat":18.484089,"tags":"roth+buehler","S2CellId":"8f4e440000000000","result":9520,"accuracy":0.14309172,"title":"P1000125"}
{"id":3108346733,"url":"http://farm4.staticflickr.com/3124/3108346733_76b3bcac54.jpg","path":"d4a/a63/d4aa63d173b9b44c4bb3ecad6e7f7b.jpg","date":"2008-12-13","year":2008,"month":12,"lon":-76.383644,"lat":18.15784,"tags":"15+years,bird,ecotoursim,gardens,hill,hotel,hotelmockingbirdhill,jamaica,mocking,party,saturday","S2CellId":"88fd000000000000","result":8754,"accuracy":0.030264735,"title":"evening+light"}
{"id":4495935871,"url":"http://farm5.staticflickr.com/4055/4495935871_409b8dcff0.jpg","path":"885/0ff/8850ffb796b75138f2581c817e14d5.jpg","date":"2010-02-20","year":2010,"month":2,"lon":-76.82662,"lat":20.035578,"tags":"botanical+photos,cuba,pico+turquino","S2CellId":"88da400000000000","result":8606,"accuracy":0.043708485,"title":"P1060234"}
{"id":95909310,"url":"http://farm1.staticflickr.com/29/95909310_ebf0f2378b.jpg","path":"c9c/425/c9c42531f72534f74628c96b7552c0fa.jpg","date":"2006-01-20","year":2006,"month":1,"lon":-76.24649,"lat":20.900513,"tags":"birds,cuba,geese,holguin","S2CellId":"89c2f3c000000000","result":9104,"accuracy":0.044319164,"title":"Geese+that+tried+to+eat+Jessica%27s+foot"}
{"id":3108353481,"url":"http://farm4.staticflickr.com/3054/3108353481_37fac28249.jpg","path":"846/a41/846a41b2226c7b6a1b5ec47aec5dae63.jpg","date":"2008-12-13","year":2008,"month":12,"lon":-76.383644,"lat":18.15784,"tags":"15+years,bird,ecotoursim,gardens,hill,hotel,hotelmockingbirdhill,jamaica,mocking,party,saturday","S2CellId":"2dd23d0000000000","result":1544,"accuracy":0.02098214,"title":"HMBH-2"}
{"id":4502563017,"url":"http://farm5.staticflickr.com/4024/4502563017_6a9d265c58.jpg","path":"749/ddf/749ddfe5e09319802f80dcb338234268.jpg","date":"2010-03-29","year":2010,"month":3,"lon":-76.716156,"lat":18.126112,"tags":"blue+mountains","S2CellId":"69c0000000000000","result":6585,"accuracy":0.03372702,"title":"Craighton+Estate+Coffee+Tour","description":"Views+of+the+mountains+from+the+coffee+plantation."}
{"id":8638803934,"url":"http://farm9.staticflickr.com/8101/8638803934_13c13635c0.jpg","path":"139/04d/13904dd8a3ac23eb98d258e4a7c53da.jpg","date":"2013-03-02","year":2013,"month":3,"lon":-75.831474,"lat":20.018093,"tags":"children,cuba,cuba+colonial,g+adventures,santiago+de+cuba,window,world+trekker","S2CellId":"477eb1db00000000","result":3484,"accuracy":0.019338077,"title":"Cafeteria+La+Escalera","description":"The+Cafeteria+La+Escalera+in+Santiago+de+Cuba."}
{"id":189660574,"url":"http://farm1.staticflickr.com/71/189660574_efe704b2e8.jpg","path":"99d/b68/99db6849276b951e695bef4d91c7e50.jpg","date":"2005-01-22","year":2005,"month":1,"lon":-77.88843,"lat":18.219078,"tags":"jamaica,river+walk,trees","S2CellId":"2300000000000000","result":1490,"accuracy":0.13482535,"title":"P1220050-On+the+River+Walk+grounds"}
