{"id":2737550213,"url":"http://farm4.staticflickr.com/3180/2737550213_e2966d9c63.jpg","path":"f1d/82a/f1d82ac40dc139fb760f94b23c2182e.jpg","date":"2008-07-23","year":2008,"month":7,"lon":26.553127,"lat":39.01436,"tags":"aegean,ag.+ermogenis,beach,boat,greece,island,lesbos,lesvos,sea,summer","S2CellId":"14c1000000000000","result":1285,"accuracy":0.06711504,"title":"Beach+in+St.Ermogenis+2","description":"3rd+day%3A+St.Ermogenis%2FCharamida%0A%0A%CE%9A%CE%B1%CE%B9+%CE%B7+%CE%AC%CE%BB%CE%BB%CE%B7+%CF%80%CE%BB%CE%B5%CF%85%CF%81%CE%AC+%CF%84%CE%B7%CF%82+%CF%80%CE%B1%CF%81%CE%B1%CE%BB%CE%AF%CE%B1%CF%82-%CF%84%CF%83%CE%B9%CE%BB%CE%B9%CE%B2%CE%AE%CE%B8%CF%81%CE%B1."}
{"id":1970997743,"url":"http://farm3.staticflickr.com/2007/1970997743_6e55f4de80.jpg","path":"d7d/633/d7d633ce895f90bbac6e1e5786cb1.jpg","date":"2005-03-01","year":2005,"month":3,"lon":26.170635,"lat":39.95212,"tags":"ruins,troy,turkey","S2CellId":"89c9b00000000000","result":9209,"accuracy":0.034976482,"title":"NH06"}
{"id":7567144378,"url":"http://farm8.staticflickr.com/7131/7567144378_6bb7a66919.jpg","path":"b68/590/b6859014cd3c40e784651b1598bb63d.jpg","date":"2012-05-24","year":2012,"month":5,"lon":26.17023,"lat":39.09979,"tags":"*reflexions*,boats,coast,fishing,greece,greek+islands,harbour,lesbos","S2CellId":"4763000000000000","result":3311,"accuracy":0.12219361,"title":"KALLONI+HARBOUR+WORKING+BOATS..","description":"Taken+on+the+Greek+Island+of+Lesbos.."}
{"id":4185656430,"url":"http://farm3.staticflickr.com/2732/4185656430_dca1dcbfd4.jpg","path":"d7a/8e8/d7a8e80625f3adbeb71b54e68626c11.jpg","date":"2009-12-12","year":2009,"month":12,"lon":26.330109,"lat":39.490265,"tags":"12dec2009,assos,behram","S2CellId":"1502d00000000000","result":1353,"accuracy":0.08649894,"title":"DSC08172"}
{"id":8441944411,"url":"http://farm9.staticflickr.com/8363/8441944411_f7b6986dcd.jpg","path":"def/a24/defa2447561d4d4dc5dfdba37eeebac.jpg","date":"2005-07-25","year":2005,"month":7,"lon":26.02957,"lat":39.81656,"tags":"bozcaada,coast,tenedos,turkey","S2CellId":"12bf000000000000","result":835,"accuracy":0.1371838}
{"id":8716939392,"url":"http://farm8.staticflickr.com/7339/8716939392_25268f72c6.jpg","path":"64e/1fc/64e1fc12c751cfe062b61bda43741ce.jpg","date":"2013-04-29","year":2013,"month":4,"lon":26.361694,"lat":39.058853,"tags":"subalpine+warbler","S2CellId":"88d0a631cabb5071","result":8563,"accuracy":0.10258657,"title":"Subalpine+Warbler","description":"Lesvos+April%2FMay+2013"}
{"id":8451238780,"url":"http://farm9.staticflickr.com/8503/8451238780_9a1aa07098.jpg","path":"ba8/ea8/ba8ea8d8a37e4be2617d679d788676c8.jpg","date":"2012-08-30","year":2012,"month":8,"lon":26.167439,"lat":39.369175,"tags":"boats,europe,fishing,greece,lesbos,lesvos,marina,methymna,mithymna,molivos,molyvos,north+aegean,thebestofday,tourism,travel","S2CellId":"130e5c0000000000","result":959,"accuracy":0.020704499,"title":"Molyvos+-+Mini+Fishing+Boat","description":"So+small+%21%0A%3Ca+href%3D%22http%3A%2F%2Fen.wikipedia.org%2Fwiki%2FMithymna%22+rel%3D%22nofollow%22%3E%28Mithymna%29%3C%2Fa%3E+++%3Ca+href%3D%22http%3A%2F%2Fwww.molivos.net%2F%22+rel%3D%22nofollow%22%3E%28Molyvos%29%3C%2Fa%3E+++%3Ca+href%3D%22http%3A%2F%2Fen.wikipedia.org%2Fwiki%2FLesbos%22+rel%3D%22nofollow%22%3E%28Lesbos%29%3C%2Fa%3E%0A%3Ca+href%3D%22http%3A%2F%2Fwww.cameralenscompare.com%2Fbadge2.aspx%22+rel%3D%22nofollow%22%3E%E2%98%BC%0A%3C%2Fa%3E"}
{"id":203693750,"url":"http://farm1.staticflickr.com/73/203693750_34b5936e21.jpg","path":"937/9cf/9379cf39757e1d4715a1ee059875646.jpg","date":"2006-06-01","year":2006,"month":6,"lon":26.361694,"lat":39.5104,"tags":"aegean,assos,behramkale,ege,t%C3%BCrkiye,tour,transalp,turkey","S2CellId":"12b5d00000000000","result":808,"accuracy":0.100219466,"title":"Old+bridge+of+Behramkale+%28Assos%29","description":"Behramkale+%28Assos%29+%C3%A7%C4%B1k%C4%B1%C5%9F%C4%B1nda+%C3%BCzerinden+ge%C3%A7ti%C4%9Finiz+k%C3%B6pr%C3%BCn%C3%BCn+paralelindeki+eski+ta%C5%9F+k%C3%B6pr%C3%BC"}
{"id":3637871145,"url":"http://farm4.staticflickr.com/3413/3637871145_b61a516aec.jpg","path":"531/f5b/531f5b65ddace0c24c30ac7676b9c542.jpg","date":"2009-06-04","year":2009,"month":6,"lon":26.195354,"lat":39.22507,"tags":"greece,griechenland,lesbos,lesvos","S2CellId":"0d17000000000000","result":208,"accuracy":0.055141322,"title":"img_2788.jpg"}
{"id":4185732700,"url":"http://farm3.staticflickr.com/2633/4185732700_a0d1bb2deb.jpg","path":"922/885/922885c1ab5c440d26da97550b48543.jpg","date":"2009-12-13","year":2009,"month":12,"lon":26.236553,"lat":39.957912,"tags":"13dec2009,troia,troy","S2CellId":"0d3d000000000000","result":329,"accuracy":0.06508477,"title":"DSC08638"}
{"id":5942351347,"url":"http://farm7.staticflickr.com/6005/5942351347_9443795f77.jpg","path":"996/d2c/996d2c7f02ac1fff567d61d459c14f4.jpg","date":"2011-07-16","year":2011,"month":7,"lon":26.742353,"lat":39.56759,"tags":"aegean,alt%C4%B1noluk,altinoluk,bal%C4%B1k%C3%A7%C4%B1+liman%C4%B1,bal%C4%B1kesir,balikesir,fishermen%27s,fishing,fotogezi,harbor,mavitur,net,sea,summer,travel,turkey,vacation,voyageanatolia,wharf","S2CellId":"1347c00000000000","result":1164,"accuracy":0.094820306,"title":"Alt%C4%B1noluk+bal%C4%B1k%C3%A7%C4%B1+liman%C4%B1","description":"%3Ca+href%3D%22http%3A%2F%2FfotoGezi.blogspot.com%22+rel%3D%22nofollow%22%3EfotoGezi.blogspot.com%3C%2Fa%3E"}
{"id":13400256963,"url":"http://farm4.staticflickr.com/3734/13400256963_3bed3bef6d.jpg","path":"d0d/793/d0d793f4153057f7de63da62ae7d461e.jpg","date":"2014-03-24","year":2014,"month":3,"lon":26.238577,"lat":39.95673,"tags":"%CF%84%CF%81%CE%BF%CE%AF%CE%B1,antiquit%C3%A9+grecque,arch%C3%A9ologie,archaelogy,archeology,art+grec,asia+minor,asie+mineure,greek+antiquity,greek+art,greek+period,hissarlik,hom%C3%A8re,iliade,ilion,t%C3%BCrkiye,troie,troy,turkey,turquie,unesco","S2CellId":"14c1000000000000","result":1285,"accuracy":0.04757879,"title":"Site+arch%C3%A9ologique+de+Troie+%28Hissarlik%29","description":"ao%C3%BBt+1988%0AHissarlik+%3A+Site+arch%C3%A9ologique+de+Troie+-+odeon+d%27%C3%A9poque+romaine"}
{"id":12379980835,"url":"http://farm4.staticflickr.com/3720/12379980835_c052489179.jpg","path":"94f/581/94f58117a5225eabb6c7d34fd20ba.jpg","date":"2014-02-03","year":2014,"month":2,"lon":26.357574,"lat":39.97421,"tags":"turkije2014","S2CellId":"0d3d000000000000","result":329,"accuracy":0.061141722,"title":"Troje+%2824+van+41%29","description":"OLYMPUS+DIGITAL+CAMERA"}
{"id":5566755455,"url":"http://farm6.staticflickr.com/5188/5566755455_ac3ca8babf.jpg","path":"81c/aac/81caac51ca22e6ae61913ef547577a2.jpg","date":"2011-03-02","year":2011,"month":3,"lon":26.70064,"lat":39.334164,"tags":"asia,ayvalik,boat,boats,t%C3%BCrkiye,turkey,water","S2CellId":"4887cc0000000000","result":5725,"accuracy":0.01387562,"title":"Ayvalik"}
{"id":4814896896,"url":"http://farm5.staticflickr.com/4138/4814896896_3fb03b1dde.jpg","path":"ed4/bc4/ed4bc46a5e5685f04914baa6377ef260.jpg","date":"2010-07-14","year":2010,"month":7,"lon":26.334229,"lat":39.492886,"tags":"aegean,assos,behramkale,troad,turkey","S2CellId":"14af000000000000","result":1273,"accuracy":0.067577355,"title":"TR2010+101"}
{"id":7240403896,"url":"http://farm8.staticflickr.com/7100/7240403896_9ee01e992e.jpg","path":"817/921/81792161489c1ec922fb0c6bf267f7.jpg","date":"2012-05-11","year":2012,"month":5,"lon":26.239471,"lat":39.216164,"tags":"greek+birdwatching,greek+islands+bird+watching,lesbos,lesbos+bird+photos,lesvos,lesvos+bird+watching,lesvos+birding,lesvos+may+birding","S2CellId":"47d7700000000000","result":4408,"accuracy":0.045052182,"title":"Pipit+Red+Throated+Anthus+cervinus+1+Skala+Kalloni+Salt+Pans++Lesvos++110512"}
{"id":3637834577,"url":"http://farm4.staticflickr.com/3551/3637834577_dc7bb6e1e4.jpg","path":"e1f/8a9/e1f8a92704108e36e114831d90e036.jpg","date":"2009-06-06","year":2009,"month":6,"lon":26.353455,"lat":39.073776,"tags":"greece,griechenland,lesbos,lesvos","S2CellId":"40b3400000000000","result":2685,"accuracy":0.08710164,"title":"Agiassos","description":"ansicht+vom+berg+olympos"}
{"id":2737549945,"url":"http://farm4.staticflickr.com/3284/2737549945_5fdba05948.jpg","path":"da8/427/da8427bff2eb65bd3f1ae5d9e5a9b64a.jpg","date":"2008-07-23","year":2008,"month":7,"lon":26.553127,"lat":39.01436,"tags":"aegean,ag.+ermogenis,buildings,church,greece,island,lesbos,lesvos,summer","S2CellId":"12c9100000000000","result":838,"accuracy":0.08057053,"title":"St.+Ermogenis","description":"3rd+day%3A+St.Ermogenis%2FCharamida%0A%0A%CE%97+%CE%B5%CE%BA%CE%BA%CE%BB%CE%B7%CF%83%CE%AF%CE%B1+%CF%84%CE%BF%CF%85+%CE%91%CE%B3.+%CE%95%CF%81%CE%BC%CE%BF%CE%B3%CE%AD%CE%BD%CE%B7+%CF%80%CE%BF%CF%85+%CE%B4%CE%B5%CF%83%CF%80%CF%8C%CE%B6%CE%B5%CE%B9+%CF%84%CE%B7%CF%82+%CF%80%CE%B1%CF%81%CE%B1%CE%BB%CE%AF%CE%B1%CF%82."}
{"id":6430168061,"url":"http://farm8.staticflickr.com/7021/6430168061_127de2dab4.jpg","path":"976/951/97695169e27da3b56519e9fcc7d16eb.jpg","date":"2011-09-20","year":2011,"month":9,"lon":26.070728,"lat":39.817764,"tags":"dudesign.cc","S2CellId":"47e61d1ec0000000","result":4564,"accuracy":0.15331367,"title":"_DSC0210"}
{"id":7234946274,"url":"http://farm8.staticflickr.com/7228/7234946274_8f7bab1545.jpg","path":"28d/4bf/28d4bf13b98e7064eb97a2c904d6e95.jpg","date":"2012-05-20","year":2012,"month":5,"lon":26.224022,"lat":39.226,"tags":"greek+birdwatching,greek+islands+bird+watching,lesbos,lesbos+bird+photos,lesvos,lesvos+bird+watching,lesvos+birding,lesvos+may+birding","S2CellId":"4810100000000000","result":4787,"accuracy":0.018309738,"title":"Hobby+Falco+subbuteo+with+Martin+Tiskanias+River++Lesvos+110512","description":"We+saw+this+hobby+take+a+Martin+very+near+the+East+River.%0AOne+of+several+seen+by+us+around+the+Skala+Kalloni+area.%0AI+have+a+sneaking+suspicion+that+many+are+misidentified+as+red+foots."}
{"id":8272358418,"url":"http://farm9.staticflickr.com/8502/8272358418_24a3a11a34.jpg","path":"cc3/72c/cc372cdfa856ba9cff25aa0604fae43.jpg","date":"2012-08-30","year":2012,"month":8,"lon":26.16703,"lat":39.368977,"tags":"europe,greece,harbour,historic+landscape,lesbos,lesvos,marina,methymna,mithymna,molivos,molyvos,north+aegean,travel","S2CellId":"135d000000000000","result":1186,"accuracy":0.106076375,"title":"Molyvos+-+Harbour+View","description":"Beautiful+little+community%0A%3Ca+href%3D%22http%3A%2F%2Fen.wikipedia.org%2Fwiki%2FMithymna%22+rel%3D%22nofollow%22%3E%28Mithymna%29%3C%2Fa%3E+++%3Ca+href%3D%22http%3A%2F%2Fwww.molivos.net%2F%22+rel%3D%22nofollow%22%3E%28Molyvos%29%3C%2Fa%3E+++%3Ca+href%3D%22http%3A%2F%2Fen.wikipedia.org%2Fwiki%2FLesbos%22+rel%3D%22nofollow%22%3E%28Lesbos%29%3C%2Fa%3E%0A%3Ca+href%3D%22http%3A%2F%2Fwww.cameralenscompare.com%2Fbadge2.aspx%22+rel%3D%22nofollow%22%3E%E2%98%BC%0A%3C%2Fa%3E"}
{"id":1569053661,"url":"http://farm3.staticflickr.com/2240/1569053661_7b95d56a5d.jpg","path":"c6c/ccc/c6cccc194eaa194a4563327a8068773e.jpg","date":"2007-08-18","year":2007,"month":8,"lon":26.178017,"lat":39.368546,"tags":"antichi+vicoli+del+centro+storico,grecia,lesvos,mithymna,mostra+aperta+al+pubblico,quadri,tele","S2CellId":"34693d4000000000","result":2182,"accuracy":0.008175878,"title":"Arte_profonda","description":"Una+%22galleria+all%27aperto%22%3F"}
{"id":4811313269,"url":"http://farm5.staticflickr.com/4138/4811313269_75440c4fc0.jpg","path":"f73/a3d/f73a3dadf1c8f23851dae20a3afc215.jpg","date":"2010-07-13","year":2010,"month":7,"lon":26.409931,"lat":39.502686,"tags":"aegean,assos,turkey","S2CellId":"4763000000000000","result":3311,"accuracy":0.059243683,"title":"IMG_0130"}
{"id":9455612141,"url":"http://farm3.staticflickr.com/2862/9455612141_549312b835.jpg","path":"3f5/d4f/3f5d4f9703a9cf7bd9ccbe8b475e6c.jpg","date":"2013-08-07","year":2013,"month":8,"lon":26.336292,"lat":39.4926,"tags":"brannan,instagram+app,iphoneography,square,square+format","S2CellId":"0d3d000000000000","result":329,"accuracy":0.017087383}
{"id":3203123923,"url":"http://farm4.staticflickr.com/3387/3203123923_5345c20b4b.jpg","path":"bca/313/bca313c257c7ec017784c0a7803692.jpg","date":"2008-07-23","year":2008,"month":7,"lon":26.175184,"lat":39.013847,"tags":"%CE%AC%CE%B3%CE%B9%CE%BF%CF%82+%CF%86%CF%89%CE%BA%CE%AC%CF%82,%CE%B2%CE%B1%CF%84%CE%B5%CF%81%CE%AC,%CE%BB%CE%AD%CF%83%CE%B2%CE%BF%CF%82,agios+fwkas,column,f%2F0,f.zero,lesvos,mytilini,sea,sunset,vatera","S2CellId":"47e0400000000000","result":4527,"accuracy":0.07406557,"title":"sunset","description":"sunset+at+Agios+Fokas+near+Vatera%2C+Lesvos"}
{"id":8716931644,"url":"http://farm8.staticflickr.com/7293/8716931644_cc6a45ce39.jpg","path":"536/a56/536a56b74833278f856bffbf5ea8873.jpg","date":"2013-04-29","year":2013,"month":4,"lon":26.259556,"lat":39.3766,"tags":"black-headed+wagtail","S2CellId":"1ed0000000000000","result":1478,"accuracy":0.038598154,"title":"Black-headed+Wagtail","description":"Lesvos+April%2FMay+2013+."}
{"id":7235031308,"url":"http://farm6.staticflickr.com/5200/7235031308_de449e191d.jpg","path":"caa/91d/caa91ddc1e74a85fe57793fd8dbb2f7.jpg","date":"2012-05-20","year":2012,"month":5,"lon":26.294746,"lat":39.175453,"tags":"greek+birdwatching,greek+islands+bird+watching,lesbos,lesbos+bird+photos,lesvos,lesvos+bird+watching,lesvos+birding,lesvos+may+birding","S2CellId":"89c7c00000000000","result":9180,"accuracy":0.011590605,"title":"Tern+Common+sterna+hirundo++Nr+Skala+Vasilkon+Lesvos+10%2F05%2F12","description":"This+Tern+obligingly+dropped+onto+an+old+docking+post."}
{"id":2745739459,"url":"http://farm4.staticflickr.com/3288/2745739459_1b3fbf9a09.jpg","path":"3cd/e4a/3cde4a18d5419249baa38706f1a36.jpg","date":"2008-07-29","year":2008,"month":7,"lon":26.554535,"lat":39.108833,"tags":"aegean,greece,island,lesbos,lesvos,mytilene,mytilini,port,summer,view","S2CellId":"12c9100000000000","result":838,"accuracy":0.07925768,"title":"View+from+the+castle","description":"9th+day%3A+Mytilene%0A%0A%CE%91%CF%81%CE%BA%CE%B5%CF%84%CE%AE+%CE%B1%CF%80%CF%8C+%CF%84%CE%B7+%CE%9C%CF%85%CF%84%CE%B9%CE%BB%CE%AE%CE%BD%CE%B7+%28%CE%BC%CE%B5+%CF%84%CE%BF+%CE%BB%CE%B9%CE%BC%CE%AC%CE%BD%CE%B9+%CE%BC%CE%AD%CF%83%CE%B1%29+%CE%B1%CF%80%CF%8C+%CF%84%CE%B1+%CF%84%CE%B5%CE%AF%CF%87%CE%B7+%CF%84%CE%BF%CF%85+%CE%BA%CE%AC%CF%83%CF%84%CF%81%CE%BF%CF%85."}
{"id":197428445,"url":"http://farm1.staticflickr.com/78/197428445_91b45afd17.jpg","path":"ab0/336/ab0336ff268947b69485e5bb7ca297.jpg","date":"2006-07-13","year":2006,"month":7,"lon":26.242218,"lat":39.35129,"tags":"greece,greek+islands,island,lesbos,lesvos,mytilene,mytilini,summer","S2CellId":"4763000000000000","result":3311,"accuracy":0.10671019,"title":"Rusty+anchor"}
{"id":4131951512,"url":"http://farm3.staticflickr.com/2492/4131951512_122c107281.jpg","path":"652/8ae/6528ae999e531992bfc2fe94f0d1ef.jpg","date":"2008-08-03","year":2008,"month":8,"lon":26.205482,"lat":39.206627,"tags":"greece,lesbos,lesvos,skala+kalloni","S2CellId":"8c13000000000000","result":9418,"accuracy":0.008533869,"title":"100_8928"}
{"id":9405115471,"url":"http://farm4.staticflickr.com/3690/9405115471_c5d266472c.jpg","path":"5f9/6de/5f96de7cd22238d490347459a6be3.jpg","date":"2013-07-27","year":2013,"month":7,"lon":26.07035,"lat":39.835583,"tags":"%C3%A7anakkale,%CF%84%CE%AD%CE%BD%CE%B5%CE%B4%CE%BF%CF%82,architecture,bozcaada,building,canakkale,historical+house,house,island,places,stone+house,t%C3%BCrkiye,tenedos,turkey","S2CellId":"8f2c000000000000","result":9511,"accuracy":0.1540408,"title":"Bozcaada+traditional+greek+houses"}
{"id":8407050732,"url":"http://farm9.staticflickr.com/8501/8407050732_b43726efe1.jpg","path":"db5/bfe/db5bfe6230aec3984997a1ada8e446da.jpg","date":"2012-11-08","year":2012,"month":11,"lon":26.239195,"lat":39.957546,"tags":"archaeological+site,ruin,troy,truva,turkey","S2CellId":"46f9000000000000","result":3115,"accuracy":0.100458235,"title":"imgp3060","description":"Troy+ruins"}
{"id":1580872948,"url":"http://farm3.staticflickr.com/2413/1580872948_3787a3773f.jpg","path":"cf7/189/cf718999a6a5bf13f942698c81acaf4.jpg","date":"2007-09-16","year":2007,"month":9,"lon":26.041117,"lat":39.79904,"tags":"coast,rocks,sea,ships,tankers,water","S2CellId":"0d7c000000000000","result":608,"accuracy":0.072838515,"title":"IMG_1149.JPG"}
{"id":166370072,"url":"http://farm1.staticflickr.com/63/166370072_baa448fda6.jpg","path":"b68/6ae/b686ae1f618113ae24c8d4aab308ca2.jpg","date":"2006-06-09","year":2006,"month":6,"lon":26.559792,"lat":39.10589,"tags":"greece,mytilene","S2CellId":"0c6a9c0000000000","result":155,"accuracy":0.02217955,"title":"DSC01124"}
{"id":8444296184,"url":"http://farm9.staticflickr.com/8231/8444296184_b173571e01.jpg","path":"d3a/6f5/d3a6f5b8a78c88c6b2fe842997377f4.jpg","date":"2005-07-26","year":2005,"month":7,"lon":26.334705,"lat":39.49022,"tags":"archaia,assos,fortification,hellenistic,site,turkey","S2CellId":"0d3b000000000000","result":328,"accuracy":0.16883087}
{"id":8392218176,"url":"http://farm9.staticflickr.com/8212/8392218176_806fc268e7.jpg","path":"415/d76/415d7659b76104636dc8a6f612de985.jpg","date":"2012-05-13","year":2012,"month":5,"lon":26.198273,"lat":39.31916,"tags":"greek+birdwatching,greek+islands+bird+watching,lesbos,lesbos+bird+photos,lesvos,lesvos+bird+watching,lesvos+birding,lesvos+may+birding","S2CellId":"86d5000000000000","result":7692,"accuracy":0.05173737,"title":"Thrush+Blue+Rock+Male+monticola+solitarius+2+Lafionas++Lesvos++130512LQ"}
{"id":2221305948,"url":"http://farm3.staticflickr.com/2076/2221305948_5a75649401.jpg","path":"291/682/291682e13168d072fa2616c07be04d87.jpg","date":"2008-01-26","year":2008,"month":1,"lon":26.171665,"lat":39.369007,"tags":"%CE%BB%CE%AD%CF%83%CE%B2%CE%BF%CF%82,%CE%BC%CE%AE%CE%B8%CF%85%CE%BC%CE%BD%CE%B1,%CE%BC%CF%8C%CE%BB%CF%85%CE%B2%CE%BF%CF%82,lesvos,mithimna,molibos,molybos","S2CellId":"1330400000000000","result":1119,"accuracy":0.08229849,"title":"%CE%9C%CF%8C%CE%BB%CF%85%CE%B2%CE%BF%CF%82","description":"%CE%86%CF%80%CE%BF%CF%88%CE%B7+%CF%84%CE%BF%CF%85+%CE%BA%CE%AC%CF%83%CF%84%CF%81%CE%BF%CF%85+%CE%B1%CF%80%CE%BF+%CF%84%CE%BF+%CE%B4%CF%81%CF%8C%CE%BC%CE%BF"}
{"id":4617549661,"url":"http://farm5.staticflickr.com/4070/4617549661_cd965e4d00.jpg","path":"e62/c6e/e62c6e79ad3b874431f21a593ac69a5.jpg","date":"2009-04-21","year":2009,"month":4,"lon":26.238527,"lat":39.957123,"tags":"canakkale,troad,troas,troia,troy,truva","S2CellId":"4801500000000000","result":4747,"accuracy":0.07764633,"title":"troy"}
{"id":5796993218,"url":"http://farm6.staticflickr.com/5102/5796993218_7e56d7ff60.jpg","path":"9fc/65e/9fc65e57bbb87a2260692eff88f130f1.jpg","date":"2011-05-21","year":2011,"month":5,"lon":26.238098,"lat":39.946594,"tags":"trip,troy","S2CellId":"487dd00000000000","result":5632,"accuracy":0.1989846,"title":"069"}
{"id":31190495,"url":"http://farm1.staticflickr.com/23/31190495_b78b90912b.jpg","path":"6d4/226/6d422618a7c7c3b3e15d5d49fe61b.jpg","date":"2005-07-08","year":2005,"month":7,"lon":26.167374,"lat":39.366154,"tags":"greece,island,lesvos,molyvos,mytilini,summer,vacation","S2CellId":"1367000000000000","result":1190,"accuracy":0.06509396,"title":"Molyvos","description":"Room+with+a+view"}
{"id":4185672022,"url":"http://farm3.staticflickr.com/2619/4185672022_317ba0a374.jpg","path":"3f9/fca/3f9fcaf4a72418b22de2f556da6a7d1.jpg","date":"2009-12-12","year":2009,"month":12,"lon":26.333027,"lat":39.49861,"tags":"12dec2009,assos,athena+temple,behram","S2CellId":"0d0cb00000000000","result":166,"accuracy":0.04354439,"title":"DSC08290"}
{"id":2181440524,"url":"http://farm3.staticflickr.com/2420/2181440524_3e1fd8867e.jpg","path":"10b/4b5/10b4b56522eef71f96e484fb30c64566.jpg","date":"2006-01-02","year":2006,"month":1,"lon":26.557516,"lat":39.095264,"tags":"architectural,canon+350,f%2F0,f.zero,houses,lesvos,mytilene","S2CellId":"12b0700000000000","result":798,"accuracy":0.027720982}
{"id":4617546703,"url":"http://farm4.staticflickr.com/3351/4617546703_52ef420033.jpg","path":"7e6/832/7e6832172be854533d7ff86bf84afc.jpg","date":"2009-04-21","year":2009,"month":4,"lon":26.238697,"lat":39.95696,"tags":"canakkale,troad,troas,troia,troy,truva","S2CellId":"14b4000000000000","result":1274,"accuracy":0.049496975,"title":"troy"}
{"id":1750007743,"url":"http://farm3.staticflickr.com/2379/1750007743_6bc2049723.jpg","path":"996/fad/996fad8db67f41d5e8a21fd929830df.jpg","date":"2007-09-18","year":2007,"month":9,"lon":26.00112,"lat":39.81757,"tags":"beach,ripples,sea,water","S2CellId":"2bfc000000000000","result":1527,"accuracy":0.038753234,"title":"IMG_1313.JPG"}
{"id":8392216832,"url":"http://farm9.staticflickr.com/8237/8392216832_cd7e21d633.jpg","path":"35a/107/35a107d16b46a753d23951c446ea7.jpg","date":"2012-06-08","year":2012,"month":6,"lon":26.197758,"lat":39.318893,"tags":"greek+birdwatching,greek+islands+bird+watching,lesbos,lesbos+bird+photos,lesvos,lesvos+bird+watching,lesvos+birding,lesvos+may+birding","S2CellId":"480e900000000000","result":4781,"accuracy":0.00579818,"title":"a+Falcon+Eleonoras+falco+eleonorea+juv+b+Petri+Lesvos+170512_edited-1"}
{"id":8099317699,"url":"http://farm9.staticflickr.com/8334/8099317699_6b06981232.jpg","path":"976/cec/976cecde87a45c965587cc95d447f3ed.jpg","date":"2012-08-27","year":2012,"month":8,"lon":26.167051,"lat":39.369274,"tags":"europe,greece,landscape,lesbos,lesvos,methymna,mithymna,molivos,molyvos,nature,north+aegean,pine,pine+tree,travel,tree","S2CellId":"1296400000000000","result":655,"accuracy":0.013515941,"title":"Molyvos+-+Pine+Tree","description":"Sun+colouring%0A%3Ca+href%3D%22http%3A%2F%2Fen.wikipedia.org%2Fwiki%2FMithymna%22+rel%3D%22nofollow%22%3E%28Wikipedia%29%3C%2Fa%3E+++%3Ca+href%3D%22http%3A%2F%2Fwww.molivos.net%2F%22+rel%3D%22nofollow%22%3E%28Molyvos%29%3C%2Fa%3E+++%3Ca+href%3D%22http%3A%2F%2Fen.wikipedia.org%2Fwiki%2FLesbos%22+rel%3D%22nofollow%22%3E%28Lesbos%29%3C%2Fa%3E%0A%3Ca+href%3D%22http%3A%2F%2Fwww.cameralenscompare.com%2Fbadge2.aspx%22+rel%3D%22nofollow%22%3E%E2%98%BC%0A%3C%2Fa%3E"}
{"id":3389110291,"url":"http://farm4.staticflickr.com/3420/3389110291_3fa708cfa9.jpg","path":"61a/afe/61aafe12cf5e34b1b197e977c56eba3.jpg","date":"2007-12-22","year":2007,"month":12,"lon":26.191664,"lat":39.329617,"tags":"%CE%B5%CE%BB%CE%BB%CE%AC%CE%B4%CE%B1,%CE%BB%CE%AD%CF%83%CE%B2%CE%BF%CF%82,%CF%80%CE%AD%CF%84%CF%81%CE%B1","S2CellId":"4cbf000000000000","result":5875,"accuracy":0.07946468,"title":"%CE%97+%CE%A0%CE%AD%CF%84%CF%81%CE%B1+%CE%B1%CF%80%CE%BF+%CF%84%CE%BF+%CE%A0%CE%B5%CF%84%CF%81%CE%AF"}
{"id":6104166554,"url":"http://farm7.staticflickr.com/6209/6104166554_8b84383eff.jpg","path":"be6/7d6/be67d63d30f67348f6fef46a97336885.jpg","date":"2011-08-24","year":2011,"month":8,"lon":26.174229,"lat":39.368687,"tags":"%CE%B1%CE%BD%CF%89%CF%84%CE%AC%CF%84%CE%B7+%CF%83%CF%87%CE%BF%CE%BB%CE%AE+%CE%BA%CE%B1%CE%BB%CF%8E%CE%BD+%CF%84%CE%B5%CF%87%CE%BD%CF%8E%CE%BD,%CE%B1%CF%81%CF%87%CE%BF%CE%BD%CF%84%CE%B9%CE%BA%CF%8C+%CE%BA%CE%BF%CE%BC%CE%BD%CE%B7%CE%BD%CE%AC%CE%BA%CE%B7+%CE%BA%CF%81%CE%AC%CE%BB%CE%BB%CE%B7,%CE%B1%CF%83%CE%BA%CF%84,%CE%BA%CE%B1%CE%BB%CE%BB%CE%B9%CF%84%CE%B5%CF%87%CE%BD%CE%B9%CE%BA%CF%8C%CF%82+%CF%83%CF%84%CE%B1%CE%B8%CE%BC%CF%8C%CF%82,%CE%BB%CE%AD%CF%83%CE%B2%CE%BF%CF%82,%CE%BC%CE%AE%CE%B8%CF%85%CE%BC%CE%BD%CE%B1,%CE%BC%CF%8C%CE%BB%CF%85%CE%B2%CE%BF%CF%82,athens+school+of+fine+arts,casio+exilim+ex-fc100,greece,lesvos,methymna,no+photoshop,sooc,straight+out+of+camera","S2CellId":"8620a5c000000000","result":7508,"accuracy":0.022787109,"description":"%3Ca+href%3D%22http%3A%2F%2Fwww.flickr.com%2Fphotos%2Fprotonotarios%2Fsets%2F72157627460154103%2F%22%3E%CE%91%CF%81%CF%87%CE%BF%CE%BD%CF%84%CE%B9%CE%BA%CF%8C+%CE%9A%CE%BF%CE%BC%CE%BD%CE%B7%CE%BD%CE%AC%CE%BA%CE%B7+%CE%9A%CF%81%CE%AC%CE%BB%CE%BB%CE%B7%3C%2Fa%3E"}
{"id":174411768,"url":"http://farm1.staticflickr.com/75/174411768_5a50ff8066.jpg","path":"1ed/ba2/1edba26c8db81d664c8bd73a72a002e.jpg","date":"2006-06-21","year":2006,"month":6,"lon":26.111069,"lat":39.301826,"tags":"greece,lesvos","S2CellId":"14be400000000000","result":1281,"accuracy":0.088595085,"title":"Beach+near+Ancient+Antilla"}
{"id":5773007887,"url":"http://farm6.staticflickr.com/5270/5773007887_e132156fc1.jpg","path":"a19/437/a19437567f3c27848b78327b8b4b99b.jpg","date":"2011-05-16","year":2011,"month":5,"lon":26.171125,"lat":39.36892,"tags":"%CE%B5%CE%BB%CE%BB%CE%AC%CF%82,aries+tottle,cat,greece,lesvos,mithymna,molyvos","S2CellId":"5470000000000000","result":6094,"accuracy":0.041100215,"title":"Feline"}
{"id":7179622147,"url":"http://farm6.staticflickr.com/5155/7179622147_b77f94fc18.jpg","path":"efb/1a9/efb1a9e068e762b9f6db5dbab8fb58a.jpg","date":"2012-05-20","year":2012,"month":5,"lon":26.17023,"lat":39.09979,"tags":"*reflexions*,boats,greece,harbour,lesbos,pelican,reflections,skala+kalloni","S2CellId":"4763000000000000","result":3311,"accuracy":0.18436843,"title":"Working+boats+in+a+Lesbos+harbour.","description":"Taken+in+Skala+Kalloni+on+the+Greek+Island+of+Lesbos."}
{"id":8716943274,"url":"http://farm8.staticflickr.com/7398/8716943274_5160648b01.jpg","path":"d2e/464/d2e464fa9f973db23f24f80b8d925af.jpg","date":"2013-04-29","year":2013,"month":4,"lon":26.173553,"lat":39.35182,"tags":"ruppell%27s+warbler","S2CellId":"88d0a631cabb5071","result":8563,"accuracy":0.020300744,"title":"Ruppell%27s+Warbler","description":"Lesvos+May+2013.+Easy+to+see+at+main+stakeout+between+Molivos+and+Petra"}
