{"id":6074864855,"url":"http://farm7.staticflickr.com/6086/6074864855_86e67df84e.jpg","path":"c31/6fb/c316fb6f8049f1663132a33321b743.jpg","date":"2011-08-11","year":2011,"month":8,"lon":-85.021164,"lat":48.354164,"tags":"burnfield+lake,camping,canada,events,excellent+adventure,hipstamatic,iphone,obatanga,obatanga+provincial+park,ontario,places,seasons,summer","S2CellId":"4691000000000000","result":2978,"accuracy":0.07442327,"title":"View+from+the+Fire+Trail","description":"One+of+several+photos+I+took+with+my+trusty+iPhone+%283GS%29%2C+using+Hipstamatic+to+add+mood."}
{"id":703961723,"url":"http://farm2.staticflickr.com/1435/703961723_1093d92468.jpg","path":"a6c/7bb/a6c7bbfff427cb877d7ce1b194f67d2f.jpg","date":"2007-06-30","year":2007,"month":6,"lon":-84.330536,"lat":48.95576,"tags":"bear,bears,fishing,fly+in+fishing,loimere,pine+portage+lodge,wawa","S2CellId":"469c000000000000","result":3042,"accuracy":0.08060585,"title":"Shore+Lunch"}
{"id":704816144,"url":"http://farm2.staticflickr.com/1232/704816144_a4704be89b.jpg","path":"f85/24d/f8524da88d29ac35cf971890ce8b9064.jpg","date":"2007-06-30","year":2007,"month":6,"lon":-84.30668,"lat":48.96044,"tags":"bear,bears,fishing,fly+in+fishing,loimere,pine+portage+lodge,wawa","S2CellId":"5470000000000000","result":6094,"accuracy":0.094190314,"title":"The+Girls"}
{"id":704808802,"url":"http://farm2.staticflickr.com/1297/704808802_68d099c4c5.jpg","path":"c78/489/c7848926fb43115c5f4f743d27478c2.jpg","date":"2007-06-30","year":2007,"month":6,"lon":-84.28333,"lat":48.9623,"tags":"bear,bears,fishing,fly+in+fishing,loimere,pine+portage+lodge,wawa","S2CellId":"8793840000000000","result":7915,"accuracy":0.032052442,"title":"Mom+%26+Eddie"}
{"id":4927347284,"url":"http://farm5.staticflickr.com/4123/4927347284_7158fa0b7e.jpg","path":"e79/40c/e7940cebeff42354828470985bbef3.jpg","date":"2010-07-31","year":2010,"month":7,"lon":-86.89327,"lat":48.778027,"tags":"2010,bay,camping,climb,holiday,lake,lake+superior,lookout,northern+ontario,ontario,provincial+park,rocks,sibley+peninsula,sleeping+giant,summer,thunder+bay","S2CellId":"4caec00000000000","result":5835,"accuracy":0.18940453,"title":"From+above%2C+to+below"}
{"id":3699638362,"url":"http://farm3.staticflickr.com/2627/3699638362_b2a6a26ded.jpg","path":"d0a/04a/d0a04a8eac8b5c635c2961e29c7c010.jpg","date":"2009-06-29","year":2009,"month":6,"lon":-84.80141,"lat":48.00497,"tags":"magpie+river,steephill+falls,wawa","S2CellId":"56c4000000000000","result":6318,"accuracy":0.09566639,"title":"Magpie+River","description":"Canoeing+the+Magpie+River"}
{"id":703986445,"url":"http://farm2.staticflickr.com/1434/703986445_0a2a299cce.jpg","path":"25a/8da/25a8da234fdaadeb547d454957c52ffc.jpg","date":"2007-06-30","year":2007,"month":6,"lon":-84.28333,"lat":48.9623,"tags":"bear,bears,fishing,fly+in+fishing,loimere,pine+portage+lodge,wawa","S2CellId":"52b7000000000000","result":5997,"accuracy":0.07022179,"title":"View+from+our+Room"}
{"id":1526715127,"url":"http://farm3.staticflickr.com/2187/1526715127_f29e63226f.jpg","path":"2eb/1e3/2eb1e36294ab863d81f01dc669fff7c.jpg","date":"2007-10-06","year":2007,"month":10,"lon":-84.314575,"lat":48.60749,"tags":"autumn,canada,fall,ontario","S2CellId":"472c000000000000","result":3253,"accuracy":0.025928486,"title":"038.AgawaCanyonMuskoka.jpg"}
