{"id":2244784536,"url":"http://farm3.staticflickr.com/2116/2244784536_ae1015dda6.jpg","path":"5fa/690/5fa690a5ab1a9230b97e33ce64f7736.jpg","date":"2006-02-04","year":2006,"month":2,"lon":-90.671005,"lat":40.4605,"tags":"downtown,macomb","S2CellId":"89b7b71000000000","result":8847,"accuracy":0.013852492,"title":"IMGP0510"}
{"id":4770172418,"url":"http://farm5.staticflickr.com/4077/4770172418_fc7fd21d18.jpg","path":"10a/667/10a667e199d8122586d9a83a6b1f17da.jpg","date":"2010-06-29","year":2010,"month":6,"lon":-90.436325,"lat":40.531788,"tags":"2010,20ten,chasing+canadia+generator,cornerstone,festival,hand+drawn+mountains","S2CellId":"487604b100000000","result":5211,"accuracy":0.065701015,"title":"Hand+Drawn+Mountains+-+Chasing+Canadia+Stage","description":"Cornerstone+Festival+20ten"}
{"id":2433388810,"url":"http://farm3.staticflickr.com/2163/2433388810_0dfac8df0f.jpg","path":"7bf/f31/7bff31863795974c4d6cb4e25f4.jpg","date":"2008-04-18","year":2008,"month":4,"lon":-90.363655,"lat":40.944767,"tags":"california+zephyr,galesburg,knox+college","S2CellId":"89c0f00000000000","result":8926,"accuracy":0.011073184,"title":"%22Welcome+to+Galesburg%22"}
{"id":8711334461,"url":"http://farm9.staticflickr.com/8414/8711334461_0f357156b5.jpg","path":"a48/629/a48629ce852f53440e9268c88cee33.jpg","date":"2013-05-05","year":2013,"month":5,"lon":-90.80509,"lat":40.448647,"tags":"argyle,colchester,illinois,lake,meadowlark,park,state","S2CellId":"89e6d00000000000","result":9384,"accuracy":0.033108637,"title":"Argyle+Lake+5-5-13","description":"Taken+on+a+bike+ride+around+Argyle+Lake+near+Colchester+IL.+This+Meadowlark+was+giving+me+the+eye."}
{"id":5627881645,"url":"http://farm6.staticflickr.com/5309/5627881645_ce570a007d.jpg","path":"cf3/8d1/cf38d14f40aaa473e8fa7a40c844543c.jpg","date":"2011-04-17","year":2011,"month":4,"lon":-90.71179,"lat":40.51217,"tags":"bird,red-headed,woodpecker","S2CellId":"89c3700000000000","result":9120,"accuracy":0.03762895,"title":"Fighting+Birds+of+Spring+Lake","description":"The+woodpeckers+had+tree+bark+flying+everywhere+as+the+looked+for+the+insects+hidden+under+it%2C"}
{"id":7092047555,"url":"http://farm6.staticflickr.com/5467/7092047555_66a79c3781.jpg","path":"134/dc8/134dc87ee3e77a16efab075d843ce1.jpg","date":"2012-04-18","year":2012,"month":4,"lon":-90.68467,"lat":40.467,"tags":"english,journalism","S2CellId":"89b0c00000000000","result":8799,"accuracy":0.080515854,"title":"Undergraduate+Research+Day+2012"}
{"id":4759137890,"url":"http://farm5.staticflickr.com/4073/4759137890_05f6be4665.jpg","path":"59d/fa3/59dfa38a974f4e842b229461207cab60.jpg","date":"2010-07-03","year":2010,"month":7,"lon":-90.76801,"lat":40.011246,"tags":"cabin,illinois,lake,log,mt,sterling","S2CellId":"87bb000000000000","result":7950,"accuracy":0.030416928,"title":"Mount+Sterling+Lake+Drive","description":"This+log+cabin+is+at+the+entrance+to+the+Mount+Sterling+Lake+just+north+of+the+city."}
{"id":83954263,"url":"http://farm1.staticflickr.com/37/83954263_0481d1001d.jpg","path":"47e/385/47e3857190b2107ca78fc15a1d59c8a.jpg","date":"2004-10-15","year":2004,"month":10,"lon":-90.727844,"lat":40.47059,"tags":"lake","S2CellId":"89c4c00000000000","result":9132,"accuracy":0.02414549,"title":"Lake+Argyle+15"}
{"id":7713454794,"url":"http://farm9.staticflickr.com/8158/7713454794_6280d63d39.jpg","path":"2dc/97c/2dc97c51c3332c4374ec875fd31ab34.jpg","date":"2012-08-03","year":2012,"month":8,"lon":-90.64841,"lat":40.912216,"tags":"2,24l,429,5d,5d2,angle,auto,boss,canon,cars,chevy,classic,corvette,dodge,ford,frame,full,gto,ii,il,ill,lens,monmouth,muscle,mustang,plymouth,pontiac,sharp,taylor+bennett,ver,version,viper,wide,wideangle","S2CellId":"880ef00000000000","result":8147,"accuracy":0.13325448,"title":"Plymouth"}
{"id":6797187737,"url":"http://farm8.staticflickr.com/7168/6797187737_725d2045be.jpg","path":"fa7/c59/fa7c59a7c1ee669a9f273778a4819.jpg","date":"2009-12-27","year":2009,"month":12,"lon":-90.08588,"lat":40.303734,"tags":"ice,illinois,illinois+river,river,sleet,snow,trees,wetlands,winter","S2CellId":"882e400000000000","result":8277,"accuracy":0.020978756,"title":"Flooded+Fields","description":"This+is+a+picture+from+2010+in+Havana+Illinois.+During+the+winter+the+water+was+high+and+flooded+the+overflow+wetlands+area+by+the+Illinois+river.+this+is+a+picture+of+the+ice+on+the+snow%2C+between+the+lines+of+trees."}
{"id":8240194426,"url":"http://farm9.staticflickr.com/8203/8240194426_21c9cc62de.jpg","path":"d41/d7c/d41d7cd4ee87c37922cf84cdeafd7f2f.jpg","date":"2012-12-02","year":2012,"month":12,"lon":-90.731964,"lat":40.327946,"tags":"birds,county,downy,illinois,macomb,mcdonough,woodpecker","S2CellId":"883cae5000000000","result":8363,"accuracy":0.017987192,"title":"Downy+Woodpecker"}
