{"id":479326287,"url":"http://farm1.staticflickr.com/219/479326287_1b9d15f260.jpg","path":"e9f/e8f/e9fe8f39c8665ba3806da03efe46bf3f.jpg","date":"2007-03-11","year":2007,"month":3,"lon":29.019978,"lat":40.99457,"tags":"ferry,istanbul,transport","S2CellId":"880e2b5000000000","result":8111,"accuracy":0.05916912,"title":"Ferry","description":"These+ferry+are+a+great+way+to+cross+from+the+Asian+side+%28Anatolia%29+to+the+European+side+of+the+city+and+back+%28we+stayed+on+the+Anatolian+side%29.+I+have+been+told+that%2C+as+they+become+too+old%2C+they+are+being+replaced+with+more+modern%2C+faster+ferries.+The+end+of+an+era+is+near."}
{"id":12226074143,"url":"http://farm6.staticflickr.com/5486/12226074143_ab3a320f1d.jpg","path":"d36/eb8/d36eb869d2a4a78512442248ef1bc65.jpg","date":"2014-01-25","year":2014,"month":1,"lon":29.11582,"lat":40.86801,"tags":"50mm,b%C3%BCy%C3%BCkada,birds,canon+60d,canon+ef+50mm+f%2F1.8+ii","S2CellId":"8620af4000000000","result":7522,"accuracy":0.33353966,"title":"B%C3%BCy%C3%BCkada","description":"Canon+EF+50mm+f%2F1.8+II%2C+f%2F6.3"}
{"id":6255464750,"url":"http://farm7.staticflickr.com/6238/6255464750_0083554465.jpg","path":"1c4/f6b/1c4f6b98427ba3ef386f73ec1a1174f.jpg","date":"2011-10-11","year":2011,"month":10,"lon":29.300537,"lat":40.89405,"tags":"istanbul,izmir,turcja,turkey","S2CellId":"89c2670000000000","result":9088,"accuracy":0.069699734,"title":"Istanbul+Airport","description":"October+2011"}
{"id":8022619016,"url":"http://farm9.staticflickr.com/8173/8022619016_dce5a4c125.jpg","path":"bbf/4cc/bbf4cc994e8370596720ea724b1dee5.jpg","date":"2010-09-27","year":2010,"month":9,"lon":29.01809,"lat":40.996433,"tags":"holiday,istanbul,turkey","S2CellId":"479e758b00000000","result":3846,"accuracy":0.12106969,"title":"201009+Istanbul+166","description":"Exif_JPEG_PICTURE"}
{"id":4251681427,"url":"http://farm3.staticflickr.com/2793/4251681427_80a2340ff5.jpg","path":"92b/836/92b836b65f19dc262771cd6215d2b48a.jpg","date":"2010-01-03","year":2010,"month":1,"lon":29.118404,"lat":40.89256,"tags":"%C3%A7ay,%CE%B3%CE%B9%CE%B1%CE%BD%CE%BD%CE%B7%CF%82,marmara,tea,yiannis","S2CellId":"9689f00000000000","result":9911,"accuracy":0.00880635,"title":"DSC09817"}
{"id":5692745081,"url":"http://farm6.staticflickr.com/5148/5692745081_92a2047a08.jpg","path":"7b3/4e5/7b34e56dad71e6e21b11e6846fe8672.jpg","date":"2011-05-06","year":2011,"month":5,"lon":29.137115,"lat":40.912476,"tags":"band,cd,gun,guns+and+roses,music,pistol,rose","S2CellId":"47e6150000000000","result":4554,"accuracy":0.011550933,"title":"Guns+n%27+Roses"}
{"id":4146824579,"url":"http://farm3.staticflickr.com/2751/4146824579_f60acdbdcc.jpg","path":"cec/9bf/cec9bf374c14a6d30b6d5dfaadb0a7.jpg","date":"2009-11-27","year":2009,"month":11,"lon":29.425335,"lat":40.721046,"tags":"27nov2009,mart%C4%B1lar,seagulls","S2CellId":"8085850000000000","result":6964,"accuracy":0.10174052,"title":"DSC07412"}
{"id":7748035210,"url":"http://farm9.staticflickr.com/8447/7748035210_ece51c50e6.jpg","path":"328/7c3/3287c3bb8e20c4bbac50fa493d21af83.jpg","date":"2011-06-23","year":2011,"month":6,"lon":29.024033,"lat":40.99428,"tags":"kadikoy","S2CellId":"9aab000000000000","result":9926,"accuracy":0.041745633,"title":"2011-06-23+19-56-46+-+DSC_0821"}
{"id":2849013866,"url":"http://farm4.staticflickr.com/3086/2849013866_8d220aa42f.jpg","path":"25f/eb4/25feb41c3319fc845148a83d5239544.jpg","date":"2008-08-31","year":2008,"month":8,"lon":29.020546,"lat":40.990143,"tags":"bj%C3%B6rn+kietzmann,kietzmann","S2CellId":"80d9535400000000","result":7284,"accuracy":0.025281964,"title":"Friedensdemo+-+31.08.08+-+Istanbul+-+06","description":"Istanbul+%28T%C3%BCrkei%29%2C+31.+August+2008%3A+An+einer+Friedensdemonstration+zu+dem+ein+breites+Demo-B%C3%BCndnis+mobilisiert+hatte+beteiligten+sich+einige+tausend+Menschen.+Die+Proteste+wurden+von+einem+immensen+Polizeiaufgebot+begleitet.+%0A%0A-+-+-%0A%0ADie+Fotos+sind+in+druckbarer+Qualit%C3%A4t+vorhanden.+Wenn+ihr+Fotos+von+mir+verwendet+teilt+mir+dies+bitte+mit.+Bitte+gebt+als+Bild-Quelle+%22Bj%C3%B6rn+Kietzmann%22+und+einen+Link+zu+meinem+Foto-Stream+an."}
{"id":8620346561,"url":"http://farm9.staticflickr.com/8266/8620346561_6948997164.jpg","path":"760/e6f/760e6f526abef14cef4ffd248e8dc9.jpg","date":"2013-04-05","year":2013,"month":4,"lon":29.01399,"lat":40.997868,"tags":"bird,birds,bo%C4%9Fazi%C3%A7i,bosphorus,earlybird,instagram+app,iphoneography,istanbul,ku%C5%9F,ku%C5%9Flar,mart%C4%B1,sea+gull,square,square+format,vapur","S2CellId":"4653ac0000000000","result":2875,"accuracy":0.025790885,"title":"295"}
{"id":4013108845,"url":"http://farm3.staticflickr.com/2665/4013108845_968a4be4c4.jpg","path":"357/a35/357a357a674297a49d3679ce3a91de1.jpg","date":"2009-10-12","year":2009,"month":10,"lon":29.055555,"lat":40.912224,"tags":"%CE%BA%CF%89%CE%BD%CF%83%CF%84%CE%B1%CE%BD%CF%84%CE%B9%CE%BD%CE%BF%CF%8D%CF%80%CE%BF%CE%BB%CE%B7,ada,adalar,byzantium,constantinople,deniz,gps,island,istanbul,k%C4%B1nal%C4%B1ada,kinaliada,sea,t%C3%B6r%C3%B6korsz%C3%A1g,t%C3%BCrkiye,turkey,walking+tour","S2CellId":"14cad00000000000","result":1322,"accuracy":0.37280712,"title":"K%C4%B1nal%C4%B1ada","description":"Photo+is+attached+to+GPSed+track+%3Ca+href%3D%22http%3A%2F%2Fgpsed.com%2Ftrack%2F7123222215565814239%22+rel%3D%22nofollow%22%3EIstanbul+Adalar+Tour%3C%2Fa%3E"}
{"id":2904249612,"url":"http://farm4.staticflickr.com/3235/2904249612_d6c5e177f5.jpg","path":"6ba/315/6ba315f34f1818f9dd97e68f32021.jpg","date":"2008-08-24","year":2008,"month":8,"lon":29.24552,"lat":40.660324,"tags":"%C3%A7%C4%B1narc%C4%B1k,ferry,honeymoon,roadtrip,summer,travel,turkey,vacation,yalova","S2CellId":"3e45c40000000000","result":2588,"accuracy":0.030830137,"title":"Cinarcik27","description":"Waiting+in+a+giant+line+of+cars+to+get+on+one+of+the+ferries+-+we+waited+so+long+the+sun+set+by+the+time+we+finally+got+onboard."}
{"id":4323212114,"url":"http://farm5.staticflickr.com/4056/4323212114_e3d08db512.jpg","path":"a24/e4c/a24e4cf2a17aead2257e8bbdf21f785.jpg","date":"2009-11-22","year":2009,"month":11,"lon":29.074722,"lat":40.18111,"tags":"animal,bursa,bursa+city,cat,cute,high+quality,in+focus,kedi,kitty,t%C3%B6r%C3%B6korsz%C3%A1g,t%C3%BCrkiye,turkey","S2CellId":"8838f00000000000","result":8333,"accuracy":0.007887696,"title":"Bursa+cats","description":"Bursa+cats"}
{"id":7797710888,"url":"http://farm8.staticflickr.com/7248/7797710888_5dd279af67.jpg","path":"80a/595/80a5957e64b6d67927fec5d5fbb9422.jpg","date":"2011-07-10","year":2011,"month":7,"lon":29.024763,"lat":40.98032,"tags":"moda","S2CellId":"12c9100000000000","result":838,"accuracy":0.20033084,"title":"2011-07-10+18-55-40+-+DSC_2094"}
{"id":10838510,"url":"http://farm1.staticflickr.com/5/10838510_84c47fc457.jpg","path":"56c/213/56c213387e9cb5de2a670c1ce027c9.jpg","date":"2005-04-25","year":2005,"month":4,"lon":29.354996,"lat":40.895008,"tags":"carting,luckyeye","S2CellId":"0d0cb00000000000","result":166,"accuracy":0.38808364,"title":"lecf+v2+%2330","description":"carting+%C3%B6ncesi+plan+a%C5%9Famas%C4%B1+%C3%A7ok+%C3%B6nemlidir+nerelerde+kaza+yap%C4%B1caz+hangi+%C3%A7imleri+ezicez+felan"}
{"id":2486728492,"url":"http://farm3.staticflickr.com/2269/2486728492_04efaa72c4.jpg","path":"7b2/478/7b2478f3f3c0eabe5067e2fd2571743d.jpg","date":"2008-05-01","year":2008,"month":5,"lon":29.047112,"lat":40.908764,"tags":"burgazada,istanbul,kirmizi+adalar,princes+islands","S2CellId":"548ff00000000000","result":6177,"accuracy":0.0486419,"title":"PICT6268"}
{"id":5406170770,"url":"http://farm6.staticflickr.com/5098/5406170770_04981f1742.jpg","path":"1eb/2a1/1eb2a11da34a3dc43260a39b7d5ea54c.jpg","date":"2009-05-01","year":2009,"month":5,"lon":29.102783,"lat":40.879776,"tags":"content,heybeliada,image,istanbul,photographs,photography,sail,sailing,sea+of+marmara,travel,turkey,wind,world+of+good,yacht","S2CellId":"12ced00000000000","result":893,"accuracy":0.04989025,"title":"Heybeliada","description":"Yacht+on+the+Sea+of+Marmara"}
{"id":4225070881,"url":"http://farm3.staticflickr.com/2792/4225070881_fedaea9397.jpg","path":"f04/b52/f04b5281f492823d27e175bfc69b942.jpg","date":"2009-12-27","year":2009,"month":12,"lon":29.131472,"lat":40.102833,"tags":"27dec2009,uluda%C4%9F","S2CellId":"809bc00000000000","result":7128,"accuracy":0.09451057,"title":"DSC09394"}
{"id":570598442,"url":"http://farm2.staticflickr.com/1220/570598442_eda3a256c8.jpg","path":"72b/3e6/72b3e6a96e148aafcc5b37bf799454.jpg","date":"2007-06-17","year":2007,"month":6,"lon":29.105314,"lat":40.133938,"tags":"bursa,turkey,uludag","S2CellId":"601d400000000000","result":6554,"accuracy":0.032486893,"title":"IMG_0538.JPG"}
{"id":4233880481,"url":"http://farm3.staticflickr.com/2680/4233880481_134fbba271.jpg","path":"5bb/7c7/5bb7c7807337698bc8cbefae9ef072d8.jpg","date":"2010-01-01","year":2010,"month":1,"lon":29.020138,"lat":40.996037,"tags":"istanbul,n86+8mp,station,train","S2CellId":"1304000000000000","result":955,"accuracy":0.039474662,"title":"01%2F01%2F2010"}
{"id":4140007238,"url":"http://farm3.staticflickr.com/2697/4140007238_9113b70809.jpg","path":"12c/e9b/12ce9bf99f55f321172e8ad88a4696.jpg","date":"2009-09-04","year":2009,"month":9,"lon":29.04974,"lat":40.91254,"tags":"food,istanbul,mushrooms,turkey","S2CellId":"89d5400000000000","result":9263,"accuracy":0.008414424,"title":"Mushrooms+and+Carrots+Stewed","description":"After+eating+Chinese+food+for+so+long+Turkish+food+is+a+bit+bland.++It%27s+nice%2C+wholesome+food%2C+but+rather+uninspired.++This+dish+is+just+mushrooms+and+carrots+stewed+together+with+very+little+else."}
{"id":2564986950,"url":"http://farm4.staticflickr.com/3116/2564986950_7f019a9ed1.jpg","path":"5f3/359/5f3359f373206b1accb21bb1c8d073eb.jpg","date":"2008-05-27","year":2008,"month":5,"lon":29.033518,"lat":40.991333,"tags":"bazaar,istanbul,kadikoy,turkey","S2CellId":"80d94c0000000000","result":7276,"accuracy":0.0508331}
{"id":5931288529,"url":"http://farm7.staticflickr.com/6017/5931288529_49ea224ce8.jpg","path":"6c5/5d4/6c55d42254e83a5ef7391e1bcd5227e.jpg","date":"2011-06-30","year":2011,"month":6,"lon":29.036,"lat":40.98683,"tags":"istanbul,tu%CC%88rkiye,turkey","S2CellId":"876bec4000000000","result":7871,"accuracy":0.019859444,"title":"Fenerium","description":"%3Ca+href%3D%22http%3A%2F%2Fmagaza.fenerium.com.tr%22+rel%3D%22nofollow%22%3Emagaza.fenerium.com.tr%3C%2Fa%3E"}
{"id":5931839744,"url":"http://farm7.staticflickr.com/6026/5931839744_91b2ed40f9.jpg","path":"4e5/622/4e5622d92db9238236fb82f03620ecf4.jpg","date":"2011-06-30","year":2011,"month":6,"lon":29.033833,"lat":40.987,"tags":"istanbul,tu%CC%88rkiye,turkey","S2CellId":"89e3300000000000","result":9307,"accuracy":0.11251052,"title":"Shit+River","description":"sketch%21"}
{"id":251700087,"url":"http://farm1.staticflickr.com/113/251700087_cd365f700b.jpg","path":"a1f/4f4/a1f4f4a2e0355d54d77d76bbf78cacc9.jpg","date":"2006-09-22","year":2006,"month":9,"lon":29.12613,"lat":40.869392,"tags":"%CF%84%CE%BF%CF%85%CF%81%CE%BA%CE%AF%CE%B1,%D7%AA%D7%95%D7%A8%D7%9B%D7%99%D7%94,%D8%AA%D8%B1%DA%A9%DB%8C%D9%87,ada,island,istanbul,t%C3%BCrkei,t%C3%BCrkiye,turkey,turkki,turqu%C3%ADa,turquie","S2CellId":"12b6700000000000","result":815,"accuracy":0.046596978,"title":"Beyazz"}
{"id":8124619020,"url":"http://farm9.staticflickr.com/8471/8124619020_2857dae99f.jpg","path":"f06/196/f0619615e6e39d7d2417b11b22e3941c.jpg","date":"2012-10-21","year":2012,"month":10,"lon":29.014833,"lat":40.997833,"tags":"iphone,iphoneography,istanbul","S2CellId":"14cab84000000000","result":1309,"accuracy":0.08624643,"title":"On+the+ferry+from+Emin%C3%B6n%C3%BC"}
{"id":5955372812,"url":"http://farm7.staticflickr.com/6136/5955372812_8c59fdf72f.jpg","path":"5ae/c36/5aec36eead346235ccdbb5d041f4816.jpg","date":"2011-07-16","year":2011,"month":7,"lon":29.350433,"lat":40.7912,"tags":"child,d90,efe,efe+orus,kids,nikon,nikon+d90,nikon+dslr,orus,portrait","S2CellId":"89ca400000000000","result":9212,"accuracy":0.1271105,"title":"coast+guard","description":"around+the+beach+with+my+walking+stick."}
{"id":5701457232,"url":"http://farm6.staticflickr.com/5063/5701457232_d6ecea7e68.jpg","path":"fe9/381/fe9381846d3bb363e5895fa6710bb46.jpg","date":"2011-05-09","year":2011,"month":5,"lon":29.407352,"lat":40.95501,"tags":"2011+formula+1+dhl+turkish+grand+prix,formula+1","S2CellId":"4741cc0000000000","result":3268,"accuracy":0.07821787,"title":"2011+Formula+1+DHL+Turkish+Grand+Prix","description":"2011+Formula+1+DHL+Turkish+Grand+Prix+in+Istanbul"}
{"id":7797327008,"url":"http://farm9.staticflickr.com/8283/7797327008_4bfdc91637.jpg","path":"4aa/6a6/4aa6a6108e3d828b3a617b4447778f.jpg","date":"2011-07-10","year":2011,"month":7,"lon":29.024763,"lat":40.98032,"tags":"moda","S2CellId":"4783100000000000","result":3548,"accuracy":0.018409306,"title":"2011-07-10+19-37-45+-+DSC_2159"}
{"id":2719980422,"url":"http://farm4.staticflickr.com/3169/2719980422_1b40f6e1a4.jpg","path":"69b/b1e/69bb1ec64c81a519c1dc79d1d67b81d1.jpg","date":"2007-03-15","year":2007,"month":3,"lon":29.048882,"lat":40.989357,"tags":"%C3%BCsk%C3%BCdar,2007,anatolien,asian,asiat,asien,bahnhof,bild,bosporus,byzantion,byzanz,cc,creative+commons,cumhuriyeti,europa,flickr,foto,fr%C3%BChling,free,hauptbahnhof,haydarpasa,high+resolution,image,istambul,istanbul,istasyonu,jugendstil,konstantinopel,kostantiniyye,m%C3%A4rz,metropole,orient,orient-express,photo,picture,scutari,stambul,station,stockphoto,t%C3%BCrkei,t%C3%BCrkiye,t.c.,train","S2CellId":"85d1f94000000000","result":7469,"accuracy":0.012670295,"title":"2007-03-11+03-17+Istanbul+336+Bahnhof+Haydarpasa+Istasyonu"}
{"id":2216618600,"url":"http://farm3.staticflickr.com/2275/2216618600_94ca2bfc93.jpg","path":"73f/0d8/73f0d81d3e4c4bf9acc0e8ea6bb4a61d.jpg","date":"2005-10-09","year":2005,"month":10,"lon":29.728146,"lat":40.432316,"tags":"archer10,church,dennis,dennis+g.+jarvis,dennis+jarvis,free,i+am+canadian,iznik,minaret,mosque,sites,st.+sophia+cathedral,tour,turkey,world+travels","S2CellId":"8589400000000000","result":7437,"accuracy":0.13087358,"title":"Turkey-1325","description":"Minaret+at+St.+Sophia+Cathedral%2C+Iznik%2C+Turkey"}
{"id":4080956341,"url":"http://farm3.staticflickr.com/2574/4080956341_4acf96879e.jpg","path":"eaa/4a8/eaa4a8aa29021a6723736e7ebbc80d8.jpg","date":"2009-11-06","year":2009,"month":11,"lon":29.120367,"lat":40.857346,"tags":"06nov2009,b%C3%BCy%C3%BCkada","S2CellId":"12a46c0000000000","result":690,"accuracy":0.005612804,"title":"DSC06672"}
{"id":5363533564,"url":"http://farm6.staticflickr.com/5241/5363533564_7c06e20d4d.jpg","path":"b8b/5b1/b8b5b1eaf868fdd74a2eb64b77a13d31.jpg","date":"2011-01-17","year":2011,"month":1,"lon":29.028519,"lat":40.98738,"tags":"arche,blackandwhite,bw,istanbul,magasin,michel+marienfeldt,nikon+d90,noiretblanc,rue,telomi","S2CellId":"54906ab500000000","result":6213,"accuracy":0.03793764,"title":"Mango","description":"Autre+regard+sur+%C4%B0stanbul"}
{"id":6907404790,"url":"http://farm6.staticflickr.com/5232/6907404790_dfbf99a0b2.jpg","path":"81a/690/81a6909ee071d8bd5d67e8b720744.jpg","date":"2012-04-07","year":2012,"month":4,"lon":29.03504,"lat":40.967968,"tags":"hefe,instagram+app,iphoneography,square,square+format","S2CellId":"5488c00000000000","result":6153,"accuracy":0.0037146828,"title":"%C5%9F%C3%B6yle+bi+keyif+yapamad%C4%B1k..."}
{"id":4326393848,"url":"http://farm5.staticflickr.com/4067/4326393848_f0c2916d7a.jpg","path":"40f/4ae/40f4ae5ce75e4dac4af857fe9559ec21.jpg","date":"2009-11-22","year":2009,"month":11,"lon":29.04139,"lat":40.218334,"tags":"botanik+park,bursa,bursa+city,i%CC%87skender+efendi+kona%C4%9F%C4%B1nda+ak%C5%9Fam,in+focus,iskender+efendi,iskender+efendi+konaginda+aksam,iskender+kebab,kebab,kebab%C3%A7%C4%B1,kebab%C3%A7i,kebabci,medium+quality,t%C3%B6r%C3%B6korsz%C3%A1g,t%C3%BCrkiye,too+dark,turkey,yavuz+i%CC%87skendero%C4%9Flu,yavuz+iskemderoglu,yavuz+iskenderoglu","S2CellId":"0dafee5000000000","result":627,"accuracy":0.30765146,"title":"%C4%B0skender+Efendi+Kona%C4%9F%C4%B1nda+Ak%C5%9Fam","description":"%C4%B0skender+Efendi+Kona%C4%9F%C4%B1nda+Ak%C5%9Fam"}
{"id":4014033208,"url":"http://farm3.staticflickr.com/2514/4014033208_23bb189de6.jpg","path":"a1b/c15/a1bc15f9dbaf7c1f161daa4448e59ac.jpg","date":"2009-10-12","year":2009,"month":10,"lon":29.126944,"lat":40.872776,"tags":"%CE%BA%CF%89%CE%BD%CF%83%CF%84%CE%B1%CE%BD%CF%84%CE%B9%CE%BD%CE%BF%CF%8D%CF%80%CE%BF%CE%BB%CE%B7,ada,adalar,b%C3%BCy%C3%BCkada,byzantium,constantinople,gps,island,istanbul,t%C3%B6r%C3%B6korsz%C3%A1g,t%C3%BCrkiye,turkey,walking+tour,woodhouse","S2CellId":"4d35000000000000","result":5946,"accuracy":0.025410281,"title":"Traditional+Istanbul+Island+historical+wood-house.","description":"Photo+is+attached+to+GPSed+track+%3Ca+href%3D%22http%3A%2F%2Fgpsed.com%2Ftrack%2F7123222215565814239%22+rel%3D%22nofollow%22%3EIstanbul+Adalar+Tour%3C%2Fa%3E"}
{"id":5892210092,"url":"http://farm6.staticflickr.com/5064/5892210092_e813071a73.jpg","path":"6a5/3eb/6a53eba18e317281cce357941158fefd.jpg","date":"2011-06-09","year":2011,"month":6,"lon":29.022875,"lat":40.991947,"tags":"istanbul","S2CellId":"14cab84000000000","result":1309,"accuracy":0.28718728,"title":"Vapur","description":"Istanbul+2011"}
{"id":12226480346,"url":"http://farm4.staticflickr.com/3822/12226480346_dd12f77d1c.jpg","path":"fb0/cbe/fb0cbe5e78666271316f6f62bc0a0.jpg","date":"2014-01-25","year":2014,"month":1,"lon":29.11348,"lat":40.86098,"tags":"50mm,b%C3%BCy%C3%BCkada,canon+60d,canon+ef+50mm+f%2F1.8+ii","S2CellId":"6b9c000000000000","result":6776,"accuracy":0.046012376,"title":"B%C3%BCy%C3%BCkada","description":"Canon+EF+50mm+f%2F1.8+II%2C+f%2F9"}
{"id":4175382991,"url":"http://farm5.staticflickr.com/4038/4175382991_7ce73974fd.jpg","path":"ada/330/ada3301cd2587ce2b5226e80f44f62.jpg","date":"2005-12-18","year":2005,"month":12,"lon":29.057816,"lat":40.185528,"tags":"bursa,religion,tomb,turkey","S2CellId":"14cab9bf00000000","result":1317,"accuracy":0.02801965,"title":"Muradiye+Tomb+in+Bursa","description":"%3Ca+href%3D%22http%3A%2F%2Firisturkey.blogspot.com%2F2005%2F12%2Fbursa-gn-2.html%22+rel%3D%22nofollow%22%3Eblogged%3C%2Fa%3E."}
{"id":12194440184,"url":"http://farm6.staticflickr.com/5538/12194440184_86978db3f6.jpg","path":"e14/3e4/e143e4c572fa55123660a66eb0571ba2.jpg","date":"2014-01-23","year":2014,"month":1,"lon":29.036968,"lat":40.979828,"tags":"canon+60d,canon+ef+50mm+f%2F1.8+ii,istanbul","S2CellId":"1299500000000000","result":669,"accuracy":0.050732683,"title":"Sea+of+Marmara","description":"Canon+EF+50mm+f%2F1.8+II%2C+f%2F7.1"}
{"id":8059135707,"url":"http://farm9.staticflickr.com/8318/8059135707_7214f4a18c.jpg","path":"e0c/29c/e0c29c3c9bba97a1b74b1566091176.jpg","date":"2012-10-06","year":2012,"month":10,"lon":29.07727,"lat":40.972202,"tags":"brannan,instagram+app,iphoneography,square,square+format","S2CellId":"89d4d40000000000","result":9260,"accuracy":0.022992263,"title":"Wild"}
{"id":2170803183,"url":"http://farm3.staticflickr.com/2285/2170803183_5aa171fcec.jpg","path":"e0b/5d7/e0b5d7bdc0fcaaf7e1901898ead020af.jpg","date":"2007-12-28","year":2007,"month":12,"lon":29.062422,"lat":40.195477,"tags":"a+walk+around+bursa,bursa,bursa+in+december,bursa+in+winter,december+in+bursa,karagoz,karagoz+museum,karagoz+muzesi,la+turquie,museum,t%C3%BCrkiye,turchia,turk,turkey,turkije,turkish,turkiye,turquie,winter+in+bursa,wintertime,wintertime+in+bursa","S2CellId":"89c8049000000000","result":9190,"accuracy":0.0068705827,"title":"Karag%C3%B6z+Muzesi+in+Bursa"}
{"id":8555845478,"url":"http://farm9.staticflickr.com/8521/8555845478_ea39208b46.jpg","path":"ca3/6da/ca36da60ffa53df141e233857d5f5368.jpg","date":"2013-03-13","year":2013,"month":3,"lon":29.007454,"lat":40.992336,"tags":"bird,bosphorus,istanbul,seagull,turkey","S2CellId":"14cab84000000000","result":1309,"accuracy":0.22279683,"description":"A+Seagull+going+after+a+piece+of+bread+thrown+by+a+passenger+on+the+ferry+to+Kad%C4%B1k%C3%B6y."}
{"id":2565041870,"url":"http://farm4.staticflickr.com/3125/2565041870_1ed27e08fd.jpg","path":"f11/58d/f1158da144c2efdeb8e3df7fe5823152.jpg","date":"2008-05-27","year":2008,"month":5,"lon":29.033518,"lat":40.991333,"tags":"bazaar,fruits,istanbul,kadikoy,lemons,turkey","S2CellId":"876bec4000000000","result":7871,"accuracy":0.07075898}
{"id":2193790926,"url":"http://farm3.staticflickr.com/2229/2193790926_753abee38a.jpg","path":"943/0c7/9430c7f4885f5b271d9b27a5dd1a8b12.jpg","date":"2007-10-27","year":2007,"month":10,"lon":29.0495,"lat":40.9764,"tags":"2007,bagdat+caddesi,istanbul,kadikoy,multimap,october,turkey,work","S2CellId":"48670e8400000000","result":4889,"accuracy":0.04962253,"title":"shoppers"}
{"id":5700923593,"url":"http://farm4.staticflickr.com/3436/5700923593_6a870b9c54.jpg","path":"96e/28c/96e28c2ee63ec6872ca8519543c1a9d1.jpg","date":"2011-05-08","year":2011,"month":5,"lon":29.407352,"lat":40.95501,"tags":"2011+formula+1+dhl+turkish+grand+prix,formula+1","S2CellId":"8644b10000000000","result":7571,"accuracy":0.12107576,"title":"2011+Formula+1+DHL+Turkish+Grand+Prix","description":"2011+Formula+1+DHL+Turkish+Grand+Prix+in+Istanbul"}
{"id":4932588732,"url":"http://farm5.staticflickr.com/4134/4932588732_16aa526c29.jpg","path":"d24/d85/d24d85f1041c1a849bba0f430e6df.jpg","date":"2010-08-22","year":2010,"month":8,"lon":29.011803,"lat":40.986897,"tags":"%CE%BA%CF%89%CE%BD%CF%83%CF%84%CE%B1%CE%BD%CF%84%CE%B9%CE%BD%CE%BF%CF%8D%CF%80%CE%BF%CE%BB%CE%B7,%D1%81%D1%82%D0%B0%D0%BC%D0%B1%D1%83%D0%BB,%D1%82%D1%83%D1%80%D0%B5%D1%87%D1%87%D0%B8%D0%BD%D0%B0,%D1%82%D1%83%D1%80%D1%86%D0%B8%D1%8F,%D1%82%D1%83%D1%80%D1%86%D1%8B%D1%8F,%D7%90%D7%99%D7%A1%D7%98%D7%A0%D7%91%D7%95%D7%9C,%D8%A5%D8%B3%D8%B7%D9%86%D8%A8%D9%88%D9%84,%D8%AA%D8%B1%D9%83%D9%8A%D8%A7,%E3%82%A4%E3%82%B9%E3%82%BF%E3%83%B3%E3%83%96%E3%83%AB,%E3%83%88%E3%83%AB%E3%82%B3,%E4%BC%8A%E6%96%AF%E5%9D%A6%E5%A0%A1,%E5%9C%9F%E8%80%B3%E5%85%B6,clouds,contre-jour,estambul,evening,horizon,istambul,istanboel,istanbul,istanbulo,isztambul,light,photo,photography,reflection,sea,silhouette,silk+road,sky,stambula,stambulas,summer,sun,t%C3%BCrkei,travel,trip,turchia,turkey,turqu%C3%ADa,turquia,turquie,turska,tyrkiet,vacation,voyageanatolia,water","S2CellId":"47d8d90000000000","result":4460,"accuracy":0.061128285,"title":"Sunset+over+Marmara+Sea%2C+Istanbul","description":"%3Cb%3ESee+more+at+%3Ca+href%3D%22http%3A%2F%2Fistanbul-backpacker.blogspot.com%22+rel%3D%22nofollow%22%3Eistanbul-backpacker.blogspot.com%3C%2Fa%3E%3C%2Fb%3E"}
{"id":4225790260,"url":"http://farm5.staticflickr.com/4008/4225790260_75e547f80d.jpg","path":"419/53b/41953bf431794f9170472740ecc390a1.jpg","date":"2009-12-26","year":2009,"month":12,"lon":29.066477,"lat":40.182392,"tags":"26dec2009","S2CellId":"89c2588f00000000","result":8969,"accuracy":0.0041337805,"title":"DSC09192"}
{"id":12194279543,"url":"http://farm8.staticflickr.com/7302/12194279543_b08ac7c36a.jpg","path":"55a/651/55a65143caf1201f485c161dbcf99aa.jpg","date":"2014-01-23","year":2014,"month":1,"lon":29.038246,"lat":40.978718,"tags":"85mm,canon+60d,canon+85mm+f%2F1.8+usm,dogs,istanbul","S2CellId":"1297930000000000","result":659,"accuracy":0.0352911,"title":"Kalam%C4%B1%C5%9F+park%C4%B1","description":"Canon+85mm+f%2F1.8+USM%2C+f%2F7.1"}
{"id":432193540,"url":"http://farm1.staticflickr.com/159/432193540_1a048007d9.jpg","path":"a09/048/a09048882b96465c33bee20b5da91ab.jpg","date":"2006-10-29","year":2006,"month":10,"lon":29.12583,"lat":40.87406,"tags":"birds,buyukada,sea,turkey","S2CellId":"8810c00000000000","result":8173,"accuracy":0.015135323,"title":"2006-10-330"}
{"id":3257768715,"url":"http://farm4.staticflickr.com/3490/3257768715_a6b7bc8376.jpg","path":"871/c14/871c1493bfe358afe610e0bb3669619e.jpg","date":"2009-02-06","year":2009,"month":2,"lon":29.02007,"lat":40.996212,"tags":"202,35mm,analog,asia,boats,branch,colorful,colour,horizon,istanboul,istanbul,panoramic,photography,river,turkey,winter","S2CellId":"12ba700000000000","result":822,"accuracy":0.07656524,"title":"Asia","description":"istanbul%2C+turkey%2C+winter+2008%2F2009"}
