{"id":6775276741,"url":"http://farm8.staticflickr.com/7013/6775276741_2968d27c76.jpg","path":"85e/e9b/85ee9b10cc10e9a87af1c87fc7fbda98.jpg","date":"2011-02-23","year":2011,"month":2,"lon":-61.40911,"lat":5.988801,"tags":"2011,bird,eastern+venezuela+2011,heliomaster,heliomaster+longirostris,hummingbird,long-billed+starthroat,longirostris","S2CellId":"88d0a631cabb5071","result":8563,"accuracy":0.012573601,"title":"086299-IMG_1905+Long-billed+Starthroat+%28Heliomaster+longirostris%29"}
{"id":6775265423,"url":"http://farm8.staticflickr.com/7013/6775265423_a8b09e03a9.jpg","path":"134/a51/134a5152f0b5c25e4fb09e3a99c79d61.jpg","date":"2011-02-22","year":2011,"month":2,"lon":-61.40911,"lat":5.988801,"tags":"2011,choloepus,choloepus+didactylus,didactylus,eastern+venezuela+2011,sloth,southern+two-toed+sloth,two-toed+sloth","S2CellId":"4879440000000000","result":5477,"accuracy":0.032212023,"title":"IMG_1848+Southern+Two-toed+Sloth+%28Choloepus+didactylus%29"}
{"id":4007984103,"url":"http://farm3.staticflickr.com/2432/4007984103_61178a3c4a.jpg","path":"3e6/5ea/3e65eabef9efa6ec443bf196192acec7.jpg","date":"2009-09-22","year":2009,"month":9,"lon":-60.846493,"lat":5.107232,"tags":"roraima,trekking,venezuela,view","S2CellId":"21f0000000000000","result":1489,"accuracy":0.075351216,"title":"Breakfast..."}
{"id":5649498903,"url":"http://farm6.staticflickr.com/5064/5649498903_5e0d4f97aa.jpg","path":"6f6/e25/6f6e25faf83d30ccb6a8a50bc1878d2.jpg","date":"2011-03-30","year":2011,"month":3,"lon":-61.18286,"lat":5.182767,"tags":"america+del+sur,ameryka+poludniowa,blekit,blue,estado+bolivar,gran+sabana,nature,niebo,region+gran+sabana,sky,south+america,suramerica,venezuela,wenezuela","S2CellId":"487db00000000000","result":5631,"accuracy":0.074522,"title":"Gran+Sabana"}
{"id":4008768146,"url":"http://farm3.staticflickr.com/2564/4008768146_8ca3809f00.jpg","path":"fbc/eb3/fbceb314d98c53d3a5a6d4ffe48d1f.jpg","date":"2009-09-22","year":2009,"month":9,"lon":-60.83078,"lat":5.107952,"tags":"roraima,trekking,venezuela,view","S2CellId":"1ed0000000000000","result":1478,"accuracy":0.07071003,"title":"The+2nd+river+%28water+level+was+low%29+-+1"}
{"id":4007974271,"url":"http://farm3.staticflickr.com/2660/4007974271_e164d31140.jpg","path":"78d/e10/78de105cee472b37a6d56ccde6fe858.jpg","date":"2009-09-22","year":2009,"month":9,"lon":-60.846493,"lat":5.107232,"tags":"roraima,trekking,venezuela,view","S2CellId":"1c70000000000000","result":1446,"accuracy":0.040648524,"title":"Our+camp+and+Roraima+in+the+morning+-+2"}
{"id":5632630882,"url":"http://farm6.staticflickr.com/5144/5632630882_04f11547f0.jpg","path":"963/874/963874b5dd4d1e7958c5a8ab3e2fc.jpg","date":"2011-03-30","year":2011,"month":3,"lon":-61.100464,"lat":4.942011,"tags":"2011,blue,falls,gran+sabana,niebo,podroz,rock,rocks,salto,saro+wapo,ska%C5%82y,sky,trip,venezuela,water,water+falls,wenezuela,wodospad","S2CellId":"8dc0000000000000","result":9441,"accuracy":0.059158508,"title":"Gran+Sabana+%3A%3A+Saro+Wapo"}
{"id":11228364224,"url":"http://farm8.staticflickr.com/7371/11228364224_83cb151367.jpg","path":"ad6/387/ad63872b13d453e53d4727c64f7e1fa0.jpg","date":"2013-07-28","year":2013,"month":7,"lon":-62.53,"lat":5.967333,"tags":"angel,angel+falls,canaima,covered,falls,jungle,mist,mountain,shrouded,south+america,table+top,tepui,venezuela,waterfall","S2CellId":"8dc0000000000000","result":9441,"accuracy":0.1567605,"title":"Angel+Falls","description":"%C2%A9+Marc+Wisniak+2013%0Amarcwiz%40gmail.com"}
{"id":3987809139,"url":"http://farm4.staticflickr.com/3509/3987809139_553f608014.jpg","path":"28d/257/28d257cbc9fea1c3982a25de847c832.jpg","date":"2009-09-20","year":2009,"month":9,"lon":-61.0968,"lat":5.0556,"tags":"travel,venezuela","S2CellId":"47a9400000000000","result":3952,"accuracy":0.031332023,"title":"Lunch+in+San+Francisco+-+13","description":"Football+ground+at+the+center+of+the+San+Francisco+town%21"}
{"id":11228464625,"url":"http://farm4.staticflickr.com/3830/11228464625_e287f8a291.jpg","path":"3f5/237/3f5237dcfbafe211f29bfd27b1a70b4.jpg","date":"2013-07-31","year":2013,"month":7,"lon":-62.411167,"lat":5.711667,"tags":"bird,canaima,gran+sabana,macaw,south+america,venezuela,wildlife","S2CellId":"88de100000000000","result":8640,"accuracy":0.019283587,"description":"%C2%A9+Marc+Wisniak+2013%0Amarcwiz%40gmail.com"}
{"id":3338802505,"url":"http://farm4.staticflickr.com/3380/3338802505_8222d86802.jpg","path":"921/bb3/921bb382dcbd28466ccc72c76bea9c0.jpg","date":"2009-02-19","year":2009,"month":2,"lon":-61.21977,"lat":5.417781,"tags":"2009,la+gran+sabana,venezuela","S2CellId":"182d000000000000","result":1421,"accuracy":0.25127584,"title":"Ven09_Clux_0275a","description":"La+Gran+Sabana%2C+Venezuela%2C+090219."}
{"id":4174089282,"url":"http://farm3.staticflickr.com/2548/4174089282_745f0365b1.jpg","path":"63e/59a/63e59a71963a29d8292bf99b1d9aa.jpg","date":"2009-08-10","year":2009,"month":8,"lon":-61.52606,"lat":4.528993,"tags":"raw","S2CellId":"69c0000000000000","result":6585,"accuracy":0.019644203,"title":"DSCN2058"}
{"id":3053426244,"url":"http://farm4.staticflickr.com/3136/3053426244_cb23c85d57.jpg","path":"fcd/ce6/fcdce68902be7ad7aae9ab1a0256019.jpg","date":"2008-09-30","year":2008,"month":9,"lon":-60.951805,"lat":5.052557,"tags":"kukenan,landscape,monta%C3%B1a,mountain,naturaleza,nature,paisaje,roraima,tepuy,travel,venezuela,viaje","S2CellId":"1ef4000000000000","result":1481,"accuracy":0.46482524,"title":"The+fortress","description":"Six+days+hike+to+Roraima%3A+Kukenan+Tepuy+-+Seis+d%C3%ADas+caminando+hacia+Roraima%3A+el+tepuy+Kukenan"}
{"id":11228443715,"url":"http://farm4.staticflickr.com/3805/11228443715_148975c916.jpg","path":"5d5/e9d/5d5e9d9dbdaf1811feb401c80e4fb9e.jpg","date":"2013-07-30","year":2013,"month":7,"lon":-62.446167,"lat":5.682167,"tags":"boat,canaima,canoe,dugout,gran+sabana,local,river,south+america,transport,venezuela","S2CellId":"8dc0000000000000","result":9441,"accuracy":0.08066078,"description":"%C2%A9+Marc+Wisniak+2013%0Amarcwiz%40gmail.com"}
{"id":5631837491,"url":"http://farm6.staticflickr.com/5027/5631837491_1395b0ec58.jpg","path":"6aa/573/6aa573a4ccda942f594fc4c9f998d.jpg","date":"2011-03-30","year":2011,"month":3,"lon":-60.48523,"lat":4.421903,"tags":"falls,gran+sabana,jasper+creek,kako+paru,podroz,quebrade+de+jaspe,rio,rio+kukenan,rzeka,salto,trip,venezuela,water,water+falls,wenezuela,wodospad","S2CellId":"69c0000000000000","result":6585,"accuracy":0.026238455,"title":"Gran+Sabana+%3A%3A+Kako+Paru"}
