{"id":336661986,"url":"http://farm1.staticflickr.com/131/336661986_7a9db426ed.jpg","path":"385/af9/385af92265a5f7ce335e7113aa6f3cc3.jpg","date":"2006-12-28","year":2006,"month":12,"lon":-17.530918,"lat":14.748489,"tags":"almadies,dakar,e300,evolt300,olympus,phare+des+mamelles,pointe+des+almadies,senegal,sunset,west+africa,zd","S2CellId":"4816f00000000000","result":4802,"accuracy":0.15247373,"title":"PC181768","description":"Sunset+at+Pointe+des+Almadies%2C+the+most+westerly+point+on++continental+Africa+--++that+little+spur+belonging+to+the+Cap+Vert+peninsula+that+even+the+crudest+maps+show+jutting+out+into+the+Atlantic."}
{"id":5728185364,"url":"http://farm4.staticflickr.com/3474/5728185364_07fe94d76f.jpg","path":"aae/f50/aaef50a9509f7a3fb02d3b6a2a39784.jpg","date":"2011-05-15","year":2011,"month":5,"lon":-17.457975,"lat":14.76321,"tags":"africa,afrique,autokap,beach,cabana,dakar,kap,kite+aerial+photography,se%CC%81ne%CC%81gal,senegal,west+africa","S2CellId":"80c7000000000000","result":7223,"accuracy":0.052005567,"title":"caban%CC%83a","description":"Image+was+captured+by+a+camera+suspended+by+a+kite+line.+Kite+Aerial+Photography+%28KAP%29+7%27+Rok"}
{"id":99565792,"url":"http://farm1.staticflickr.com/36/99565792_8a25ba7bd0.jpg","path":"3d5/c6c/3d5c6c13d55fbc7023d364c8ebcebd28.jpg","date":"2005-12-27","year":2005,"month":12,"lon":-17.358398,"lat":14.902321,"tags":"africa,popenguine,senegal","S2CellId":"472c000000000000","result":3253,"accuracy":0.008214921}
{"id":2448703372,"url":"http://farm3.staticflickr.com/2217/2448703372_a906b938b6.jpg","path":"74e/791/74e791fc99a69632c18256eb11e659.jpg","date":"2008-04-28","year":2008,"month":4,"lon":-17.62207,"lat":14.796127,"tags":"ae1,africa,baobab,canon,ocean,pluca,program,senegal,travel","S2CellId":"1844000000000000","result":1428,"accuracy":0.047952387,"title":"SE+96+Strade+di+Goree","description":"Senegal%2C+1996"}
{"id":6084498573,"url":"http://farm7.staticflickr.com/6085/6084498573_a3beea89fc.jpg","path":"c59/36a/c5936a6db2a0cef68583c2d18bed3f6.jpg","date":"2004-08-28","year":2004,"month":8,"lon":-17.008724,"lat":14.438191,"tags":"%E2%80%9Clangue,%E2%80%9Cst.,africa,aw%C3%A8l%C3%A8,baobab,barbarie%E2%80%9D,casamance,dakar,de,fromager,louis%E2%80%9D,mango,marabout,oceano,pescatori,sali,savana,senegal,tabaski,traghetto,villaggio,wour%C3%A8,yoff","S2CellId":"8900400000000000","result":8768,"accuracy":0.0323472,"title":"DSC00500","description":"Pescatori+-+Sali"}
{"id":3985323648,"url":"http://farm3.staticflickr.com/2424/3985323648_ca3e937997.jpg","path":"a03/4a3/a034a39a80d917a12fca47d635b555b4.jpg","date":"2009-09-24","year":2009,"month":9,"lon":-17.481018,"lat":14.764186,"tags":"africa%2C,cooperacion%2C,cooperation,senegal%2C","S2CellId":"8f2c000000000000","result":9511,"accuracy":0.105538405,"title":"Ni%C3%B1os+de+Yoff"}
{"id":8085840611,"url":"http://farm9.staticflickr.com/8193/8085840611_0402847104.jpg","path":"dd7/1c5/dd71c59a4139b84fa7a3e69186b4cdc6.jpg","date":"2012-10-11","year":2012,"month":10,"lon":-17.466763,"lat":14.752763,"tags":"%E2%80%9Ccamion,%E2%80%9Ccarpa,%E2%80%9Ccucina,%E2%80%9Clangue,%E2%80%9Cst.,%E2%80%9Cthiebou,africa,anacardio,aw%C3%A8l%C3%A8,bambilor,baobab,barbarie%E2%80%9D,barracuda,batik,bogolan,camion,carasol,casamance,dakar,de,demoiselle,dien%E2%80%9D,frigo%E2%80%9D,fromager,gamou,louis%E2%80%9D,mango,maouloud,marabout,oceano,pastori,persone,pescatori,pesci,pompano,rouge%E2%80%9D,sali,savana,senegal,senegalese%E2%80%9D,tabaski,toj%C3%A9,traghetto,villaggio,wour%C3%A8,yawal,yene,yoff,zeb%C3%B9","S2CellId":"1304000000000000","result":955,"accuracy":0.049981385,"title":"Trova+l%27errore"}
{"id":3687603881,"url":"http://farm4.staticflickr.com/3647/3687603881_72a37f8fc9.jpg","path":"842/fdd/842fdd76ec8990d49bf898529b38b727.jpg","date":"2008-11-02","year":2008,"month":11,"lon":-17.487488,"lat":14.728921,"tags":"dakar,senegal,technology","S2CellId":"16c0000000000000","result":1414,"accuracy":0.11272383,"title":"2008-11-02+at+15-00-25+-+Version+2","description":"Internet+Advertisement.+Photo+by+Emily+Jacobi+%2F+New+Words+Media."}
{"id":8399771208,"url":"http://farm9.staticflickr.com/8506/8399771208_c7db31cc10.jpg","path":"424/3ef/4243ef56866f333ee87f5296ce95e50.jpg","date":"2012-03-19","year":2012,"month":3,"lon":-17.398567,"lat":14.667712,"tags":"africa,afrique,beach,dakar,esclave,gor%C3%A9e,goree+island,ile,plage,s%C3%A9n%C3%A9gal,sable,slave,soleil","S2CellId":"1453000000000000","result":1198,"accuracy":0.39928025,"title":"Embarcad%C3%A8re"}
{"id":2357112441,"url":"http://farm3.staticflickr.com/2361/2357112441_96da3e1a8f.jpg","path":"56a/974/56a97455f17aa69bd7f8d7b93452319c.jpg","date":"2008-03-16","year":2008,"month":3,"lon":-17.485428,"lat":14.731306,"tags":"dakar,senegal","S2CellId":"0ed0000000000000","result":640,"accuracy":0.09263736,"title":"UCAD+II"}
{"id":5606787594,"url":"http://farm5.staticflickr.com/4105/5606787594_6d8537fbc0.jpg","path":"73a/98d/73a98d67697fadbd72f81fce022b3db.jpg","date":"2011-04-10","year":2011,"month":4,"lon":-17.471867,"lat":14.684816,"tags":"dakar,mondoblog","S2CellId":"0d19331000000000","result":217,"accuracy":0.021064667,"title":"Photo+CESTI"}
{"id":2544154660,"url":"http://farm4.staticflickr.com/3143/2544154660_a83e5e5c10.jpg","path":"f4e/ff1/f4eff16f25bd7c8924affe986bd9cce.jpg","date":"2007-01-01","year":2007,"month":1,"lon":-17.47839,"lat":14.721293,"tags":"abdoulaye,afp,ali,almadie,amadou,amidou,aminata,assises,bamba,bara,barthelemy,bathily,castro,cheikh,chekh,dakar,diagne,diallo,diaz,dieng,dieye,diop,diouf,el,farba,front,haidar,hotel,jef,jel,kama,kane,karim,lamine,loum,mactar,madani,madior,makhtar,malick,mamadou,mansour,mbaye,mbengue,mbodj,mboji,mbow,meridien,mouhamadou,moustapha,nationales,ndiaye,niasse,opposition,ousmane,penda,polique,president,ps,rnd,seck,senactu,senegal,senegalaise,senghor,serigne,seydou,siggil,sy,sylla,tall,talla,tanor,thiam,wade","S2CellId":"1030000000000000","result":645,"accuracy":0.096955255,"title":"Assises+Nationales+du+front+siggil+senegal+et+de+l%27opposition","description":"photo+by+serignediagne%40gmail.com"}
{"id":336715570,"url":"http://farm1.staticflickr.com/134/336715570_3fc8b6783b.jpg","path":"c4b/d63/c4bd63b807945b424b25e305b924344.jpg","date":"2006-12-28","year":2006,"month":12,"lon":-17.467232,"lat":14.715285,"tags":"africa,dakar,e300,evolt300,insect,long-jawed++orb++weaver,nephila,olympus,senegal,spider,tetragnathidae,west++africa,zd","S2CellId":"94f7000000000000","result":9773,"accuracy":0.013170831,"title":"Long-jawed+Orb+Weaver+%28Nephila+senegalensis%29","description":"Long-jawed+Orb+Weaver+%28Nephila+senegalensis%29.++Dakar%2C+Senegal"}
{"id":5606808364,"url":"http://farm5.staticflickr.com/4105/5606808364_99ba9b8813.jpg","path":"a7a/2e6/a7a2e620c1e4d27725148ccef17f833d.jpg","date":"2011-04-10","year":2011,"month":4,"lon":-17.445602,"lat":14.754382,"tags":"dakar,mondoblog","S2CellId":"0fc0000000000000","result":643,"accuracy":0.17568806,"title":"Mondoblog%40Dakar+381"}
{"id":2422562967,"url":"http://farm4.staticflickr.com/3198/2422562967_42f3c432f8.jpg","path":"21d/5be/21d5bea7520be8811af3c6ca2764083.jpg","date":"2008-03-04","year":2008,"month":3,"lon":-17.008165,"lat":14.559333,"tags":"%28crocodylus,animal%2Fafrican,animal%2Fafrican+animal%2Fnile+crocodile+%28crocodylus+niloticus%29,animal%2Fnile,crocodile,gallery2flickr,niloticus%29%3B,place%2Fcontinent%2Fafrica%3B,place%2Fcountry%2Fsenegal%2Fbandia,place%2Fcountry%2Fsenegal%3B,senegal","S2CellId":"88fb990000000000","result":8747,"accuracy":0.12851022,"title":"La+Petite+Cote+en+tandem+avec+Pauline"}
{"id":336715013,"url":"http://farm1.staticflickr.com/137/336715013_3ffc29275a.jpg","path":"60c/692/60c692803df121584099384533841a4b.jpg","date":"2006-12-28","year":2006,"month":12,"lon":-17.467232,"lat":14.715285,"tags":"africa,dakar,e300,evolt300,insect,long-jawed++orb++weaver,nephila,olympus,senegal,spider,tetragnathidae,west++africa,zd","S2CellId":"88d0a631cabb5071","result":8563,"accuracy":0.13419044,"title":"Long-jawed+Orb+Weaver+%28Nephila+senegalensis%29","description":"Long-jawed+Orb+Weaver+%28Nephila+senegalensis%29.++Dakar%2C+Senegal"}
{"id":2422536597,"url":"http://farm3.staticflickr.com/2110/2422536597_c86e134e97.jpg","path":"3b7/3b7/3b73b7b74599e86965459d802bafe05c.jpg","date":"2008-02-28","year":2008,"month":2,"lon":-17.062666,"lat":14.524666,"tags":"gallery2flickr,light%2Fshade%3B,people%2Fkid%3B,people%2Fpauline%3B,place%2Fcontinent%2Fafrica%3B,place%2Fcountry%2Fsenegal%2Frhazabe%3B,place%2Fcountry%2Fsenegal%3B,senegal,sport%2Fcycling%3B,trailer,transport%2Fbicycle%3B,transport%2Ffun,transport%2Ffun+trailer,transport%2Ftandem%3B","S2CellId":"0ef0000000000000","result":641,"accuracy":0.20139076,"title":"La+Petite+Cote+en+tandem+avec+Pauline"}
{"id":8917373853,"url":"http://farm4.staticflickr.com/3691/8917373853_15559ee888.jpg","path":"15e/326/15e32646932e44535829e2df6dea93e.jpg","date":"2013-05-24","year":2013,"month":5,"lon":-17.453611,"lat":14.685,"tags":"africa,bicycle,dakar,day202,freewheely.com,repair,senegal","S2CellId":"47f4d00000000000","result":4716,"accuracy":0.09320537,"title":"20130524-IMG_2352"}
{"id":351734789,"url":"http://farm1.staticflickr.com/160/351734789_46cf67b2ce.jpg","path":"0d3/bfd/0d3bfd513e1737f6513433eb982e7.jpg","date":"2007-01-09","year":2007,"month":1,"lon":-17.484999,"lat":14.707481,"tags":"50-200mm,africa,bird,birds,birds+of+senegal,birds+of+west+africa,birdsgs,birdwatching,corvus+albus,crow,dakar,e300,evolt300,faiza,nozooshots,olympus,pied+crow,senegal,senegambia,west+africa,wild,zd","S2CellId":"48760c4000000000","result":5277,"accuracy":0.0657624,"title":"Not+letting+the+water+go+to+waste","description":"Pied+crows.+++%28Corvus+albus%29.++A+common+sight+in+Dakar.++Noisy%2C+social%2C+fun+and+seeming+a+bit+of+the+prankster%2C+the+pied+crow++seems+to+have+little+problem+sharing+watering+holes+and+scavenging+areas+with+the+black+kite+%28milvus+migrans%29.++Wikipedia+entry%3A+%3Ca+href%3D%22http%3A%2F%2Fen.wikipedia.org%2Fwiki%2FPied_Crow%22%3EPied+Crow%3C%2Fa%3E."}
{"id":2570088079,"url":"http://farm4.staticflickr.com/3110/2570088079_aca8474a9c.jpg","path":"7af/9dc/7af9dcd9c25b6c43636ed0e78722b.jpg","date":"2008-06-02","year":2008,"month":6,"lon":-17.43187,"lat":14.762101,"tags":"camera,dakar,ghetto,hip+hop,interview,rodaje,senegal","S2CellId":"46524c0000000000","result":2849,"accuracy":0.02594487,"title":"DSC02579.JPG"}
{"id":360639120,"url":"http://farm1.staticflickr.com/164/360639120_2c8d3d5d28.jpg","path":"754/4c0/7544c02d30dc3e749a85f624ed096.jpg","date":"2007-01-17","year":2007,"month":1,"lon":-17.478046,"lat":14.721262,"tags":"50-200mm,africa,bird,birds,birds+of+senegal,birds+of+west+africa,birdsgs,birdwatching,e300,faiza,lagonosticta+senegala,nozooshots,red-billed+firefinch,senegal,senegambia,west+africa,wikipedia,wild","S2CellId":"2300000000000000","result":1490,"accuracy":0.01267129,"title":"Red-Billed+Firefinch+%28Lagonosticta+senegala%29","description":"Brightly+colored+male.++Not+crazy+about+this+pic+--+but+it%27s+a+small%2C+twichy+bird+defying+so+far+all+my+attempts+at+a+good+caputre.++++Added+to+%3Ca+href%3D%22http%3A%2F%2Fen.wikipedia.org%2Fwiki%2FRed-billed_Firefinch%22%3EWikipedia%3C%2Fa%3E+as+they++had+only+a+very+small+%28distant%29+image+of+the+male%3E"}
{"id":3985132956,"url":"http://farm3.staticflickr.com/2560/3985132956_0714d9cfb5.jpg","path":"9ed/e45/9ede45512658e369f816f6aea1b43f51.jpg","date":"2009-09-21","year":2009,"month":9,"lon":-17.481018,"lat":14.764186,"tags":"africa%2C,cooperacion%2C,cooperation,senegal%2C","S2CellId":"1740000000000000","result":1415,"accuracy":0.1492141,"title":"Ni%C3%B1os"}
{"id":8748943747,"url":"http://farm9.staticflickr.com/8262/8748943747_9439e8786a.jpg","path":"1ad/1f8/1ad1f85bd62318a31812757e33699df.jpg","date":"2013-05-13","year":2013,"month":5,"lon":-17.479763,"lat":14.765586,"tags":"africa,dakar,freewheely.com,senegal,yoff","S2CellId":"0ed0000000000000","result":640,"accuracy":0.37923414,"title":"20130513-DSC_8535"}
{"id":8748980031,"url":"http://farm4.staticflickr.com/3679/8748980031_8ef5f74099.jpg","path":"4a9/783/4a9783503dea15e591f8275c666d7772.jpg","date":"2013-05-13","year":2013,"month":5,"lon":-17.479763,"lat":14.765586,"tags":"africa,dakar,freewheely.com,senegal,yoff","S2CellId":"0dad000000000000","result":615,"accuracy":0.5573687,"title":"20130513-DSC_8546"}
{"id":2357907404,"url":"http://farm3.staticflickr.com/2169/2357907404_e8cfb85914.jpg","path":"9df/b2c/9dfb2c5b6c8567ced212d09a49d9e5e4.jpg","date":"2008-03-18","year":2008,"month":3,"lon":-17.485428,"lat":14.731306,"tags":"dakar,senegal","S2CellId":"144c000000000000","result":1197,"accuracy":0.14215767,"title":"ucad+entrance"}
{"id":336291419,"url":"http://farm1.staticflickr.com/125/336291419_f19a7c99e3.jpg","path":"bf8/1b1/bf81b1c85288478e9d58c31f351315b4.jpg","date":"2006-12-28","year":2006,"month":12,"lon":-17.472038,"lat":14.656585,"tags":"40-150mm,africa,bird,birds,birds+of+senegal,birds+of+west+africa,birdsgs,birdwatching,cormorant,dakar,e300,evolt300,great+cormorant,nozooshots,olympus,parc+national+des+iles+de+la+madeleine,phalacrocorax+carbo,phalacrocorax+carbo+lucidus,phalacrocorax+lucidus,point++fann,senegal,senegambia,subspecies+not+in+clements+5th,west++africa,wild,zd","S2CellId":"4881000000000000","result":5669,"accuracy":0.2044208,"title":"Phalacrocorax+carbo","description":"From+Parc+national+de+la+Madeleine%2C+Dakar%2C+Senegal.++Spring+2006."}
{"id":2544048844,"url":"http://farm3.staticflickr.com/2174/2544048844_c2c15814b8.jpg","path":"505/fbd/505fbdbc2e9bde37a85a8bb71f48f28.jpg","date":"2007-01-01","year":2007,"month":1,"lon":-17.47839,"lat":14.721293,"tags":"abdoulaye,afp,ali,almadie,amadou,amidou,aminata,assises,bamba,bara,barthelemy,bathily,castro,cheikh,chekh,dakar,diagne,diallo,diaz,dieng,dieye,diop,diouf,el,farba,front,haidar,hotel,jef,jel,kama,kane,karim,lamine,loum,mactar,madani,madior,makhtar,malick,mamadou,mansour,mbaye,mbengue,mbodj,mboji,mbow,meridien,mouhamadou,moustapha,nationales,ndiaye,niasse,opposition,ousmane,penda,polique,president,ps,rnd,seck,senactu,senegal,senegalaise,senghor,serigne,seydou,siggil,sy,sylla,tall,talla,tanor,thiam,wade","S2CellId":"48761acc00000000","result":5306,"accuracy":0.053831145,"title":"Assises+Nationales+du+front+siggil+senegal+et+de+l%27opposition","description":"photo+by+serignediagne%40gmail.com"}
{"id":4081822823,"url":"http://farm3.staticflickr.com/2595/4081822823_aa9d2e1cd0.jpg","path":"5ed/d43/5edd4303f87909d1d69e5939457ce.jpg","date":"2009-10-30","year":2009,"month":10,"lon":-17.473927,"lat":14.656004,"tags":"africa,dakar,door,esclavos,goree,goree+island,isla,isla+de+goree,island,puerta,puerta+de+esclavos,puerta+de+la+casa+de+los+esclavos,senegal,slave%27s+door,slaves","S2CellId":"12d4fc0000000000","result":918,"accuracy":0.08872601,"title":"Puerta+de+la+casa+de+los+esclavos"}
{"id":2040318438,"url":"http://farm3.staticflickr.com/2123/2040318438_36212b9272.jpg","path":"441/4f6/4414f62eb4cc35984cc424d88e41834b.jpg","date":"2006-03-30","year":2006,"month":3,"lon":-17.479591,"lat":14.723088,"tags":"http%3A%2F%2Fdinaiz.blogspot.com,pentaxk10d,senegal","S2CellId":"0f40000000000000","result":642,"accuracy":0.08041169,"title":"071+Jaqueline%2C+ou+Sama+xol%2C+en+train+de+faire+le+Tieboudien"}
{"id":5901936801,"url":"http://farm7.staticflickr.com/6032/5901936801_2126b3b184.jpg","path":"6a1/7ca/6a17ca44a1bcf5132739c7c9bc8c6441.jpg","date":"2011-07-04","year":2011,"month":7,"lon":-17.5177,"lat":14.747908,"tags":"ringexcellence","S2CellId":"0ed0000000000000","result":640,"accuracy":0.26621863,"title":"Bienvenue+en+Afrique"}
{"id":2570261817,"url":"http://farm4.staticflickr.com/3022/2570261817_63df80320c.jpg","path":"708/752/7087525a1e29a573490dae74f16cd90.jpg","date":"2008-06-03","year":2008,"month":6,"lon":-17.43187,"lat":14.762101,"tags":"camera,dakar,ghetto,hip+hop,interview,rodaje,senegal","S2CellId":"8ebc000000000000","result":9502,"accuracy":0.08789629,"title":"DSC02703.JPG"}
{"id":8266647569,"url":"http://farm9.staticflickr.com/8357/8266647569_719246a401.jpg","path":"48d/9d7/48d9d714e2de36bba8565c99b424ca.jpg","date":"2012-12-12","year":2012,"month":12,"lon":-17.5195,"lat":14.744499,"tags":"2012,africa,aid,amp,amp2012,bank,best,dakar,development,discussion,effectiveness,finance,gateway,good,governance,government,liberia,management,photo,platform,practices,program,senegal,transparency,workshop,world","S2CellId":"1650000000000000","result":1412,"accuracy":0.09442219,"title":"Liberian+delegation+pointing+out+the+high+level+of+aid+effectiveness+possible+with+AMP","description":"--"}
{"id":5846496111,"url":"http://farm3.staticflickr.com/2776/5846496111_55f445964e.jpg","path":"86f/bb4/86fbb4201c60315af71510e46ca65fe.jpg","date":"2011-06-01","year":2011,"month":6,"lon":-17.397308,"lat":14.66766,"tags":"2011,dakar,goree,senegal","S2CellId":"477b100000000000","result":3439,"accuracy":0.06569875,"title":"View+from+Maison+des+Esclaves","description":"Goree+Island%2C+Senegal"}
{"id":2357906172,"url":"http://farm3.staticflickr.com/2348/2357906172_bb0f886f39.jpg","path":"c3e/339/c3e339ee59e293e2652fb1ae101368d6.jpg","date":"2008-03-18","year":2008,"month":3,"lon":-17.485428,"lat":14.731306,"tags":"dakar,senegal","S2CellId":"80dbf40000000000","result":7322,"accuracy":0.028726028,"title":"gang"}
{"id":4125440073,"url":"http://farm3.staticflickr.com/2488/4125440073_be1edaf4f8.jpg","path":"a07/812/a078124138dcb4bd25b2aa9e24a9019.jpg","date":"2009-11-22","year":2009,"month":11,"lon":-17.432674,"lat":14.723927,"tags":"camel,dakar,senegal,zoo","S2CellId":"8f57000000000000","result":9530,"accuracy":0.03052616,"title":"IMG_3484","description":"The+camels+had+a+bit+of+a+hole+in+the+fence+to+stick+their+heads+through."}
{"id":4126100086,"url":"http://farm3.staticflickr.com/2636/4126100086_804891990a.jpg","path":"40c/973/40c973b92ba0d05935f3344eb5cb6fdf.jpg","date":"2009-11-22","year":2009,"month":11,"lon":-17.43358,"lat":14.724541,"tags":"dakar,senegal,zoo","S2CellId":"60188c3000000000","result":6489,"accuracy":0.01196636,"title":"IMG_3365"}
{"id":3746704914,"url":"http://farm4.staticflickr.com/3482/3746704914_0eb52eab40.jpg","path":"b07/778/b07778a7d59b97a35ab2bb90e7a4ec7d.jpg","date":"2006-12-25","year":2006,"month":12,"lon":-17.000141,"lat":14.431272,"tags":"barque,coucher+de+soleil,mer,ocre","S2CellId":"185c000000000000","result":1431,"accuracy":0.033701997,"title":"Coucher+de+soleil+au+S%C3%A9n%C3%A9gal"}
{"id":222864052,"url":"http://farm1.staticflickr.com/79/222864052_d17f2774b5.jpg","path":"cc2/6db/cc26db38a0912e8f7eaab2cc469f7348.jpg","date":"2006-08-23","year":2006,"month":8,"lon":-17.483368,"lat":14.724417,"tags":"2003,senegal","S2CellId":"8eb4000000000000","result":9501,"accuracy":0.09434044,"title":"ecole_primaire+%2831%29"}
{"id":337476130,"url":"http://farm1.staticflickr.com/155/337476130_f09b58fc53.jpg","path":"a62/204/a62204b9a8e565df4a95a7a658013.jpg","date":"2006-12-29","year":2006,"month":12,"lon":-17.38861,"lat":14.644378,"tags":"africa,e300,evolt300,goree,goree+island,olympus,senegal,west+africa,zd","S2CellId":"0ed0000000000000","result":640,"accuracy":0.19500099,"title":"PA220404"}
