{"id":5940805901,"url":"http://farm7.staticflickr.com/6124/5940805901_6a232b0390.jpg","path":"38f/a42/38fa42a1c34d3e3399667d8c8b88062.jpg","date":"2010-07-28","year":2010,"month":7,"lon":68.81364,"lat":38.58141,"tags":"dushanbe,greatpatrioticwar,memorial,tajikistan,ww2","S2CellId":"46b54a5400000000","result":3063,"accuracy":0.015561709,"title":"DSC06327","description":"The+Tajik+World+War+II+memorial%2C+what+the+Soviets+called+the+Great+Patriotic+War."}
{"id":430159537,"url":"http://farm1.staticflickr.com/162/430159537_4400340dd1.jpg","path":"71b/714/71b7142e67c6dc6e3ce208f6826c190.jpg","date":"2007-03-22","year":2007,"month":3,"lon":66.169106,"lat":36.93967,"tags":"afghanistan,aqcha,balkh+province,bazaar","S2CellId":"38d0000000000000","result":2441,"accuracy":0.058696166,"title":"Carpet+sellers"}
{"id":431601208,"url":"http://farm1.staticflickr.com/146/431601208_2be3c9d557.jpg","path":"306/183/306183bd6c4f33fb32922d55c56f85a.jpg","date":"2007-03-23","year":2007,"month":3,"lon":67.11462,"lat":36.69416,"tags":"afghanistan,buzkashi,mazar-e-sharif","S2CellId":"5d90000000000000","result":6336,"accuracy":0.059771992,"title":"Buzkashi"}
{"id":8655139083,"url":"http://farm9.staticflickr.com/8117/8655139083_694da0e76c.jpg","path":"6be/a33/6bea33c148e46825536de5ad5ba36bd.jpg","date":"2012-09-23","year":2012,"month":9,"lon":68.86033,"lat":36.72657,"tags":"afghan,afghanistan,anp,company,for,general,inspection,inspector,kunduz,national,police,reconstruction,road,security,sigar,special","S2CellId":"4789900000000000","result":3639,"accuracy":0.029410075,"title":"Afghan+National+Police+Main+Road+Security+Company+Compound","description":"This+picture+is+from+the+SIGAR+inspection+report+on+the+Afghan+National+Police+Main+Road+Security+Company.+%0A%0AInspection+Report%3A+%3Ca+href%3D%22http%3A%2F%2Fwww.sigar.mil%2Fpdf%2Finspections%2F2013-04-17-inspection-13-06.pdf%22+rel%3D%22nofollow%22%3Ewww.sigar.mil%2Fpdf%2Finspections%2F2013-04-17-inspection-13-06...%3C%2Fa%3E"}
{"id":5778803430,"url":"http://farm6.staticflickr.com/5070/5778803430_3bff718322.jpg","path":"feb/bab/febbab783a228111b5a1dd351033cbd.jpg","date":"2011-03-23","year":2011,"month":3,"lon":67.118,"lat":36.676834,"tags":"afganistan,balkh,balkh+province,buzkashi,chapandaz,chappandaz,game,horse,horses,hussein,jalalagood,mazar,mazari-sharif,novruz,nowruz,proxy+war+mazar","S2CellId":"1240000000000000","result":651,"accuracy":0.11602465,"title":"Nowruz+Buzkashi+Match+in+Mazar"}
{"id":3883183466,"url":"http://farm3.staticflickr.com/2579/3883183466_4ece3ce391.jpg","path":"5bd/baf/5bdbaff5d9bf6a6a44efb3ec9bdaa75.jpg","date":"2009-04-14","year":2009,"month":4,"lon":68.80146,"lat":38.567886,"tags":"2009+mongol+rally,dushanbe,ice+cream+truck,mongolrally09,penjikent,step+van,tajikistan,the+rolling+cones","S2CellId":"85d1f94000000000","result":7469,"accuracy":0.014911596,"title":"Massive+Stacks+of+Cash+Required+to+buy+plane+ticket02"}
{"id":5778262197,"url":"http://farm3.staticflickr.com/2233/5778262197_05063b4035.jpg","path":"c41/8b9/c418b9668f1427a8a443f7e0e1c15d2.jpg","date":"2011-03-23","year":2011,"month":3,"lon":67.122665,"lat":36.711666,"tags":"afganistan,balkh,balkh+province,buzkashi,chapandaz,chappandaz,game,horse,horses,hussein,jalalagood,mazar,mazari-sharif,novruz,nowruz,proxy+war+mazar","S2CellId":"94f3000000000000","result":9771,"accuracy":0.32297388,"title":"Nowruz+Buzkashi+Match+in+Mazar"}
