{"id":8016498974,"url":"http://farm9.staticflickr.com/8444/8016498974_a4c841709e.jpg","path":"de8/22a/de822a12904dd5ea589061341d28e2.jpg","date":"2012-06-08","year":2012,"month":6,"lon":17.316433,"lat":48.913193,"tags":"bata,canal,czech,morava,republic,river,str%C3%A1%C5%BEnice","S2CellId":"4807400000000000","result":4766,"accuracy":0.017663319,"title":"Ba%C5%A5%C5%AFv+kan%C3%A1l%2C+%C4%8Cesk%C3%A1+Republika+2012+-+DSCN0690","description":"Str%C3%A1%C5%BEnice+-+Bata+Canal+and+Morava+river%2C+Czech+Republic"}
{"id":9608270284,"url":"http://farm3.staticflickr.com/2872/9608270284_f2f4aa9460.jpg","path":"678/4d8/6784d8b27f3ee9c94b1966483a4692.jpg","date":"2013-08-12","year":2013,"month":8,"lon":17.10378,"lat":48.14327,"tags":"crossdresser,tgirl,transgender,transvestite,travestito","S2CellId":"478d400000000000","result":3670,"accuracy":0.033611488,"title":"Bratislava"}
{"id":2268797634,"url":"http://farm3.staticflickr.com/2038/2268797634_85c8c9b357.jpg","path":"14f/32f/14f32f184c3a15d6d43260c48dd5a663.jpg","date":"2008-02-16","year":2008,"month":2,"lon":17.127245,"lat":48.15092,"tags":"snow,snowstorm,wind","S2CellId":"883cae5000000000","result":8363,"accuracy":0.021262133,"title":"this+is+what+I+woke+up+into...","description":"...and+it%27s+getting+stronger+I+think..."}
{"id":3698353787,"url":"http://farm4.staticflickr.com/3474/3698353787_d91fb06b86.jpg","path":"e1a/14b/e1a14bed86d29b9cd54c170b3204f72.jpg","date":"2009-07-07","year":2009,"month":7,"lon":17.226048,"lat":48.03393,"tags":"automix.sk,miss+tuning+2009","S2CellId":"8085814000000000","result":6961,"accuracy":0.024629869,"title":"miss+sympatia","description":"miss+tuning+2009"}
{"id":10174834156,"url":"http://farm9.staticflickr.com/8415/10174834156_1b9106163f.jpg","path":"5c3/05c/5c305cd397535bde3e54288493e591b.jpg","date":"2007-05-19","year":2007,"month":5,"lon":17.071037,"lat":48.150627,"tags":"bratislava","S2CellId":"8621400000000000","result":7528,"accuracy":0.022108193,"title":"img_5690","description":"Bratislava"}
{"id":9590370728,"url":"http://farm8.staticflickr.com/7425/9590370728_9f5650bebd.jpg","path":"2ae/c1c/2aec1cf67ca3e875d673654aba75ae21.jpg","date":"2013-07-24","year":2013,"month":7,"lon":17.106346,"lat":48.144424,"tags":"bratislava,hack,hackerspace,linux,opensource","S2CellId":"465253c000000000","result":2863,"accuracy":0.013128684,"title":"13070328"}
{"id":3077989251,"url":"http://farm4.staticflickr.com/3245/3077989251_5d2f3c3682.jpg","path":"a74/b29/a74b292455b835638612e5990899836.jpg","date":"2008-11-27","year":2008,"month":11,"lon":17.10471,"lat":48.134186,"tags":"bratislava,bratislavsky,bridge,europe,novy+most,slovak+republic,slovakia,traffic,ufo","S2CellId":"89d3431000000000","result":9235,"accuracy":0.13061726,"title":"Nov%C3%BD+Most","description":"We+didn%27t+know+where+we+were+going+so+we+followed+some+locals+into+a+scary+running-across-motorway+sort+of+scenario."}
{"id":4298377355,"url":"http://farm5.staticflickr.com/4054/4298377355_cb5b2d39fd.jpg","path":"2a3/81e/2a381eb8b3c27c9114c8c979b53e7.jpg","date":"2010-01-23","year":2010,"month":1,"lon":17.112879,"lat":48.134274,"tags":"b%26w,bratislava,bridlge,chapel,janka,krala,new,sad","S2CellId":"487eb00000000000","result":5660,"accuracy":0.07644197,"title":"window"}
{"id":5653644878,"url":"http://farm6.staticflickr.com/5029/5653644878_d217b7e3c1.jpg","path":"4d7/2ae/4d72ae7c2b9359a1a9f8a588e838812.jpg","date":"2011-04-23","year":2011,"month":4,"lon":17.08315,"lat":48.272324,"tags":"forest%2C+borinka","S2CellId":"47900ac000000000","result":3700,"accuracy":0.043695036,"title":"on+the+way+to+Hrad+Paj%C5%A1t%C3%BAn","description":"on+the+way+to+Hrad+Paj%C5%A1t%C3%BAn"}
{"id":243915029,"url":"http://farm1.staticflickr.com/92/243915029_b07fd662e7.jpg","path":"64c/6bb/64c6bba5a075e94d79aba734732c1d4.jpg","date":"2006-07-07","year":2006,"month":7,"lon":17.115025,"lat":48.139458,"tags":"bratislava,capital,danube,deck,doprava,dunaj,lo%C4%8F,lode,paluba,port,pr%C3%ADstav,rieka,river,ships,transport,turisti,turists,water","S2CellId":"476c890000000000","result":3327,"accuracy":0.25493753,"title":"pr%C3%ADstav"}
{"id":4002231946,"url":"http://farm3.staticflickr.com/2427/4002231946_0d79dd95d4.jpg","path":"f48/7f5/f487f5362938fcfc23c49b17fc4f589b.jpg","date":"2009-10-10","year":2009,"month":10,"lon":17.357368,"lat":48.53559,"tags":"autumn,bukova,coluds,kitchy,overcast,sky,slovakia","S2CellId":"5484400000000000","result":6097,"accuracy":0.026968226,"title":"cloud+wall"}
{"id":1798367437,"url":"http://farm3.staticflickr.com/2272/1798367437_bd5d8ed655.jpg","path":"2e2/41b/2e241b75d88bae9e26dfebc5635d4460.jpg","date":"2007-10-17","year":2007,"month":10,"lon":17.109297,"lat":48.14216,"tags":"bratislava,bratislavsky,eu,europe,slovakia,slovensko,vacation","S2CellId":"470b94e900000000","result":3166,"accuracy":0.10211329,"title":"Bratislava"}
{"id":8041475178,"url":"http://farm9.staticflickr.com/8450/8041475178_95f48d37f2.jpg","path":"835/15b/83515b7b4ce9404ce9b4d1534111af25.jpg","date":"2012-10-01","year":2012,"month":10,"lon":17.064363,"lat":48.153416,"tags":"czechoslovakia,teko+1,tepova%C4%8D+kobercov,vacume+cleaner","S2CellId":"0d56c00000000000","result":472,"accuracy":0.0041236044,"title":"Tepova%C4%8D+kobercov+TEKO+1","description":"Carpet+Cleaner%0ABratislava-Karolova+Ves%0A%0A%3Ci%3ENikon+N65+%7C+Film+Dose+7%2F08%3C%2Fi%3E"}
{"id":4268643274,"url":"http://farm5.staticflickr.com/4068/4268643274_4d7eacfaa1.jpg","path":"f8d/0f9/f8d0f910d2ab97f973bdca29cca5f177.jpg","date":"2010-01-12","year":2010,"month":1,"lon":17.038443,"lat":48.18603,"tags":"dance,folklore,gymnik,music","S2CellId":"0d379c0000000000","result":323,"accuracy":0.035297353,"title":"IMG_3126"}
{"id":3100702624,"url":"http://farm4.staticflickr.com/3147/3100702624_251a8ac925.jpg","path":"259/6e6/2596e67ef875f5ec66f68d4271d1ec28.jpg","date":"2008-11-30","year":2008,"month":11,"lon":17.109262,"lat":48.145332,"tags":"bratislava,slovak","S2CellId":"47a6700000000000","result":3889,"accuracy":0.06607889,"title":"DSC_3103"}
{"id":5133033058,"url":"http://farm5.staticflickr.com/4072/5133033058_83469b6dd3.jpg","path":"8ef/94b/8ef94b3ebed352af56545e467292c25.jpg","date":"2010-10-15","year":2010,"month":10,"lon":17.104362,"lat":48.138306,"tags":"barge,bratislava,cargo,danbue,eu,europe,pre%C3%9Fburg,rc,river,ship,slovakia","S2CellId":"47af400000000000","result":3967,"accuracy":0.19314483,"title":"Danube+River+Barge+in+Bratislava%2C+Slovakia","description":"River+Barge+Ship"}
{"id":3515738067,"url":"http://farm4.staticflickr.com/3656/3515738067_88a3edaf7c.jpg","path":"d17/492/d17492cf7377a345adf3dd534a657996.jpg","date":"2009-05-08","year":2009,"month":5,"lon":17.103523,"lat":48.142063,"tags":"bratislava,flowers,window","S2CellId":"0d50940000000000","result":432,"accuracy":0.012001128,"title":"Window","description":"...in+the+old+Jewish+quarter+of+Bratislava."}
{"id":4271724202,"url":"http://farm5.staticflickr.com/4047/4271724202_9680649012.jpg","path":"6b7/d12/6b7d1242bc953c413351aeeb7966ac3.jpg","date":"2010-01-13","year":2010,"month":1,"lon":17.07049,"lat":48.15553,"tags":"35mmf1.8dx,animal,cat,d90,dead,frozen,ice,winter","S2CellId":"883cae5000000000","result":8363,"accuracy":0.15948002,"title":"Not+alive","description":"I+found+this+cat+frozen+on+a+parking+lot+on+my+way+to+school...pretty+ugly+scene."}
{"id":3290292161,"url":"http://farm4.staticflickr.com/3223/3290292161_d224653b18.jpg","path":"289/22d/28922d719256b9bf3bde817c5948fca6.jpg","date":"2009-02-17","year":2009,"month":2,"lon":17.020735,"lat":48.440407,"tags":"bird","S2CellId":"89e6d00000000000","result":9384,"accuracy":0.025120625,"title":"Fringilla+montifringilla%2C+pinka+seversk%C3%A1%2C+Brambling","description":"Malacky%2C+na+k%C5%95midle"}
{"id":133727279,"url":"http://farm1.staticflickr.com/54/133727279_018f4650bf.jpg","path":"86c/453/86c45380fbe46d4ad5bae8b958699b0.jpg","date":"2006-04-23","year":2006,"month":4,"lon":17.100605,"lat":48.142624,"tags":"bratislava,slovakia,slowakei","S2CellId":"476c890000000000","result":3327,"accuracy":0.35155937,"title":"Once+more%3A+the+bridge"}
{"id":3361152976,"url":"http://farm4.staticflickr.com/3443/3361152976_1050fb515b.jpg","path":"a7c/c3c/a7cc3c529a7ac4c010d2f05096fab04a.jpg","date":"2009-03-16","year":2009,"month":3,"lon":17.669085,"lat":48.48696,"tags":"actionsampler,analog,jaslovske+bohunice,lomo,scan","S2CellId":"8704000000000000","result":7714,"accuracy":0.01615929,"title":"JaslovskeBohunice","description":"first+attempts+with+ActionSampler%5Clomo"}
{"id":2802869036,"url":"http://farm4.staticflickr.com/3023/2802869036_9fe3faa3d6.jpg","path":"563/9b6/5639b696d17c8b9f2a466356d2a577d.jpg","date":"2007-04-14","year":2007,"month":4,"lon":17.117277,"lat":48.143425,"tags":"bezrucova,nemocnica,urban+exploration","S2CellId":"88f3000000000000","result":8702,"accuracy":0.013499634,"title":"ONB00347"}
{"id":3795422486,"url":"http://farm4.staticflickr.com/3585/3795422486_7246f7d2b0.jpg","path":"693/bf2/693bf278f88f5e9a4c3fd66f14a195.jpg","date":"2009-08-06","year":2009,"month":8,"lon":17.431355,"lat":48.512566,"tags":"2009-08-06,vil%C3%A1gi+tor+t%C3%BAra","S2CellId":"8859400000000000","result":8434,"accuracy":0.017088354,"title":"Smolenice","description":"kis+park+a+v%C3%A1r+k%C3%B6r%C3%BCl"}
{"id":3289580017,"url":"http://farm4.staticflickr.com/3377/3289580017_6a6ff55739.jpg","path":"5f4/052/5f405253f748c15e9f8419c125c56d.jpg","date":"2009-02-16","year":2009,"month":2,"lon":17.117128,"lat":48.138298,"tags":"bratislava,bridge,bridge+bratislava,lights,most,night,old,slovakia,snow,stary,steel,winter","S2CellId":"6b12ae5c00000000","result":6691,"accuracy":0.016262256,"title":"Stary+Most+by+Night"}
{"id":2239834732,"url":"http://farm3.staticflickr.com/2050/2239834732_ca9de89800.jpg","path":"a98/aaa/a98aaa995d84b11b7392349bb5704fd.jpg","date":"2006-05-16","year":2006,"month":5,"lon":17.236347,"lat":48.55048,"tags":"borsk%C3%A1+n%C3%AD%C5%BEina,carpathian+mountains,carpathians,euphorbiaceae,karpaty,landscape,lowlands,plants,slovakia,tithymalus,western+slovakia,z%C3%A1horie","S2CellId":"8895000000000000","result":8522,"accuracy":0.012005683,"title":"Slovakia%2C+Z%C3%A1horie+region","description":"standing+alone+%2F+mlie%C4%8Dnik+chvojkov%C3%BD+%28Tithymalus+cyparissias%29+na+pieskovej+dune+na+okraji+vojenskej+strelnice+pri+Mikul%C3%A1%C5%A1ove"}
{"id":2638919392,"url":"http://farm4.staticflickr.com/3278/2638919392_c3a79b4d23.jpg","path":"242/eb4/242eb41a4843befce2bc55fc36529d45.jpg","date":"2008-04-27","year":2008,"month":4,"lon":17.13467,"lat":48.163094,"tags":"akgul+amanmuradova,amanmuradova,bratislava,cibulkova,dominika+cibulkova,fedcup,mihal,mojmir+mihal,narodne+tenisove+centrum,ntc,slovakia,slovensko,tenis,tennis,uzbekistan","S2CellId":"488846f000000000","result":5741,"accuracy":0.10374797,"title":"IMG_3899"}
{"id":471189046,"url":"http://farm1.staticflickr.com/228/471189046_cecddc37a9.jpg","path":"868/738/868738dcb486804087e325d169f1ebe2.jpg","date":"2007-04-21","year":2007,"month":4,"lon":17.20974,"lat":48.23748,"tags":"bratislava,exploration,infiltration,stracia+nozka,svaty+jur,urban","S2CellId":"132f61a700000000","result":1103,"accuracy":0.047433417,"title":"stracia+nozka"}
{"id":1367527383,"url":"http://farm2.staticflickr.com/1339/1367527383_7170df4c9a.jpg","path":"337/31d/33731dfae920ce4f65442558b558e9.jpg","date":"2007-09-13","year":2007,"month":9,"lon":17.106743,"lat":48.15017,"tags":"8m,lomo,slovakia,smena,smena8m","S2CellId":"0d4e4fd000000000","result":419,"accuracy":0.19102187,"title":"bratislava_htl"}
{"id":4824376080,"url":"http://farm5.staticflickr.com/4117/4824376080_d47f968f59.jpg","path":"af4/0c0/af40c06029c0b76f2f4b2f8f122e2b1.jpg","date":"2010-07-07","year":2010,"month":7,"lon":17.105053,"lat":48.143394,"tags":"bratislava,church,slovakia,slovensko,steeple,street","S2CellId":"4749000000000000","result":3293,"accuracy":0.5077485,"title":"-Along+Kapitulska+in+Bratislava","description":"This+is+a+street+on+the+edge+of+the+old+town+with+a+fascinating+mix+of+restored%2C+run+down%2C+and+abandoned+buildings.+It+reminded+me+of+the+Prenzlauerberg+district+in+East+Berlin+in+the+summer+of+1990.+%28You+had+to+get+outside+of+the+old+town+to+see+examples+of+Soviet-style+architecture+in+Bratislava.%29"}
{"id":2118576551,"url":"http://farm3.staticflickr.com/2028/2118576551_f8deeef552.jpg","path":"d94/fa1/d94fa1fb40c1582662aa2caa3a7de.jpg","date":"2007-12-01","year":2007,"month":12,"lon":17.20562,"lat":48.174156,"tags":"aerial,airplane,airport,bratislava,concourse,eastern,eu,europe,flight,flying,photography,plane,ryanair,slovalia","S2CellId":"89c2670000000000","result":9088,"accuracy":0.10672452,"title":"Flight+From+Bratislava+to+Dublin"}
{"id":8281025055,"url":"http://farm9.staticflickr.com/8360/8281025055_41d9065528.jpg","path":"3fb/fc4/3fbfc48fe1ee7107139efbf1bf6230.jpg","date":"2012-11-30","year":2012,"month":11,"lon":17.108519,"lat":48.143562,"tags":"bratislava,market,xmas","S2CellId":"548f749000000000","result":6168,"accuracy":0.0037532926,"title":"Christmas+market+stall"}
{"id":2660900557,"url":"http://farm4.staticflickr.com/3067/2660900557_1f7fc95205.jpg","path":"5a3/781/5a378191766670d110ff81ea7ef6a5.jpg","date":"2008-06-20","year":2008,"month":6,"lon":17.10537,"lat":48.151657,"tags":"bratislava","S2CellId":"12a4a27c00000000","result":716,"accuracy":0.040381234,"title":"IMG_3010"}
{"id":4292449529,"url":"http://farm5.staticflickr.com/4009/4292449529_8b73d573cd.jpg","path":"f33/794/f337948815ecb2e556be3beea6a31de.jpg","date":"2010-01-21","year":2010,"month":1,"lon":17.131601,"lat":48.14662,"tags":"cvernovka,factory,industrial","S2CellId":"880e2cd000000000","result":8129,"accuracy":0.0035535428,"title":"IMG_3773"}
{"id":4768866339,"url":"http://farm5.staticflickr.com/4135/4768866339_3ac803e0d5.jpg","path":"70b/996/70b99613cff8c66dcdb29216bc59a315.jpg","date":"2010-07-02","year":2010,"month":7,"lon":17.107086,"lat":48.148792,"tags":"bratislava,break,building,city,cityscape,eastern,europe,holiday,slovak,slovakia,view","S2CellId":"47aa400000000000","result":3954,"accuracy":0.065516174,"title":"Bratislava"}
{"id":1260354119,"url":"http://farm2.staticflickr.com/1258/1260354119_000d7b5b80.jpg","path":"35c/f9c/35cf9ce22fbd4b766758be8eee84996a.jpg","date":"2007-08-18","year":2007,"month":8,"lon":17.525682,"lat":48.454254,"tags":"aeromodeling,f3j,glider,r%2Fc,radio+control,slovakia,thermal+duration,trnava+cup+2007","S2CellId":"3174c00000000000","result":1771,"accuracy":0.032248333,"title":"Il+mio+primo+%22mille%22%21"}
{"id":5291538642,"url":"http://farm6.staticflickr.com/5244/5291538642_9fab2511bd.jpg","path":"805/5e6/8055e61eb5cf9d5f4cdb564aea38d1b6.jpg","date":"2010-12-25","year":2010,"month":12,"lon":17.102922,"lat":48.148792,"tags":"bethlehem,christmas","S2CellId":"00a6990000000000","result":54,"accuracy":0.016314436,"title":"Merry+christmas+everybody+%21"}
{"id":6071961753,"url":"http://farm7.staticflickr.com/6083/6071961753_e567b9b5ef.jpg","path":"117/788/1177886d47cbe6231018f4ee22822df.jpg","date":"2011-08-20","year":2011,"month":8,"lon":17.187853,"lat":48.13353,"tags":"dachshund,portrait","S2CellId":"88f5b00000000000","result":8731,"accuracy":0.00762575,"title":"Amy"}
{"id":3066951246,"url":"http://farm4.staticflickr.com/3070/3066951246_369e2f2a73.jpg","path":"3b7/c31/3b7c31463ba0aeb432d1fc5bebb23790.jpg","date":"2008-11-24","year":2008,"month":11,"lon":17.108797,"lat":48.14287,"tags":"bratislava,bratislavsky,cumil,europe,slovak+republic,slovakia,statue","S2CellId":"4773940000000000","result":3396,"accuracy":0.054041684,"title":"%C4%8Cumil","description":"One+of+Bratislava%27s+amusing+statues.%0A%0AThis+is+%C4%8Cumil%2C+who+is+rumoured+to+enjoy+looking+up+girls%27+skirts.+That+explains+the+warning+sign+I+suppose."}
{"id":3480990994,"url":"http://farm4.staticflickr.com/3639/3480990994_ab9809588d.jpg","path":"974/398/97439825874ac92e7e2d5dc2f1c53c48.jpg","date":"2009-04-27","year":2009,"month":4,"lon":17.350674,"lat":48.539227,"tags":"grass+snake,nikon+d90,snake,z%C3%A1ruby","S2CellId":"88d0a631cabb5071","result":8563,"accuracy":0.014076121,"title":"Grass+snake"}
{"id":2661050069,"url":"http://farm4.staticflickr.com/3268/2661050069_7bd80c7539.jpg","path":"7c5/23a/7c523aed477abdd7bd0a5c77f592df.jpg","date":"2008-06-20","year":2008,"month":6,"lon":17.10537,"lat":48.151657,"tags":"bratislava","S2CellId":"479e764000000000","result":3857,"accuracy":0.032732155,"title":"IMG_3108"}
{"id":456836132,"url":"http://farm1.staticflickr.com/206/456836132_47a5c63b1d.jpg","path":"98e/536/98e536b984b75e13b71f483effab145.jpg","date":"2007-03-17","year":2007,"month":3,"lon":17.868135,"lat":48.330467,"tags":"flower,macro,nature,rumanova,slovakia,spring","S2CellId":"89c2f34000000000","result":9103,"accuracy":0.006248503,"title":"P3170241"}
{"id":1306292160,"url":"http://farm2.staticflickr.com/1097/1306292160_814e2bd2ed.jpg","path":"81e/cc1/81ecc1a971f17fa23edd083bd419d12.jpg","date":"2007-08-19","year":2007,"month":8,"lon":17.525682,"lat":48.454254,"tags":"aeromodeling,boleraz,european+championship+2007,f3j,fai+f3j,slovakia,team+italia,thermal+soaring,trnava","S2CellId":"4796c94000000000","result":3756,"accuracy":0.09277764,"title":"DSC_8668"}
{"id":6133169069,"url":"http://farm7.staticflickr.com/6087/6133169069_3e5356c7df.jpg","path":"8f9/e39/8f9e39156c11199a877cfe8ba4ec4516.jpg","date":"2011-09-10","year":2011,"month":9,"lon":17.33966,"lat":48.0501,"tags":"auratus,heliophanus,jumping-spider,slovakia","S2CellId":"4877340000000000","result":5417,"accuracy":0.0909787,"title":"Heliophanus+auratus","description":"I+found+this+jumping+spider+today+10.09.2011%2C+it+was+really+coincidence%2C+because+I+was+just+looking+for+some+object+on+which+I+could+try+my+new+flash+unit.+This+tiny+little+7mm+jumping+spider+was+climbing+over+the+raspberry+leaf.+Was+really+photogenic+and+co-operative+%3A%29.%0A%0AI+am+really+glad+that+I+have+found+so+much+species+on+one+place.+This+one+is+5th+kind+of+jumping+spider+living+in+circuit+about+200meters.%0A%0A%5BCanon+EOS+1000D%5D%0A%5BTamron+90mm%2Ff1.8+on+MacroExtensionTubes1%2B2%2B3cm%5D%0A%5BCanon+Speedlite+430+EX+II%5D"}
{"id":499744192,"url":"http://farm1.staticflickr.com/194/499744192_561574bb45.jpg","path":"133/5e1/1335e184767c37b4a59addbe67eb4af.jpg","date":"2007-05-13","year":2007,"month":5,"lon":17.066746,"lat":48.16093,"tags":"dj,headhones,mixtable,needle,party,technics,turntable,unique","S2CellId":"4685000000000000","result":2952,"accuracy":0.580529,"title":"DSC_0277_filtered"}
{"id":2150552618,"url":"http://farm3.staticflickr.com/2097/2150552618_10f4ffa4a6.jpg","path":"e38/13f/e3813fb2eac6b61fe562e60d79fd18f.jpg","date":"2007-08-07","year":2007,"month":8,"lon":17.108978,"lat":48.14851,"tags":"bratislava,frontiere,slovaquie","S2CellId":"4696370000000000","result":3035,"accuracy":0.022736736,"title":"IMG_1036"}
{"id":5018864628,"url":"http://farm5.staticflickr.com/4110/5018864628_60b9edeced.jpg","path":"6ab/e22/6abe2249069273b4c36dd8d0a8325.jpg","date":"2010-09-23","year":2010,"month":9,"lon":17.29394,"lat":48.726147,"tags":"country,forest,friends,nikon+d90+50%2F1.4+smrdaky,walk","S2CellId":"473f000000000000","result":3261,"accuracy":0.019996313,"title":"On+the+roof"}
{"id":5679018895,"url":"http://farm6.staticflickr.com/5190/5679018895_e29e2f7123.jpg","path":"f62/166/f62166728915ad4bb34f39b8da4f36.jpg","date":"2009-09-12","year":2009,"month":9,"lon":17.107,"lat":48.14924,"tags":"bratislava,environment,frogs,green+office,slovakia,solar+energy,solar+panels,treeplanting,undp","S2CellId":"5330000000000000","result":6023,"accuracy":0.009856232,"title":"Making+friends+during+UNDP+staff+treeplanting+2009","description":"Learn+more+about+%3Ca+href%3D%22http%3A%2F%2Feuropeandcis.undp.org%2Fhome%2FAboutUs%2Fshow%2F8E181151-F203-1EE9-BB480F15A3C8C6AD%22+rel%3D%22nofollow%22%3EUNDP+Bratislava+Regional+Center%E2%80%99s+green+initiatives.%3C%2Fa%3E"}
{"id":10174891303,"url":"http://farm4.staticflickr.com/3713/10174891303_7730e400e4.jpg","path":"8e5/fb5/8e5fb5517c21eb21214161859da9eb3.jpg","date":"2007-05-19","year":2007,"month":5,"lon":17.071037,"lat":48.150627,"tags":"bratislava","S2CellId":"476c890000000000","result":3327,"accuracy":0.16686979,"title":"img_5694","description":"Bratislava"}
{"id":127352915,"url":"http://farm1.staticflickr.com/42/127352915_17da931ad2.jpg","path":"3d7/df1/3d7df15a40ddfb49d54dab2d7f0617c.jpg","date":"2006-03-30","year":2006,"month":3,"lon":17.118372,"lat":48.14003,"tags":"bratislava","S2CellId":"87df500000000000","result":8025,"accuracy":0.11122476,"title":"Stary+most","description":"Bratislava.%0A%0AIt+will+be+closed+for+all+traffic+on+15th+May%2C+2010"}
{"id":573966210,"url":"http://farm2.staticflickr.com/1131/573966210_669b4538ff.jpg","path":"151/3a4/1513a414e5f22213a8513e8b11acd7e0.jpg","date":"2007-06-20","year":2007,"month":6,"lon":17.116098,"lat":48.069534,"tags":"jarovce,zuzka","S2CellId":"8753400000000000","result":7846,"accuracy":0.014620216,"title":"green+bush%21"}
{"id":5014664022,"url":"http://farm5.staticflickr.com/4111/5014664022_95664f8f03.jpg","path":"f27/046/f27046aa27554dffecc689473cfbd60.jpg","date":"2010-09-22","year":2010,"month":9,"lon":17.21568,"lat":48.055523,"tags":"alba,bird,hrusovska,motacilla,wagtail,white,zdrz","S2CellId":"88d0a631cabb5071","result":8563,"accuracy":0.06587873,"title":"Motacilla+alba","description":"Probably+young+White+Wagtail%0A%7C%0APravdepodobne+mlad%C3%BD+trasochvost+biely"}
{"id":7851830932,"url":"http://farm9.staticflickr.com/8424/7851830932_e49796ec1b.jpg","path":"e5f/374/e5f3744152c0c878551c4960d4bdaa0.jpg","date":"2012-08-03","year":2012,"month":8,"lon":17.100563,"lat":48.14155,"tags":"bratislava,slovakia,slovensk%C3%A1+republika,slovensko,slowakije","S2CellId":"46ddc00000000000","result":3085,"accuracy":0.09990444,"title":"View+from+Bratislavsk%C3%BD+hrad%2C+Bratislava"}
{"id":7975888446,"url":"http://farm9.staticflickr.com/8181/7975888446_f6041fea11.jpg","path":"d4a/e22/d4ae221057f4cd841cd73d6b8468cbc9.jpg","date":"2011-08-27","year":2011,"month":8,"lon":17.314358,"lat":48.90594,"tags":"%28bata,ba%C5%A5%C5%AFv,canal%29,canal+lock,czech,ecluse,kan%C3%A1l,komora,komorov%C3%A1n%C3%AD,lock,republic,str%C3%A1%C5%BEnice,zdymadlo","S2CellId":"46ddc00000000000","result":3085,"accuracy":0.017050685,"title":"DSCN5950","description":"Ba%C5%A5%C5%AFv+Kan%C3%A1l+%28Bata+Canal%29%2C+Str%C3%A1%C5%BEnice%2C++Czech+Republic"}
{"id":49625343,"url":"http://farm1.staticflickr.com/28/49625343_3d6bf48944.jpg","path":"85f/21a/85f21aff98f49c9486c3cb25ffb5c9.jpg","date":"2004-01-01","year":2004,"month":1,"lon":17.105488,"lat":48.144363,"tags":"%C3%A9p%C3%ADt%C3%A9szet,%D0%B0%D1%80%D1%85%D0%B8%D1%82%D0%B5%D0%BA%D1%82%D1%83%D1%80%D0%B0,%D0%B0%D1%80%D1%85%D0%B8%D1%82%D0%B5%D0%BA%D1%82%D1%83%D1%80%D1%8B,architecture,architectuur,architekt%C3%BAra,architekt%C5%ABra,architektonik,architektur,architektura,architettura,arhitectura,arhitekt%C5%ABra,arhitektura,arhitektuur,arkitekt%C3%BAr,arkitektur,arkkitehtuuri,arquitectura,arquitetura,august+2005,baustil,bouwkunde,bouwstijl,bratislava,konica+minolta+z3,mimari,slovak,slovakia","S2CellId":"0d368c0000000000","result":313,"accuracy":0.123307176,"title":"Bratislava+-+Klarisky+Convent"}
{"id":2705102059,"url":"http://farm4.staticflickr.com/3259/2705102059_c7a0d8af1b.jpg","path":"dfc/1f0/dfc1f0268ed0b0f26ca59d64326dfe17.jpg","date":"2008-07-18","year":2008,"month":7,"lon":17.585442,"lat":48.357925,"tags":"europe,friends,pentax,slovakia,trnava,wrestle","S2CellId":"8641400000000000","result":7564,"accuracy":0.07430299,"title":"IMGP8369.JPG"}
{"id":954281769,"url":"http://farm2.staticflickr.com/1408/954281769_ccb0ed5599.jpg","path":"6ca/432/6ca4322896b32c55f46d61dd0c0946a.jpg","date":"2007-07-30","year":2007,"month":7,"lon":17.100584,"lat":48.145515,"tags":"bratislava,gynekologia,nemocnica,urban+exploration","S2CellId":"346ecc0000000000","result":2226,"accuracy":0.0118233,"title":"Baby"}
{"id":4236142869,"url":"http://farm5.staticflickr.com/4071/4236142869_6ee7f60a0e.jpg","path":"140/5b7/1405b7fcba6f3c524dbb92f26712622.jpg","date":"2009-12-28","year":2009,"month":12,"lon":17.111012,"lat":48.105354,"tags":"dra%C5%BEdiak,zazie","S2CellId":"414ab40000000000","result":2729,"accuracy":0.031995755,"title":"Bench+above+the+lake+Dra%C5%BEdiak"}
{"id":4493208786,"url":"http://farm5.staticflickr.com/4001/4493208786_9cd0d09453.jpg","path":"8ef/d94/8efd94e1beb7fbc1e1a870145425d9.jpg","date":"2010-02-28","year":2010,"month":2,"lon":17.017294,"lat":48.411327,"tags":"animal","S2CellId":"488b000000000000","result":5763,"accuracy":0.008933961,"title":"baran%2C+Ran%C4%8D+u+indi%C3%A1nky%2C+Mutton"}
{"id":3428126507,"url":"http://farm4.staticflickr.com/3570/3428126507_c53c954790.jpg","path":"222/777/2227778e3a508bf5a14c227838423cde.jpg","date":"2009-04-04","year":2009,"month":4,"lon":17.273598,"lat":48.46302,"tags":"male+karpaty,slovakia,slovensko","S2CellId":"89c2d00000000000","result":9097,"accuracy":0.06232117,"title":"Mal%C3%A9+Karpaty"}
{"id":5481851518,"url":"http://farm6.staticflickr.com/5257/5481851518_4034ff57d9.jpg","path":"77e/0ad/77e0adfd2ab35f3f11adf8ecbf273e1.jpg","date":"2007-12-08","year":2007,"month":12,"lon":17.104666,"lat":48.138165,"tags":"iphoto+original","S2CellId":"476c890000000000","result":3327,"accuracy":0.17103113,"title":"Novy%CC%81+Most++-+3"}
{"id":1069869178,"url":"http://farm2.staticflickr.com/1209/1069869178_dd5eff8936.jpg","path":"2cd/565/2cd5655930f597c4fd7b226b1d92d94.jpg","date":"2007-05-17","year":2007,"month":5,"lon":17.098545,"lat":48.14671,"tags":"bratislava,exploring,infiltration,urban","S2CellId":"89dd100000000000","result":9276,"accuracy":0.007671091,"title":"transfuzna+stanica+%7C+palisady"}
{"id":4502712768,"url":"http://farm5.staticflickr.com/4024/4502712768_2127a89f2f.jpg","path":"f3a/fc3/f3afc37ab261d62fe544d0be239c34d1.jpg","date":"2010-03-28","year":2010,"month":3,"lon":17.867401,"lat":48.331882,"tags":"beehive,close-up,flower,insect,macro,nature,pasqueflower+-+poniklec,rumanova,slovakia,slovensko,slovensko+%2F+slovakia,spring,spring+2010","S2CellId":"6ad642a400000000","result":6620,"accuracy":0.008474224,"title":"_3284011"}
{"id":2175256300,"url":"http://farm3.staticflickr.com/2308/2175256300_48e3d65d9e.jpg","path":"8d0/5c2/8d05c2775c41a926b56b1ba60da78.jpg","date":"2007-12-26","year":2007,"month":12,"lon":17.105713,"lat":48.16388,"tags":"bratislava,eslovaquia,slovakia,slovensko,snow,trainway","S2CellId":"4773940000000000","result":3396,"accuracy":0.09165299,"title":"DSCF0920"}
{"id":1054569727,"url":"http://farm2.staticflickr.com/1371/1054569727_297b953413.jpg","path":"60f/561/60f56141f3ab22d5a67d428187e8fbd1.jpg","date":"2007-08-07","year":2007,"month":8,"lon":17.12509,"lat":48.145466,"tags":"bratislava,exploration,industrial,infiltration,kablo,urban","S2CellId":"4865300000000000","result":4874,"accuracy":0.033911895,"title":"Kablo+Bratislava"}
{"id":1801256363,"url":"http://farm3.staticflickr.com/2056/1801256363_d3f82d267e.jpg","path":"1ba/6f2/1ba6f21fd966ea261e839448a92563.jpg","date":"2007-10-17","year":2007,"month":10,"lon":17.110691,"lat":48.143665,"tags":"bratislava,bratislavsky,eu,europe,slovakia,slovensko,vacation","S2CellId":"475a7c0000000000","result":3304,"accuracy":0.062490314,"title":"Bratislava"}
{"id":265867721,"url":"http://farm1.staticflickr.com/104/265867721_78739d1fee.jpg","path":"d5f/fdf/d5ffdf91738e82e683bb67d8a8f5e68.jpg","date":"2006-10-07","year":2006,"month":10,"lon":17.1167,"lat":48.180737,"tags":"+slovakia,+travel,bratislava,eastern+europe,europe,http%3A%2F%2Fwww.nordictouch.co.uk","S2CellId":"4765c00000000000","result":3315,"accuracy":0.26545185,"title":"Bratislava","description":"Copyright%3A+Elin+B+%40+Nordic+Touch%2C+%3Ca+href%3D%22http%3A%2F%2Fwww.nordictouch.co.uk%22+rel%3D%22nofollow%22%3Ewww.nordictouch.co.uk%3C%2Fa%3E"}
{"id":9024938041,"url":"http://farm9.staticflickr.com/8405/9024938041_56b02d64a3.jpg","path":"725/04d/72504d94a7da4846d779215b69abb28.jpg","date":"2013-06-12","year":2013,"month":6,"lon":17.129818,"lat":48.157288,"tags":"amaro,instagram+app,iphoneography,square,square+format","S2CellId":"33a99c0000000000","result":1938,"accuracy":0.020385776,"title":"Sausage+baguette.+%23food+%23foodspotting"}
{"id":2051393401,"url":"http://farm3.staticflickr.com/2414/2051393401_67782ef100.jpg","path":"892/d5d/892d5d68372baa4595f95682510d17f.jpg","date":"2007-08-02","year":2007,"month":8,"lon":17.101944,"lat":48.14247,"tags":"2007,alejandro,bratislava,bratislava+castle,bratislavsk%C3%BD+hrad,eslovaquia,europa,europe,girl,hombre,man,martha,mujer,ni%C3%B1a,sarah,slovakia,slovensko,woman","S2CellId":"46ddc00000000000","result":3085,"accuracy":0.055180125,"title":"Outside+the+castle","description":"Bratislava%2C+Slovakia"}
{"id":7296359774,"url":"http://farm8.staticflickr.com/7230/7296359774_e44037493c.jpg","path":"15c/6b0/15c6b0f3937b740cb8ea1354bc33177.jpg","date":"2012-05-29","year":2012,"month":5,"lon":17.116081,"lat":48.127396,"tags":"bilboard,bratislava,plag%C3%A1t,tower+block","S2CellId":"89d4d40000000000","result":9260,"accuracy":0.03339548,"title":"Bilboards+%28Contemparary%29","description":"Bratislava-Petr%C5%BEalka%0A%0A%3Ci%3ENikon+N65+%7C+Fuji+Superia+200%3C%2Fi%3E"}
{"id":456861017,"url":"http://farm1.staticflickr.com/224/456861017_3c77bf2e52.jpg","path":"b47/744/b47744c5d3e3ff8ddf886cf549b8eab.jpg","date":"2007-03-17","year":2007,"month":3,"lon":17.868135,"lat":48.330467,"tags":"flower,macro,nature,rumanova,slovakia,spring","S2CellId":"89c6fc0000000000","result":9178,"accuracy":0.008103768,"title":"P3170250"}
{"id":5557015504,"url":"http://farm6.staticflickr.com/5145/5557015504_2c01a84c55.jpg","path":"6bb/d8c/6bbd8ca9f1db42589abe7865ec78952.jpg","date":"2011-03-24","year":2011,"month":3,"lon":17.947634,"lat":48.91948,"tags":"analog,bw,canonet,demi+17ee,film,half-frame,misa","S2CellId":"52b5000000000000","result":5996,"accuracy":0.004569351,"title":"misa+recording"}
{"id":5361364658,"url":"http://farm6.staticflickr.com/5082/5361364658_35ddba7d62.jpg","path":"5eb/f25/5ebf25df15d24291a63794a4e6b16d.jpg","date":"2011-01-16","year":2011,"month":1,"lon":17.44011,"lat":48.82882,"tags":"17-50%2F2.8,evening,nikon,nikon+d90,senica,sky,slovakia,sobotiste,sun,sunset,tamron,view,zahorie,zalostna","S2CellId":"54c7000000000000","result":6307,"accuracy":0.04370141,"title":"%C5%BDalostin%C3%A1+peak+4"}
{"id":186475704,"url":"http://farm1.staticflickr.com/58/186475704_fdb3d439b9.jpg","path":"6e4/4d3/6e44d363a59288973b9afdf656909e4c.jpg","date":"2006-06-22","year":2006,"month":6,"lon":17.10434,"lat":48.15601,"tags":"bratislava,bridge,slovakia,sommarferie2006","S2CellId":"47c4500000000000","result":4265,"accuracy":0.017715652,"title":"IMG_4331"}
{"id":390099148,"url":"http://farm1.staticflickr.com/171/390099148_46775f9a26.jpg","path":"fb3/dfe/fb3dfe3fd793c2d4668a31ce8f9ec0b2.jpg","date":"2007-01-25","year":2007,"month":1,"lon":17.11052,"lat":48.152344,"tags":"bratislava,novinkachudoba%E2%84%A2","S2CellId":"880fd24000000000","result":8163,"accuracy":0.023935432}
{"id":5481855742,"url":"http://farm6.staticflickr.com/5258/5481855742_cab43c484d.jpg","path":"b18/7ba/b187ba1c48e9add85c9f5b668f9e4bab.jpg","date":"2007-12-08","year":2007,"month":12,"lon":17.097666,"lat":48.142666,"tags":"iphoto+original","S2CellId":"476c890000000000","result":3327,"accuracy":0.15951863,"title":"Castillo+de+Bratislava+-+08"}
{"id":3415784844,"url":"http://farm4.staticflickr.com/3132/3415784844_26f9596026.jpg","path":"9c6/2a3/9c62a3bae5fac0318faf24bebdccca0.jpg","date":"2009-04-05","year":2009,"month":4,"lon":17.099993,"lat":48.15367,"tags":"couple,grass,landscape,memorial,monument,slavin,spring","S2CellId":"89c258fec0000000","result":8990,"accuracy":0.05007472,"title":"Teen+love+in+Slavin"}
{"id":3620895702,"url":"http://farm3.staticflickr.com/2453/3620895702_d3313a4cb3.jpg","path":"51c/285/51c2858580bcbd443f80bc9186b6334.jpg","date":"2009-06-03","year":2009,"month":6,"lon":17.11703,"lat":48.137123,"tags":"2009,blue,bratislava,clouds,film,grass,green,jun,out,sky,slovakia,svk,trip,viv+uws,water,wide+angle,work","S2CellId":"476c890000000000","result":3327,"accuracy":0.06650269,"title":"20090603T133500","description":"Walking+across+Star%C3%BD+Most+%28old+bridge%29+from+the+Old+Town+towards+the+suburbs.+View+along+the+Danube+to+the+castle.%0AWork+trip+to+Bratislava%2C+Slovakia.%0A%5BShot%3A+Viv+UWS%2C+36+Kodak+Portra+160+VC+-+expired.%5D"}
{"id":2522112690,"url":"http://farm4.staticflickr.com/3203/2522112690_c042914786.jpg","path":"901/a2a/901a2a8c7289824f4a28e9341afb3.jpg","date":"2008-05-13","year":2008,"month":5,"lon":17.5813,"lat":48.378944,"tags":"slovakia,trnava","S2CellId":"8085814000000000","result":6961,"accuracy":0.03706563,"title":"trnava+8"}
{"id":2824911544,"url":"http://farm4.staticflickr.com/3141/2824911544_fb66884e62.jpg","path":"e43/26e/e4326ea65c91c4c01957e0eb5f1d0bd.jpg","date":"2008-09-01","year":2008,"month":9,"lon":17.108545,"lat":48.144527,"tags":"bratislava","S2CellId":"0d56c00000000000","result":472,"accuracy":0.01673371,"title":"old+city+hall","description":"in+bratislava"}
{"id":5605218331,"url":"http://farm5.staticflickr.com/4099/5605218331_ab411a6887.jpg","path":"ec6/cd3/ec6cd378ab1bd264a037c0da9d7830fa.jpg","date":"2011-04-05","year":2011,"month":4,"lon":17.029558,"lat":48.190983,"tags":"bars,branch,flower,macro,steel,tree","S2CellId":"8640bfc000000000","result":7555,"accuracy":0.0023684409,"title":"growing+from+the+metal"}
{"id":3099925043,"url":"http://farm4.staticflickr.com/3182/3099925043_0a6d2791b3.jpg","path":"51d/001/51d001b2f1cb4a2d215fa5fe62c16.jpg","date":"2008-12-03","year":2008,"month":12,"lon":17.106754,"lat":48.14412,"tags":"bratislava,slovak","S2CellId":"8620a60c00000000","result":7510,"accuracy":0.0065283673,"title":"DSC_3471"}
{"id":5857625904,"url":"http://farm6.staticflickr.com/5158/5857625904_2e15b67ec0.jpg","path":"308/292/3082929ba15fe7713f3a9647764b488c.jpg","date":"2011-06-21","year":2011,"month":6,"lon":17.091978,"lat":48.139515,"tags":"central,europe,hrad+dev%C3%ADn,slovakia","S2CellId":"47fcc00000000000","result":4736,"accuracy":0.13186558,"title":"Hrad+Dev%C3%ADn+lake","description":"The+lake+at+Hrad+Dev%C3%ADn"}
{"id":3861172653,"url":"http://farm4.staticflickr.com/3520/3861172653_2b6c3fdf4e.jpg","path":"c5b/281/c5b2811462f4e7e5199eb72f1a48f6.jpg","date":"2009-08-26","year":2009,"month":8,"lon":17.086164,"lat":48.15527,"tags":"automix.sk,ford,lowlight,sunset","S2CellId":"4749000000000000","result":3293,"accuracy":0.013219427,"title":"ford"}
{"id":4451198535,"url":"http://farm3.staticflickr.com/2707/4451198535_20eb5876e1.jpg","path":"cee/c5a/ceec5a0191d33cb624e49b26f853d4.jpg","date":"2010-03-19","year":2010,"month":3,"lon":17.10022,"lat":48.15509,"tags":"bratislava%3B,city%3B,slovakia%3B","S2CellId":"479aa10000000000","result":3798,"accuracy":0.14497223,"title":"White+Tiger+in+Bratislava+Zoo"}
{"id":10174952205,"url":"http://farm6.staticflickr.com/5488/10174952205_73efa80e63.jpg","path":"831/070/831070d2346838f707d90137ba6d4d7.jpg","date":"2007-05-19","year":2007,"month":5,"lon":17.076702,"lat":48.144554,"tags":"bratislava","S2CellId":"476c890000000000","result":3327,"accuracy":0.108277075,"title":"img_5405","description":"Bratislava"}
{"id":3622733976,"url":"http://farm4.staticflickr.com/3345/3622733976_bc28f3f234.jpg","path":"739/14c/73914cdfb35dcdaf94f15a79b344adfb.jpg","date":"2009-06-12","year":2009,"month":6,"lon":17.099705,"lat":48.135277,"tags":"festival,urban,wilsonic,wilsonic+2009","S2CellId":"478c64d000000000","result":3661,"accuracy":0.025558084,"title":"Tim+Exile"}
{"id":8238679943,"url":"http://farm9.staticflickr.com/8201/8238679943_68773230c5.jpg","path":"e14/736/e14736d2926552f7908e237bfb47f6b2.jpg","date":"2012-12-02","year":2012,"month":12,"lon":17.123104,"lat":48.139843,"tags":"%C5%A1tef%C3%A1nik,deer,lion,monument,statue","S2CellId":"476c890000000000","result":3327,"accuracy":0.057634708,"title":"%C5%A0tef%C3%A1nik+and+lion","description":"The+man+on+the+bin+was+important+contributor+to+constituting+of+the+first+state+of+Czech+and+Slovak+nations+%281918%29.+The+lion+above+was+part+of+state+symbols+of+the+state."}
{"id":2137508378,"url":"http://farm3.staticflickr.com/2122/2137508378_d72384444a.jpg","path":"87c/8a8/87c8a820c835a5d1583fca1b4c706b.jpg","date":"2007-09-24","year":2007,"month":9,"lon":17.109123,"lat":48.14384,"tags":"%C3%B6sterreich,austria,bratislava,primate%27s+palace,slovakia,unlimitedphotos,vienna,wien","S2CellId":"470b94e900000000","result":3166,"accuracy":0.0222205,"title":"Johann+Nepomuk+Hummel+4"}
{"id":3099865431,"url":"http://farm4.staticflickr.com/3067/3099865431_d3a0b7a6a3.jpg","path":"cc9/ae5/cc9ae58c26820ea5237d7e77b78f60.jpg","date":"2008-11-30","year":2008,"month":11,"lon":17.108473,"lat":48.14387,"tags":"bratislava,slovak","S2CellId":"89b7b7ec00000000","result":8879,"accuracy":0.014450291,"title":"DSC_3098"}
{"id":5901024159,"url":"http://farm7.staticflickr.com/6045/5901024159_3cfbf116d6.jpg","path":"d45/71f/d4571f205ed82057edef2978c2af59fb.jpg","date":"2011-07-01","year":2011,"month":7,"lon":17.099705,"lat":48.15384,"tags":"bratislava","S2CellId":"14d3000000000000","result":1329,"accuracy":0.039930176,"title":"Slavin+War+Cemetery"}
{"id":445355350,"url":"http://farm1.staticflickr.com/196/445355350_fd6725a54c.jpg","path":"1d3/740/1d37409af71d7b4f22a6bea33a9fa9b1.jpg","date":"2007-03-29","year":2007,"month":3,"lon":17.073097,"lat":48.15326,"tags":"auto-upload","S2CellId":"882b34ac00000000","result":8246,"accuracy":0.0908064,"title":"Hard+nah+%3F"}
{"id":2341728144,"url":"http://farm4.staticflickr.com/3085/2341728144_1ba302c790.jpg","path":"d58/99c/d5899c815b7b47f5f74ebc8b1042f9.jpg","date":"2007-09-22","year":2007,"month":9,"lon":17.040997,"lat":48.905067,"tags":"%C5%BEelezni%C4%8Dn%C3%AD,%C5%BEeleznice,bahn,chemain,pociag,railroad,railroads,railway,railways,train,trains,treno,vlak,vlaky,zug","S2CellId":"47c9b00000000000","result":4397,"accuracy":0.022723434,"title":"Mutenice_DSC_3344"}
{"id":2705789646,"url":"http://farm4.staticflickr.com/3163/2705789646_6e9387c60e.jpg","path":"dd6/818/dd68188e32d5e2cc75a655cc5e3896.jpg","date":"2008-07-15","year":2008,"month":7,"lon":17.332005,"lat":48.3954,"tags":"europe,friends,pentax,slovakia","S2CellId":"12b6ac0000000000","result":818,"accuracy":0.014138746,"title":"IMGP8191.JPG"}
{"id":3781908095,"url":"http://farm4.staticflickr.com/3520/3781908095_94ee09d650.jpg","path":"5d6/719/5d67191e3232e879e17da6499c87e3.jpg","date":"2009-07-31","year":2009,"month":7,"lon":17.808966,"lat":48.862484,"tags":"chata,horse,jan","S2CellId":"8842400000000000","result":8397,"accuracy":0.49796537,"title":"P1050414"}
{"id":2652944867,"url":"http://farm4.staticflickr.com/3292/2652944867_ceb6487781.jpg","path":"488/3f0/4883f0ab2683db2aad734156e9b950a5.jpg","date":"2008-07-08","year":2008,"month":7,"lon":17.107258,"lat":48.14221,"tags":"architecture,art,artist,artist+in+residency,benjamin+page,benjamin+page+travel,botanical,bratislava,budapest,designer,interior+design,landscape,nature+humanity%2C+society%2C+adventure%2C+eastern+europe%2C+travel,people,photo,plants,prague,society,urban,vienna","S2CellId":"476c890000000000","result":3327,"accuracy":0.15710889,"title":"Benjamin+Page%27s+Solvakia","description":"oldtown+tower"}
{"id":2934420452,"url":"http://farm3.staticflickr.com/2001/2934420452_beb5a19f5c.jpg","path":"3be/baa/3bebaa32962bd0fc1a5023d9b075bad1.jpg","date":"2008-09-27","year":2008,"month":9,"lon":17.26656,"lat":48.288334,"tags":"narodny+salon+vin,pezinok,slovakia,slovensko,vinobranie,wine+harvest+festival","S2CellId":"47e9400000000000","result":4694,"accuracy":0.17846327,"title":"N%C3%A1rodn%C3%BD+sal%C3%B3n+v%C3%ADn+Slovenskej+republiky"}
{"id":2216622548,"url":"http://farm3.staticflickr.com/2208/2216622548_4a808bb383.jpg","path":"35c/ffa/35cffa8fc7f73fb9432fca7e583436e.jpg","date":"2006-01-24","year":2006,"month":1,"lon":17.217808,"lat":48.23439,"tags":"carpathian+mountains,carpathians,forest,karpaty,landscape,nature,nature+reserve,podunajsk%C3%A1+rovina,podunajsko,pr%C3%ADrodn%C3%A1+rezerv%C3%A1cia,slovakia,western+slovakia,winter","S2CellId":"89cd000000000000","result":9216,"accuracy":0.024268653,"title":"Slovakia%2C+Podunajsko+region","description":"frozen+boggy+alder+forest+in+nature+reserve+%C5%A0%C3%BAr+%2F+n%C3%A1rodn%C3%A1+pr%C3%ADrodn%C3%A1+rezerv%C3%A1cia+%C5%A0%C3%BAr%2C+zamrznut%C3%BD+slatinn%C3%BD+jel%C5%A1ov%C3%BD+les"}
{"id":3846543506,"url":"http://farm4.staticflickr.com/3006/3846543506_183f6f1bc7.jpg","path":"aac/368/aac368714f12b26469fcb3dc87848afc.jpg","date":"2009-04-19","year":2009,"month":4,"lon":17.112923,"lat":48.136795,"tags":"bratislava,bratislavsky,danube,hrad,night,noc,river","S2CellId":"4cb8950000000000","result":5865,"accuracy":0.13651313,"title":"Lazy+night+%2F+Noc+je+leniv%C3%A1","description":"I+like+this+view+of+Bratislava+most+of+all."}
{"id":2479591829,"url":"http://farm4.staticflickr.com/3261/2479591829_d59ff20af0.jpg","path":"766/c1b/766c1baa646a8a9f4589163b59a99ed.jpg","date":"2008-05-10","year":2008,"month":5,"lon":17.107986,"lat":48.150284,"tags":"preparazione,priprava","S2CellId":"487604ce50000000","result":5237,"accuracy":0.012985905,"title":"Bratislava","description":"Slovakia"}
