{"id":3598547568,"url":"http://farm3.staticflickr.com/2191/3598547568_c063a2f733.jpg","path":"83a/4c0/83a4c0ccb715128120e5e7405ea91.jpg","date":"2009-05-06","year":2009,"month":5,"lon":72.78305,"lat":40.554504,"tags":"%D0%BA%D0%B8%D1%80%D0%B3%D0%B8%CC%81%D0%B7%D0%B8%D1%8F,%D0%BA%D1%8B%D1%80%D0%B3%D1%8B%D0%B7%D1%81%D1%82%D0%B0%CC%81%D0%BD,kirghisie,kirghizie,kirghizistan,kirghizstan,kyrgyzstan,osh,s%C3%BCleyman+too","S2CellId":"80c2bcc000000000","result":7169,"accuracy":0.045005225,"title":"Osh%2C+S%C3%BCleyman+Too"}
{"id":2736236153,"url":"http://farm4.staticflickr.com/3257/2736236153_f0bb90de57.jpg","path":"f3d/534/f3d534b5489edec01cf44f39798426.jpg","date":"2008-07-21","year":2008,"month":7,"lon":73.9865,"lat":40.731167,"tags":"spaced","S2CellId":"89c2599900000000","result":9021,"accuracy":0.073946595,"title":"IMG_0198"}
{"id":3575635151,"url":"http://farm4.staticflickr.com/3592/3575635151_15ee00130b.jpg","path":"8ef/021/8ef021175ceb4291d4ad6147c1feb9.jpg","date":"2009-05-06","year":2009,"month":5,"lon":72.9966,"lat":40.892754,"tags":"h%C3%B4tel,hotel,jalalabad,kyrgystan","S2CellId":"12d5840000000000","result":920,"accuracy":0.49275172,"title":"Jalalabad%2C+h%C3%B4tel+Kut-Bolsun"}
{"id":521245036,"url":"http://farm1.staticflickr.com/233/521245036_f70c323a90.jpg","path":"7bc/955/7bc955acc1a4e3ee61d6afcd1dd9fc4e.jpg","date":"2005-08-04","year":2005,"month":8,"lon":74.9901,"lat":41.03929,"tags":"2005+kirghizie,kirghizie,kyrgystan","S2CellId":"4010000000000000","result":2650,"accuracy":0.061924968,"title":"Vue+du+col+MELS"}
{"id":3851057220,"url":"http://farm3.staticflickr.com/2580/3851057220_8a2827a88d.jpg","path":"f5b/763/f5b7636f5a2c61ae4b2aff3f40732d.jpg","date":"2009-08-08","year":2009,"month":8,"lon":74.162,"lat":40.7335,"tags":"ella","S2CellId":"880fd2c000000000","result":8164,"accuracy":0.36866045,"title":"ella+in+nj+transit"}
{"id":322464740,"url":"http://farm1.staticflickr.com/138/322464740_298e0fb575.jpg","path":"f54/4ce/f544ce3dede258ba81bc0a16174b50.jpg","date":"2006-12-13","year":2006,"month":12,"lon":73.03711,"lat":41.75492,"tags":"bishkek,helicopter,kyrgizia,mobile,sky","S2CellId":"6d2b000000000000","result":6808,"accuracy":0.0943525,"title":"KyrgiziaDec06+341"}
{"id":3576440176,"url":"http://farm4.staticflickr.com/3323/3576440176_45db58ecd0.jpg","path":"98f/010/98f010ac07e5e5939c6be6486975452.jpg","date":"2009-05-06","year":2009,"month":5,"lon":72.9966,"lat":40.892754,"tags":"gis,jalalabad,kyrgystan,pamir","S2CellId":"54af000000000000","result":6292,"accuracy":0.04974219,"title":"Jalalabad+%28Kyrgyzstan%29"}
{"id":3992853306,"url":"http://farm3.staticflickr.com/2613/3992853306_469fa6d5e7.jpg","path":"56a/955/56a955ecf185ad66fb80a92fc47dab24.jpg","date":"2009-10-03","year":2009,"month":10,"lon":72.79898,"lat":40.5236,"tags":"1980,bear,bj%C3%B8rn,cozy,garbage+dump,kyrgyzstan,mascot,maskott,misha,moscow+1980,moscow+olympics,moskva-ol,olympic+mascot,olympics,olympisk,olympisk+maskott,osh,osj,residential+block,sovjetisk,sovjetunionen,teddybear","S2CellId":"89c2593000000000","result":9000,"accuracy":0.019911496,"title":"Misha%2C+Olympic+Mascot%2C+Moscow+1980","description":"Osh%2C+Kyrgyzstan"}
{"id":2968052794,"url":"http://farm4.staticflickr.com/3276/2968052794_caec3f6d36.jpg","path":"401/115/4011158f5128ffd088458fe45ba8c7fd.jpg","date":"2008-10-02","year":2008,"month":10,"lon":72.07924,"lat":40.53494,"tags":"kuva,mohhamedjon%27s,uzbekistan","S2CellId":"80d9549000000000","result":7295,"accuracy":0.00905765,"title":"74+bukk+bwaaakk"}
{"id":3523143161,"url":"http://farm4.staticflickr.com/3297/3523143161_b80f6b034c.jpg","path":"cbf/333/cbf3333c225224530993f1d76b84f8d.jpg","date":"2009-05-09","year":2009,"month":5,"lon":72.0,"lat":41.0,"tags":"chiloe","S2CellId":"548ff00000000000","result":6177,"accuracy":0.009584469,"title":"."}
