{"id":9079024041,"url":"http://farm6.staticflickr.com/5340/9079024041_7d108b1b54.jpg","path":"3ff/c32/3ffc32bcfa6308883cc879468f2349.jpg","date":"2009-06-26","year":2009,"month":6,"lon":-151.058,"lat":60.4878,"tags":"aerial,blue,clouds,greenery,sky","S2CellId":"56c8c00000000000","result":6320,"accuracy":0.27151194}
{"id":98113524,"url":"http://farm1.staticflickr.com/38/98113524_7e741bc8dc.jpg","path":"7fb/725/7fb7255e257ed93d22445f1cd58fdd4.jpg","date":"2004-12-31","year":2004,"month":12,"lon":-151.08981,"lat":60.494015,"tags":"alaska,outside,snow,vacation","S2CellId":"4887d40000000000","result":5726,"accuracy":0.016617658,"title":"bug+in+snow","description":"The+VW+just+wasn%27t+made+for+this+kind+of+weather."}
{"id":7997682945,"url":"http://farm9.staticflickr.com/8436/7997682945_2fcf7810e2.jpg","path":"4da/673/4da673ad34eaf1405240c0304d42eea3.jpg","date":"2012-05-15","year":2012,"month":5,"lon":-151.70581,"lat":60.02754,"tags":"alaska,birds","S2CellId":"4c90000000000000","result":5830,"accuracy":0.012448197,"title":"IMG_7467"}
{"id":8966853412,"url":"http://farm9.staticflickr.com/8420/8966853412_3fe91c77de.jpg","path":"1a6/db8/1a6db8c6dfbc0ec99d0a8f9a9c36fee.jpg","date":"2013-06-05","year":2013,"month":6,"lon":-151.2775,"lat":60.554333,"tags":"alaska,kenai,kenai+beach","S2CellId":"4787c00000000000","result":3614,"accuracy":0.052184716,"title":"Kenai+Beach"}
{"id":6567008725,"url":"http://farm8.staticflickr.com/7163/6567008725_0b8208c91a.jpg","path":"3c4/a67/3c4a67d6f31b95cb64b877457472b5.jpg","date":"2011-07-22","year":2011,"month":7,"lon":-151.28835,"lat":60.42864,"tags":"alaska,beach,dead,dessicated,fish,flounder,kasilof,pseudopleuronectes+americanus,sand","S2CellId":"5493000000000000","result":6233,"accuracy":0.17375922,"title":"Flounder","description":"Poor+flounder.+I%27m+not+sure+how+it+got+this+way.+It+doesn%27t+look+like+anyone+caught+it.+Maybe+it+was+just+old+age.+It+looks+like+a+gull+got+to+one+of+its+eyes.+Now+it%27s+completely+hardened+and+dessicated."}
{"id":7862759324,"url":"http://farm9.staticflickr.com/8433/7862759324_8f7c7bdc80.jpg","path":"f59/933/f599334040e511a790e1e637a5abd7c.jpg","date":"2012-06-23","year":2012,"month":6,"lon":-151.2529,"lat":60.56909,"tags":"air+transport,alaska,aviation,bushplanes,classic+aviation,floatplanes,planes,propliners,seaplanes,vintage+aviation","S2CellId":"5490040000000000","result":6178,"accuracy":0.030156458,"title":"Kenai_5605","description":"Everts%27+DC-6+N7780B"}
{"id":5115883147,"url":"http://farm2.staticflickr.com/1394/5115883147_b98ab78bfb.jpg","path":"76c/6f3/76c6f34d70d0b880f86ed7b20caee6b.jpg","date":"2010-10-25","year":2010,"month":10,"lon":-151.09137,"lat":60.49054,"tags":"adapter+bars,aluminum,atv+carrier,atv+hauler,atv+rack,atv+truck+rack,black+line-x,burgundy+or+purple+truck,diamond-plate,diamondback,diamondback-x,driveway,ford,fs08,hd,heavy-duty+truck+bed+cover,one+panel+open,passenger+side+taillight+view,pickup+truck,requested+for+new+website,side-load,standard+short+bed,super+duty,tonneau+cover,truck+bed+cover","S2CellId":"8793f00000000000","result":7921,"accuracy":0.077435575,"description":"DiamondBack-X+Side+Loading+Package+w%2FExtension+on+a+burgundy+F-250+belonging+to+Brian+from+Alaska."}
{"id":9119471123,"url":"http://farm4.staticflickr.com/3733/9119471123_deaa07c3ef.jpg","path":"aa5/c1a/aa5c1a48bbdae5ddeb51277e6293bb0.jpg","date":"2013-06-19","year":2013,"month":6,"lon":-151.2019,"lat":60.55937,"tags":"alaska+baseball+league,baseball,college+baseball,coral+seymour+memorial+ballpark,mat-su+miners,peninsula+oilers","S2CellId":"6c40000000000000","result":6780,"accuracy":0.011520992,"title":"Coral+Seymour+Memorial+Ballpark"}
{"id":9203446589,"url":"http://farm3.staticflickr.com/2825/9203446589_3513104fed.jpg","path":"818/cd3/818cd31bccd2ebb36caf3d5330b278.jpg","date":"2013-07-03","year":2013,"month":7,"lon":-151.10617,"lat":60.552498,"tags":"alaska,kenai","S2CellId":"5140000000000000","result":5964,"accuracy":0.13014917,"title":"Kenai%2C+Alaska"}
{"id":8966948046,"url":"http://farm8.staticflickr.com/7389/8966948046_d3aee68221.jpg","path":"b85/677/b856773aa4be272bf7944961df335bc.jpg","date":"2013-06-05","year":2013,"month":6,"lon":-151.2775,"lat":60.554333,"tags":"alaska,kenai,kenai+beach","S2CellId":"5140000000000000","result":5964,"accuracy":0.3386627,"title":"Kenai+Beach"}
{"id":3834428079,"url":"http://farm4.staticflickr.com/3457/3834428079_9c3520199f.jpg","path":"4f0/b6e/4f0b6e0f248ed4dfba395b3fcce386.jpg","date":"2009-08-18","year":2009,"month":8,"lon":-151.26826,"lat":60.550484,"tags":"alaska,bcm,beach,cook+inlet,kenai,mission","S2CellId":"5330000000000000","result":6023,"accuracy":0.007916769,"title":"Worship+on+the+Beach","description":"Cook+Inlet"}
{"id":9155584913,"url":"http://farm4.staticflickr.com/3707/9155584913_2bf44fb219.jpg","path":"bdd/28b/bdd28bb27c1c9f981ef8e97833c617c.jpg","date":"2013-06-19","year":2013,"month":6,"lon":-151.07733,"lat":60.47983,"tags":"alaska,soldotna","S2CellId":"89c2588f00000000","result":8969,"accuracy":0.068897754,"title":"Soldotna%2C+Alaska"}
{"id":3253979873,"url":"http://farm4.staticflickr.com/3259/3253979873_45cbfb2170.jpg","path":"55c/bea/55cbeaaf53d931d8d7fe4d9cc228f43.jpg","date":"2007-05-02","year":2007,"month":5,"lon":-151.67862,"lat":60.045475,"tags":"fishing,ninilchik","S2CellId":"33a4000000000000","result":1932,"accuracy":0.080420434,"title":"Hello+Pacific"}
{"id":9317686464,"url":"http://farm6.staticflickr.com/5483/9317686464_33f1378d17.jpg","path":"d0f/78c/d0f78ca130bc4364cd27fec5a42f7961.jpg","date":"2013-07-16","year":2013,"month":7,"lon":-151.27716,"lat":60.567,"tags":"alaska,kenai","S2CellId":"80dd317000000000","result":7376,"accuracy":0.06601047,"title":"Kenai%2C+Alaska"}
{"id":9079053083,"url":"http://farm4.staticflickr.com/3718/9079053083_704183baf1.jpg","path":"327/8e4/3278e4f82e4a7da09b621ec5d22caff4.jpg","date":"2009-06-26","year":2009,"month":6,"lon":-151.058,"lat":60.4878,"tags":"blue,clouds,greenery,sky","S2CellId":"5140000000000000","result":5964,"accuracy":0.32054365}
