{"id":1509776006,"url":"http://farm3.staticflickr.com/2014/1509776006_7e9d361ee7.jpg","path":"5c9/abe/5c9abed6a68c6d1c2460b569da24f92.jpg","date":"2007-07-12","year":2007,"month":7,"lon":30.015572,"lat":63.310623,"tags":"lieksa,satama","S2CellId":"467c000000000000","result":2949,"accuracy":0.09532594,"title":"12.07.07+Lieksan+satama+8"}
{"id":4907674215,"url":"http://farm5.staticflickr.com/4082/4907674215_931bf10e62.jpg","path":"a01/39d/a0139d9984b6af88746ab40b138569c.jpg","date":"2009-07-23","year":2009,"month":7,"lon":30.476383,"lat":63.343327,"tags":"finland,lieksa","S2CellId":"45d4000000000000","result":2755,"accuracy":0.15585527,"title":"Lieksa","description":"%282009-07-23_17-40-31.jpg%29"}
{"id":7760636974,"url":"http://farm8.staticflickr.com/7136/7760636974_f6a63415d9.jpg","path":"263/f86/263f8657bc60385944d486a3c02049e0.jpg","date":"2012-07-26","year":2012,"month":7,"lon":30.033188,"lat":63.311104,"tags":"%D0%BB%D0%B5%D1%82%D0%BE,%D1%84%D0%B8%D0%BD%D0%BB%D1%8F%D0%BD%D0%B4%D0%B8%D1%8F,finland,summer,suomi","S2CellId":"8097c00000000000","result":7105,"accuracy":0.22854343}
{"id":1509351187,"url":"http://farm3.staticflickr.com/2254/1509351187_e2892cbd73.jpg","path":"4e4/c12/4e4c1264330b58af0b0ee5ada284756.jpg","date":"2007-05-18","year":2007,"month":5,"lon":30.032158,"lat":63.310303,"tags":"keskusta,lieksa","S2CellId":"5140000000000000","result":5964,"accuracy":0.04901275,"title":"18.05.07+Pielisen+museo+14"}
{"id":8864872694,"url":"http://farm4.staticflickr.com/3680/8864872694_09824b58c6.jpg","path":"dbd/6dc/dbd6dc386c266e7677348a7bd4215b88.jpg","date":"2013-05-21","year":2013,"month":5,"lon":30.244024,"lat":63.336483,"tags":"2.39%3A1,24-70mm+f2.8,birdwatching+tower,d800,dslr,fi,forest,hdr,landscape,lieksa,nikkor,nikon,pine,pohjois-karjala,ruunaantie,suomi,trees,widescreen,zoom","S2CellId":"54bf400000000000","result":6299,"accuracy":0.044230185,"title":"Fallen+Forest","description":"%2F%2F+tortured+mind+photography+%2F%2F+%3Ca+href%3D%22http%3A%2F%2Ftorturedmind.org%22+rel%3D%22nofollow%22%3Ewebsite%3C%2Fa%3E+%2F%2F+%3Ca+href%3D%22http%3A%2F%2Ftorturedmind.org%2Fabout%2F%22+rel%3D%22nofollow%22%3Econtact%3C%2Fa%3E+%2F%2F"}
{"id":9243577992,"url":"http://farm6.staticflickr.com/5493/9243577992_3caf0c776e.jpg","path":"8cf/282/8cf2821fc245276251e7501f5fb5a1e7.jpg","date":"2013-07-06","year":2013,"month":7,"lon":30.783283,"lat":63.161243,"tags":"hdr,landscape,nikon,nikon+d7000,pauli+j%C3%A4rviluoto,sky,sunset","S2CellId":"539c000000000000","result":6069,"accuracy":0.027986022,"title":"Skylake","description":"Something+from+last+weekend+that+I+ain%27t+completly++satisfied%2C+but+the+sky+was+so+phenomenal+that+I+can%27t+throw+this+to+garbage"}
