{"id":5931503514,"url":"http://farm7.staticflickr.com/6148/5931503514_ac38065212.jpg","path":"597/3b0/5973b0688cad393f8586369dcbdf79d.jpg","date":"2011-07-12","year":2011,"month":7,"lon":22.751804,"lat":59.008617,"tags":"juulia,purjetamas","S2CellId":"14af000000000000","result":1273,"accuracy":0.025410432,"title":"DSCN1388","description":"Puhkus+Hiiumaal"}
{"id":249184688,"url":"http://farm1.staticflickr.com/87/249184688_24aa279dc0.jpg","path":"faf/51f/faf51f7161d2e04ae897f4d991fa21c.jpg","date":"2006-09-13","year":2006,"month":9,"lon":22.916965,"lat":59.82459,"tags":"ballooning,finland,gasballooning,gordon+bennett,vacations","S2CellId":"476d07d000000000","result":3353,"accuracy":0.06155747,"title":"GordonBennett_0609_7_RoadToBrussels+11"}
{"id":5187278630,"url":"http://farm5.staticflickr.com/4084/5187278630_f8990f3063.jpg","path":"27f/a36/27fa368bb13ab7854e15cc6484359443.jpg","date":"2009-07-04","year":2009,"month":7,"lon":22.818604,"lat":59.47857,"tags":"2009,petersburg,race,racing,saint,ship,tall","S2CellId":"88d7000000000000","result":8573,"accuracy":0.02316484,"title":"Tall+ship+race+2009+racing+to+saint+petersburg"}
{"id":10677419946,"url":"http://farm8.staticflickr.com/7344/10677419946_15c3d79e45.jpg","path":"23c/3af/23c3af5f9dbb48c063406b38a9d57bd.jpg","date":"2013-11-03","year":2013,"month":11,"lon":22.97039,"lat":59.82423,"tags":"2013,808,autumn,cameraphone,carl+zeiss,finland,foggy,foggy+hanko+water+tower,hanko,hugovk,hvk,nokia,nokia+808+pureview,november,pureview,southern+finland,syksy,tower,uudenmaan+maakunta,water","S2CellId":"47b6400000000000","result":4028,"accuracy":0.017159386,"title":"Foggy+Hanko+water+tower"}
{"id":525992880,"url":"http://farm2.staticflickr.com/1164/525992880_b90a6ef73c.jpg","path":"b73/c96/b73c9672bb779049c2506dd30a4787d.jpg","date":"2006-06-29","year":2006,"month":6,"lon":22.935333,"lat":59.775066,"tags":"europe,eurotrip,finland,helsinki","S2CellId":"4440000000000000","result":2748,"accuracy":0.025102437,"title":"IMG_0034.JPG"}
{"id":1301628703,"url":"http://farm2.staticflickr.com/1092/1301628703_2c303ec2bf.jpg","path":"154/ab7/154ab7bcc2ec41fa811dcee5a77dbb3.jpg","date":"2007-09-01","year":2007,"month":9,"lon":22.465239,"lat":59.75032,"tags":"bengtsk%C3%A4r,finland,lighthouse,sea,sirkku","S2CellId":"52af000000000000","result":5972,"accuracy":0.017869757,"title":"sadepilvi%C3%A4"}
{"id":2665038121,"url":"http://farm4.staticflickr.com/3193/2665038121_4d113ea167.jpg","path":"1de/935/1de9350ed4c4476a532f7151386de9.jpg","date":"2008-07-12","year":2008,"month":7,"lon":22.49924,"lat":59.72345,"tags":"2008,bengtskar,lighthouse,majakka,moblog,n95,shozu,summer","S2CellId":"0c60500000000000","result":148,"accuracy":0.021955503,"title":"12072008156","description":"-+Camera+phone+upload+powered+by+%3Ca+href%3D%22http%3A%2F%2Fwww.shozu.com%2F%3Futm_source%3Dupload%26utm_medium%3Dgraphic%26utm_campaign%3Dupload_graphic%2F%22+target%3D%22_newwindow%22%3EShoZu%3C%2Fa%3E"}
{"id":2806118300,"url":"http://farm4.staticflickr.com/3183/2806118300_12d6026f1c.jpg","path":"66e/abb/66eabbe2420797d5b10988a90367c8.jpg","date":"2008-08-25","year":2008,"month":8,"lon":22.584269,"lat":59.091457,"tags":"estija,estonia,hiiumaa,kelion%C4%97s,tahkuna","S2CellId":"877c000000000000","result":7905,"accuracy":0.121136084,"title":"Estija_2008+08+25_0007.JPG","description":"Tahkuna+coast"}
{"id":3911338491,"url":"http://farm4.staticflickr.com/3474/3911338491_2f9ac41413.jpg","path":"886/df2/886df2b0cde0fd2c988479db611b971.jpg","date":"2009-09-11","year":2009,"month":9,"lon":22.946835,"lat":59.819366,"tags":"adalia,sailing,trip","S2CellId":"4644400000000000","result":2807,"accuracy":0.09693389,"title":"IMGP0556"}
