{"id":8666353609,"url":"http://farm9.staticflickr.com/8262/8666353609_097c81a5b3.jpg","path":"d8c/f22/d8cf22692736691081b12b1274ee491b.jpg","date":"2009-01-23","year":2009,"month":1,"lon":144.00685,"lat":42.945835,"tags":"%E6%A0%B9%E5%AE%A4%E6%9C%AC%E7%B7%9A","S2CellId":"5f0ac00000000000","result":6346,"accuracy":0.007731206,"title":"2009-01-23_DSC1411"}
{"id":5522036426,"url":"http://farm6.staticflickr.com/5180/5522036426_f53890a056.jpg","path":"b59/7b8/b597b8f79f352838f32ae7e3aacc7a85.jpg","date":"2011-03-12","year":2011,"month":3,"lon":144.37923,"lat":42.98217,"tags":"%E5%8C%97%E6%B5%B7%E9%81%93,%E6%97%A5%E6%9C%AC,%E9%87%A7%E8%B7%AF,hokkaido,japan,kushiro","S2CellId":"46b3000000000000","result":3046,"accuracy":0.020716658,"title":"Shougakkou"}
{"id":4245685925,"url":"http://farm3.staticflickr.com/2541/4245685925_5ace9de7a5.jpg","path":"598/027/598027857e6742db69fdd7a49014799.jpg","date":"2010-01-04","year":2010,"month":1,"lon":144.37752,"lat":42.97828,"tags":"hokkaido,kushiro,man,tunnel","S2CellId":"486e030000000000","result":4954,"accuracy":0.029194543,"title":"IMG_5695"}
{"id":4881051403,"url":"http://farm5.staticflickr.com/4143/4881051403_b038e921a8.jpg","path":"341/21b/34121bdde5b2764ef9331cbf7fd120f9.jpg","date":"2010-08-10","year":2010,"month":8,"lon":144.37923,"lat":42.98217,"tags":"konami,psp,suikoden","S2CellId":"60188b7000000000","result":6477,"accuracy":0.013947846,"title":"Suikoden+I+%26+II+for+PSP","description":"Konami+told+the+English-speaking+world+that+they+refuse+to+release+this+Suikoden+I+%26+II+compilation+in+English.%0A%0AThis+was+the+deciding+factor+in+my+purchase+of+the+PSP+before+the+DS.+Konami+announced+this+UMD+with+the+first+two+Suikoden+games...+and+thirty+seconds+later+mentioned+that+they%27d+never+release+it+state+side.%0A%0ANow+I+have+them+in+portable+format%2C+complete+with+Japanese+practice%21+After+all%2C+I%27ve+played+them+so+many+times+I+don%27t+need+a+translation+anyway.%0A%0AI+LOVE+the+UMD+itself.+Soul+Eater+and+Bright+Shield+runes%2C+HO%21"}
{"id":559530475,"url":"http://farm2.staticflickr.com/1138/559530475_bc0e237f49.jpg","path":"5c6/f1b/5c6f1b4677d51bd8a9c59ec1b3a77.jpg","date":"2004-07-03","year":2004,"month":7,"lon":144.39108,"lat":42.977276,"tags":"harbor,kushiro","S2CellId":"465f9d7000000000","result":2928,"accuracy":0.06464438,"title":"kushiro","description":"%E5%A5%A5%E3%81%AB%E8%8A%B1%E6%99%82%E8%A8%88"}
{"id":8811227067,"url":"http://farm8.staticflickr.com/7294/8811227067_68df5aef35.jpg","path":"e36/6dd/e366dde0b655cd158a82dce296974eb.jpg","date":"2004-01-14","year":2004,"month":1,"lon":144.37923,"lat":42.98217,"tags":"%E8%8C%B6%E9%81%93,%E8%8C%B6%E9%81%93%E9%83%A8,%E9%83%A8%E6%B4%BB,club,equipment,japanese,pottery,tea+ceremony","S2CellId":"89d5400000000000","result":9263,"accuracy":0.010587977,"title":"Tea+Ceremony"}
{"id":5522035642,"url":"http://farm6.staticflickr.com/5294/5522035642_fce3ce77a1.jpg","path":"9da/049/9da0498ce83501cbef44f6388491e5.jpg","date":"2011-03-12","year":2011,"month":3,"lon":144.37923,"lat":42.98217,"tags":"%E5%8C%97%E6%B5%B7%E9%81%93,%E6%97%A5%E6%9C%AC,%E9%87%A7%E8%B7%AF,hokkaido,japan,kushiro","S2CellId":"463a400000000000","result":2769,"accuracy":0.010421567,"title":"051013-051115-011"}
{"id":5521407405,"url":"http://farm6.staticflickr.com/5137/5521407405_6b9b25e99c.jpg","path":"673/ed6/673ed647345dd0d43c9bcc2ce59638.jpg","date":"2004-02-14","year":2004,"month":2,"lon":144.37923,"lat":42.98217,"tags":"%E5%8C%97%E6%B5%B7%E9%81%93,%E6%97%A5%E6%9C%AC,%E6%B9%96,%E9%87%A7%E8%B7%AF,hokkaido,japan,kushrio,lake","S2CellId":"89c2f3c000000000","result":9104,"accuracy":0.12845255,"title":"Lake"}
{"id":6005697064,"url":"http://farm7.staticflickr.com/6142/6005697064_3c9f0f2914.jpg","path":"82b/3e1/82b3e1b995197b56b70408bb0f22a7.jpg","date":"2011-08-03","year":2011,"month":8,"lon":144.3848,"lat":42.98221,"tags":"%E5%8C%97%E5%A4%A7%E9%80%9A,%E5%8C%97%E6%B5%B7%E9%81%93,%E6%9D%B1%E6%A8%AA,%E6%9D%B1%E6%A8%AA%E3%82%A4%E3%83%B3,%E6%9D%B1%E6%A8%AAinn,%E9%87%A7%E8%B7%AF,hokkaido,hotel,kushiro,toyoko+inn","S2CellId":"355ab00000000000","result":2274,"accuracy":0.035696622,"title":"%E6%9D%B1%E6%A8%AAINN%E9%87%A7%E8%B7%AF%E5%8D%81%E5%AD%97%E8%A1%97"}
{"id":8141477086,"url":"http://farm9.staticflickr.com/8465/8141477086_7d9d3d9f5f.jpg","path":"5ab/ede/5abede3cebd5ea7e4535f70dea6c296.jpg","date":"2012-09-19","year":2012,"month":9,"lon":144.3829,"lat":42.990776,"tags":"hokkaido,japan","S2CellId":"5f70000000000000","result":6358,"accuracy":0.13618241,"title":"%E6%B9%BF%E5%8E%9F%E3%81%AE%E9%90%98","description":"%40%E9%87%A7%E8%B7%AF%E9%A7%85"}
{"id":5522035622,"url":"http://farm6.staticflickr.com/5294/5522035622_153af5d090.jpg","path":"624/48b/62448bcb80ffcfb166be15f8ad8ba37.jpg","date":"2011-03-12","year":2011,"month":3,"lon":144.37923,"lat":42.98217,"tags":"%E5%8C%97%E6%B5%B7%E9%81%93,%E6%97%A5%E6%9C%AC,%E9%87%A7%E8%B7%AF,hokkaido,japan,kushiro","S2CellId":"60013c0000000000","result":6413,"accuracy":0.019491382,"title":"051013-051115-010"}
