{"id":2877200916,"url":"http://farm4.staticflickr.com/3259/2877200916_30d2db8ffb.jpg","path":"1c8/17f/1c817f9ba54866af796d0f51964b757.jpg","date":"2008-08-30","year":2008,"month":8,"lon":-16.705948,"lat":14.089295,"tags":"africa,senegal,travel,viajes,viatges","S2CellId":"30cc000000000000","result":1621,"accuracy":0.035079554,"title":"cami"}
{"id":2307467784,"url":"http://farm3.staticflickr.com/2259/2307467784_c401ef0352.jpg","path":"f5f/f58/f5ff588b5998c4b52929fdcf35397f.jpg","date":"2007-12-13","year":2007,"month":12,"lon":-16.612015,"lat":13.362898,"tags":"gambia,royal+tern,sterna+maxima","S2CellId":"4810700000000000","result":4790,"accuracy":0.013001896,"title":"Sterna+maxima+%2F+Royal+Tern","description":"IMG_3188"}
{"id":2149408066,"url":"http://farm3.staticflickr.com/2241/2149408066_8c8117c46d.jpg","path":"542/c34/542c34b558c20b9d752771f447d6894.jpg","date":"2007-12-08","year":2007,"month":12,"lon":-16.612015,"lat":13.362898,"tags":"falco+ardosiaceus,gambia,grey+kestrel","S2CellId":"1950000000000000","result":1435,"accuracy":0.08363095,"title":"Falco+ardosiaceus++%2F+Grey+Kestrel","description":"Maybe+Lizard+Buzzard%3F%0AIMG_1241_fk.JPG"}
{"id":336661986,"url":"http://farm1.staticflickr.com/131/336661986_7a9db426ed.jpg","path":"385/af9/385af92265a5f7ce335e7113aa6f3cc3.jpg","date":"2006-12-28","year":2006,"month":12,"lon":-17.530918,"lat":14.748489,"tags":"almadies,dakar,e300,evolt300,olympus,phare+des+mamelles,pointe+des+almadies,senegal,sunset,west+africa,zd","S2CellId":"4816f00000000000","result":4802,"accuracy":0.15247373,"title":"PC181768","description":"Sunset+at+Pointe+des+Almadies%2C+the+most+westerly+point+on++continental+Africa+--++that+little+spur+belonging+to+the+Cap+Vert+peninsula+that+even+the+crudest+maps+show+jutting+out+into+the+Atlantic."}
{"id":5728185364,"url":"http://farm4.staticflickr.com/3474/5728185364_07fe94d76f.jpg","path":"aae/f50/aaef50a9509f7a3fb02d3b6a2a39784.jpg","date":"2011-05-15","year":2011,"month":5,"lon":-17.457975,"lat":14.76321,"tags":"africa,afrique,autokap,beach,cabana,dakar,kap,kite+aerial+photography,se%CC%81ne%CC%81gal,senegal,west+africa","S2CellId":"80c7000000000000","result":7223,"accuracy":0.052005567,"title":"caban%CC%83a","description":"Image+was+captured+by+a+camera+suspended+by+a+kite+line.+Kite+Aerial+Photography+%28KAP%29+7%27+Rok"}
{"id":99565792,"url":"http://farm1.staticflickr.com/36/99565792_8a25ba7bd0.jpg","path":"3d5/c6c/3d5c6c13d55fbc7023d364c8ebcebd28.jpg","date":"2005-12-27","year":2005,"month":12,"lon":-17.358398,"lat":14.902321,"tags":"africa,popenguine,senegal","S2CellId":"472c000000000000","result":3253,"accuracy":0.008214921}
{"id":2448703372,"url":"http://farm3.staticflickr.com/2217/2448703372_a906b938b6.jpg","path":"74e/791/74e791fc99a69632c18256eb11e659.jpg","date":"2008-04-28","year":2008,"month":4,"lon":-17.62207,"lat":14.796127,"tags":"ae1,africa,baobab,canon,ocean,pluca,program,senegal,travel","S2CellId":"1844000000000000","result":1428,"accuracy":0.047952387,"title":"SE+96+Strade+di+Goree","description":"Senegal%2C+1996"}
{"id":4275457304,"url":"http://farm5.staticflickr.com/4039/4275457304_97694b9624.jpg","path":"f47/e14/f47e14f61683b914266f3a5ae9cdeef.jpg","date":"2009-12-27","year":2009,"month":12,"lon":-16.38585,"lat":13.336676,"tags":"africa,albreda,brown,goat,holiday,the+gambia,white","S2CellId":"1240000000000000","result":651,"accuracy":0.03245049,"title":"Brown+and+White","description":"A+goat+in+Albreda.+I+thought+he+was+doing+a+good+job+of+blending+into+the+place."}
{"id":6084498573,"url":"http://farm7.staticflickr.com/6085/6084498573_a3beea89fc.jpg","path":"c59/36a/c5936a6db2a0cef68583c2d18bed3f6.jpg","date":"2004-08-28","year":2004,"month":8,"lon":-17.008724,"lat":14.438191,"tags":"%E2%80%9Clangue,%E2%80%9Cst.,africa,aw%C3%A8l%C3%A8,baobab,barbarie%E2%80%9D,casamance,dakar,de,fromager,louis%E2%80%9D,mango,marabout,oceano,pescatori,sali,savana,senegal,tabaski,traghetto,villaggio,wour%C3%A8,yoff","S2CellId":"8900400000000000","result":8768,"accuracy":0.0323472,"title":"DSC00500","description":"Pescatori+-+Sali"}
{"id":8868477345,"url":"http://farm8.staticflickr.com/7378/8868477345_8d6703cd21.jpg","path":"d4c/888/d4c88827d259aa6e1d9bed2ae687d.jpg","date":"2013-01-05","year":2013,"month":1,"lon":-16.54541,"lat":12.511665,"tags":"agathe,agathe+hurtig+cadenel,cap+skiring,casamance,commons,creative+commons,danse,hurtig,s%C3%A9n%C3%A9gal,vache","S2CellId":"89b9400000000000","result":8914,"accuracy":0.021272434,"title":"Le+danseur+et+la+vache"}
{"id":3985323648,"url":"http://farm3.staticflickr.com/2424/3985323648_ca3e937997.jpg","path":"a03/4a3/a034a39a80d917a12fca47d635b555b4.jpg","date":"2009-09-24","year":2009,"month":9,"lon":-17.481018,"lat":14.764186,"tags":"africa%2C,cooperacion%2C,cooperation,senegal%2C","S2CellId":"8f2c000000000000","result":9511,"accuracy":0.105538405,"title":"Ni%C3%B1os+de+Yoff"}
{"id":8085840611,"url":"http://farm9.staticflickr.com/8193/8085840611_0402847104.jpg","path":"dd7/1c5/dd71c59a4139b84fa7a3e69186b4cdc6.jpg","date":"2012-10-11","year":2012,"month":10,"lon":-17.466763,"lat":14.752763,"tags":"%E2%80%9Ccamion,%E2%80%9Ccarpa,%E2%80%9Ccucina,%E2%80%9Clangue,%E2%80%9Cst.,%E2%80%9Cthiebou,africa,anacardio,aw%C3%A8l%C3%A8,bambilor,baobab,barbarie%E2%80%9D,barracuda,batik,bogolan,camion,carasol,casamance,dakar,de,demoiselle,dien%E2%80%9D,frigo%E2%80%9D,fromager,gamou,louis%E2%80%9D,mango,maouloud,marabout,oceano,pastori,persone,pescatori,pesci,pompano,rouge%E2%80%9D,sali,savana,senegal,senegalese%E2%80%9D,tabaski,toj%C3%A9,traghetto,villaggio,wour%C3%A8,yawal,yene,yoff,zeb%C3%B9","S2CellId":"1304000000000000","result":955,"accuracy":0.049981385,"title":"Trova+l%27errore"}
{"id":3687603881,"url":"http://farm4.staticflickr.com/3647/3687603881_72a37f8fc9.jpg","path":"842/fdd/842fdd76ec8990d49bf898529b38b727.jpg","date":"2008-11-02","year":2008,"month":11,"lon":-17.487488,"lat":14.728921,"tags":"dakar,senegal,technology","S2CellId":"16c0000000000000","result":1414,"accuracy":0.11272383,"title":"2008-11-02+at+15-00-25+-+Version+2","description":"Internet+Advertisement.+Photo+by+Emily+Jacobi+%2F+New+Words+Media."}
{"id":5848858102,"url":"http://farm3.staticflickr.com/2545/5848858102_e840001fc1.jpg","path":"83e/536/83e53694517f172f193faa3abe94659.jpg","date":"2005-11-26","year":2005,"month":11,"lon":-16.60223,"lat":13.317466,"tags":"uraeginthus+bengalus","S2CellId":"47edc00000000000","result":4703,"accuracy":0.13892677,"title":"Red-cheeked+Cordon-bleu+%28Uraeginthus+bengalus%29+female","description":"The+drabber+female.%0AImage+taken+at+Makasutu%2C+Western+Division%2C+The+Gambia.%0A%0AFramed+by+a+friend."}
{"id":8399771208,"url":"http://farm9.staticflickr.com/8506/8399771208_c7db31cc10.jpg","path":"424/3ef/4243ef56866f333ee87f5296ce95e50.jpg","date":"2012-03-19","year":2012,"month":3,"lon":-17.398567,"lat":14.667712,"tags":"africa,afrique,beach,dakar,esclave,gor%C3%A9e,goree+island,ile,plage,s%C3%A9n%C3%A9gal,sable,slave,soleil","S2CellId":"1453000000000000","result":1198,"accuracy":0.39928025,"title":"Embarcad%C3%A8re"}
{"id":2357112441,"url":"http://farm3.staticflickr.com/2361/2357112441_96da3e1a8f.jpg","path":"56a/974/56a97455f17aa69bd7f8d7b93452319c.jpg","date":"2008-03-16","year":2008,"month":3,"lon":-17.485428,"lat":14.731306,"tags":"dakar,senegal","S2CellId":"0ed0000000000000","result":640,"accuracy":0.09263736,"title":"UCAD+II"}
{"id":4275443274,"url":"http://farm5.staticflickr.com/4016/4275443274_0ce723d174.jpg","path":"74f/fc1/74ffc1bf573feea7903718cd882396d5.jpg","date":"2009-12-30","year":2009,"month":12,"lon":-16.696215,"lat":13.442133,"tags":"africa,fish,holiday,selling,serakunda+market,the+gambia,woman","S2CellId":"0fc0000000000000","result":643,"accuracy":0.11041416,"title":"Fish+Seller","description":"%40+Serekunda+Market"}
{"id":5606787594,"url":"http://farm5.staticflickr.com/4105/5606787594_6d8537fbc0.jpg","path":"73a/98d/73a98d67697fadbd72f81fce022b3db.jpg","date":"2011-04-10","year":2011,"month":4,"lon":-17.471867,"lat":14.684816,"tags":"dakar,mondoblog","S2CellId":"0d19331000000000","result":217,"accuracy":0.021064667,"title":"Photo+CESTI"}
{"id":8923407370,"url":"http://farm6.staticflickr.com/5454/8923407370_208b602109.jpg","path":"f7e/15d/f7e15d194308ff4da3b5425eb4aba6d.jpg","date":"2013-05-26","year":2013,"month":5,"lon":-16.824724,"lat":14.154107,"tags":"africa,bicycle,day204,fadiout,freewheely.com,joal,petite+cote,senegal","S2CellId":"9aab000000000000","result":9926,"accuracy":0.007941922,"title":"20130526-DSC_8677"}
{"id":2544154660,"url":"http://farm4.staticflickr.com/3143/2544154660_a83e5e5c10.jpg","path":"f4e/ff1/f4eff16f25bd7c8924affe986bd9cce.jpg","date":"2007-01-01","year":2007,"month":1,"lon":-17.47839,"lat":14.721293,"tags":"abdoulaye,afp,ali,almadie,amadou,amidou,aminata,assises,bamba,bara,barthelemy,bathily,castro,cheikh,chekh,dakar,diagne,diallo,diaz,dieng,dieye,diop,diouf,el,farba,front,haidar,hotel,jef,jel,kama,kane,karim,lamine,loum,mactar,madani,madior,makhtar,malick,mamadou,mansour,mbaye,mbengue,mbodj,mboji,mbow,meridien,mouhamadou,moustapha,nationales,ndiaye,niasse,opposition,ousmane,penda,polique,president,ps,rnd,seck,senactu,senegal,senegalaise,senghor,serigne,seydou,siggil,sy,sylla,tall,talla,tanor,thiam,wade","S2CellId":"1030000000000000","result":645,"accuracy":0.096955255,"title":"Assises+Nationales+du+front+siggil+senegal+et+de+l%27opposition","description":"photo+by+serignediagne%40gmail.com"}
{"id":2258426379,"url":"http://farm3.staticflickr.com/2336/2258426379_ea799050a8.jpg","path":"e2d/372/e2d3729ec0c1412dd3513450c25bb7c3.jpg","date":"2007-12-11","year":2007,"month":12,"lon":-16.612015,"lat":13.362898,"tags":"gambia","S2CellId":"487addc000000000","result":5535,"accuracy":0.0117723495,"title":"aimg_492.JPG","description":"The+Gambia"}
{"id":2871667068,"url":"http://farm3.staticflickr.com/2260/2871667068_3a7bf675d9.jpg","path":"716/6b1/7166b18055d581a0822e2f89a4c4fb4.jpg","date":"2008-08-12","year":2008,"month":8,"lon":-15.742309,"lat":13.832746,"tags":"africa,senegal,travel,viaje,viatge","S2CellId":"0d552c0000000000","result":465,"accuracy":0.05401087,"title":"un+pel+tort%3F","description":"el+ferry+del+riu+gambia+...+un+pel+tort%3F"}
{"id":2423373446,"url":"http://farm4.staticflickr.com/3240/2423373446_50d1ae365f.jpg","path":"cae/9d9/cae9d9d4ffe19c09c9f3fb2c3345.jpg","date":"2008-03-04","year":2008,"month":3,"lon":-16.999666,"lat":14.544333,"tags":"%28syncerus,animal%2Fafrican,animal%2Fafrican+animal%2Fbuffalo+%28syncerus+caffer%29,animal%2Fbuffalo,caffer%29%3B,gallery2flickr,place%2Fcontinent%2Fafrica%3B,place%2Fcountry%2Fsenegal%2Fbandia,place%2Fcountry%2Fsenegal%3B,senegal","S2CellId":"8620af4000000000","result":7522,"accuracy":0.014473892,"title":"La+Petite+Cote+en+tandem+avec+Pauline"}
{"id":336715570,"url":"http://farm1.staticflickr.com/134/336715570_3fc8b6783b.jpg","path":"c4b/d63/c4bd63b807945b424b25e305b924344.jpg","date":"2006-12-28","year":2006,"month":12,"lon":-17.467232,"lat":14.715285,"tags":"africa,dakar,e300,evolt300,insect,long-jawed++orb++weaver,nephila,olympus,senegal,spider,tetragnathidae,west++africa,zd","S2CellId":"94f7000000000000","result":9773,"accuracy":0.013170831,"title":"Long-jawed+Orb+Weaver+%28Nephila+senegalensis%29","description":"Long-jawed+Orb+Weaver+%28Nephila+senegalensis%29.++Dakar%2C+Senegal"}
{"id":5606808364,"url":"http://farm5.staticflickr.com/4105/5606808364_99ba9b8813.jpg","path":"a7a/2e6/a7a2e620c1e4d27725148ccef17f833d.jpg","date":"2011-04-10","year":2011,"month":4,"lon":-17.445602,"lat":14.754382,"tags":"dakar,mondoblog","S2CellId":"0fc0000000000000","result":643,"accuracy":0.17568806,"title":"Mondoblog%40Dakar+381"}
{"id":2189512144,"url":"http://farm3.staticflickr.com/2134/2189512144_a7a8282521.jpg","path":"90f/417/90f417cce5fee73b2ef2e942cabc82.jpg","date":"2007-12-31","year":2007,"month":12,"lon":-16.704798,"lat":13.46534,"tags":"gambia","S2CellId":"8f4e300000000000","result":9519,"accuracy":0.093045376,"title":"Kombo+Beach"}
{"id":2422562967,"url":"http://farm4.staticflickr.com/3198/2422562967_42f3c432f8.jpg","path":"21d/5be/21d5bea7520be8811af3c6ca2764083.jpg","date":"2008-03-04","year":2008,"month":3,"lon":-17.008165,"lat":14.559333,"tags":"%28crocodylus,animal%2Fafrican,animal%2Fafrican+animal%2Fnile+crocodile+%28crocodylus+niloticus%29,animal%2Fnile,crocodile,gallery2flickr,niloticus%29%3B,place%2Fcontinent%2Fafrica%3B,place%2Fcountry%2Fsenegal%2Fbandia,place%2Fcountry%2Fsenegal%3B,senegal","S2CellId":"88fb990000000000","result":8747,"accuracy":0.12851022,"title":"La+Petite+Cote+en+tandem+avec+Pauline"}
{"id":336715013,"url":"http://farm1.staticflickr.com/137/336715013_3ffc29275a.jpg","path":"60c/692/60c692803df121584099384533841a4b.jpg","date":"2006-12-28","year":2006,"month":12,"lon":-17.467232,"lat":14.715285,"tags":"africa,dakar,e300,evolt300,insect,long-jawed++orb++weaver,nephila,olympus,senegal,spider,tetragnathidae,west++africa,zd","S2CellId":"88d0a631cabb5071","result":8563,"accuracy":0.13419044,"title":"Long-jawed+Orb+Weaver+%28Nephila+senegalensis%29","description":"Long-jawed+Orb+Weaver+%28Nephila+senegalensis%29.++Dakar%2C+Senegal"}
{"id":463316206,"url":"http://farm1.staticflickr.com/222/463316206_f165bd2af1.jpg","path":"e79/ec7/e79ec777bb0595bad867368e36cace0.jpg","date":"2007-03-14","year":2007,"month":3,"lon":-16.600857,"lat":13.456742,"tags":"gambia","S2CellId":"94ce5b4000000000","result":9726,"accuracy":0.047671266,"title":"IMG_7443","description":"%3Ca+href%3D%22http%3A%2F%2Fwww.gregwalters.blogspot.com%22%3Ewww.gregwalters.blogspot.com%3C%2Fa%3E"}
{"id":5013849189,"url":"http://farm5.staticflickr.com/4108/5013849189_b34b00c689.jpg","path":"72d/97e/72d97e4d1d22169e2b1b9881be3818.jpg","date":"2010-08-02","year":2010,"month":8,"lon":-16.761,"lat":13.352833,"tags":"group,night,outdoor","S2CellId":"1910000000000000","result":1433,"accuracy":0.19925986,"title":"_DSC1789"}
{"id":2422536597,"url":"http://farm3.staticflickr.com/2110/2422536597_c86e134e97.jpg","path":"3b7/3b7/3b73b7b74599e86965459d802bafe05c.jpg","date":"2008-02-28","year":2008,"month":2,"lon":-17.062666,"lat":14.524666,"tags":"gallery2flickr,light%2Fshade%3B,people%2Fkid%3B,people%2Fpauline%3B,place%2Fcontinent%2Fafrica%3B,place%2Fcountry%2Fsenegal%2Frhazabe%3B,place%2Fcountry%2Fsenegal%3B,senegal,sport%2Fcycling%3B,trailer,transport%2Fbicycle%3B,transport%2Ffun,transport%2Ffun+trailer,transport%2Ftandem%3B","S2CellId":"0ef0000000000000","result":641,"accuracy":0.20139076,"title":"La+Petite+Cote+en+tandem+avec+Pauline"}
{"id":8917373853,"url":"http://farm4.staticflickr.com/3691/8917373853_15559ee888.jpg","path":"15e/326/15e32646932e44535829e2df6dea93e.jpg","date":"2013-05-24","year":2013,"month":5,"lon":-17.453611,"lat":14.685,"tags":"africa,bicycle,dakar,day202,freewheely.com,repair,senegal","S2CellId":"47f4d00000000000","result":4716,"accuracy":0.09320537,"title":"20130524-IMG_2352"}
{"id":8410368765,"url":"http://farm9.staticflickr.com/8370/8410368765_706f0baf90.jpg","path":"9b6/faa/9b6faaf786c9feef92bca618d6be5b8e.jpg","date":"2012-11-30","year":2012,"month":11,"lon":-16.567383,"lat":13.5392,"tags":"beautiful+sunbird,gambia,nectarinia+pulchella","S2CellId":"88d0a631cabb5071","result":8563,"accuracy":0.025333194,"title":"Beautiful+Sunbird%2C+the+most+colourful+bird+in+Gambia","description":"Difficult+to+photograph+as+they+are+very+quick+and+only+stay+seconds+on+the+flower%2C+the+Golden+Trumpet+tree+%28Tabebuia+chrysostricha%29%2C+which+is+their+favourite+flower."}
{"id":2220968490,"url":"http://farm3.staticflickr.com/2408/2220968490_93b6fb8e3b.jpg","path":"28b/bd4/28bbd47ccdd5224b64c6bcfea7746be6.jpg","date":"2007-12-10","year":2007,"month":12,"lon":-16.612015,"lat":13.362898,"tags":"gambia","S2CellId":"2bfc000000000000","result":1527,"accuracy":0.04876865,"title":"IMG_2081","description":"The+Gambia+-+AFRICA"}
{"id":6338456580,"url":"http://farm7.staticflickr.com/6042/6338456580_bde4678550.jpg","path":"a8f/ceb/a8fcebe9fa97cd183a4c7468d7e683d.jpg","date":"2011-11-03","year":2011,"month":11,"lon":-16.85337,"lat":14.175857,"tags":"1985,africa,bundeswehr,fadiouth,fg,joal,kinderkrankenhaus,nd,noetzold,novemberdelta,senegal","S2CellId":"0ed0000000000000","result":640,"accuracy":0.12676454,"title":"Little+Mosque"}
{"id":729939657,"url":"http://farm2.staticflickr.com/1401/729939657_490e5432a6.jpg","path":"a8c/292/a8c292b7845d8d9f28ac6a9de5d3b66.jpg","date":"2007-06-27","year":2007,"month":6,"lon":-16.71667,"lat":13.45,"tags":"bird,corvus+albus,crow,gambia,holiday,hotel,kairaba,pied+crow","S2CellId":"48745cc000000000","result":5128,"accuracy":0.036738753,"title":"Pied+Crow","description":"Gambia+2007"}
{"id":6337675023,"url":"http://farm7.staticflickr.com/6044/6337675023_1134cbe48e.jpg","path":"c0e/c8b/c0ec8b6ce6bbaadc27f8224a1c4ca.jpg","date":"2011-11-03","year":2011,"month":11,"lon":-16.859894,"lat":14.174692,"tags":"1985,africa,bundeswehr,fadiouth,fg,joal,kinderkrankenhaus,nd,noetzold,novemberdelta,senegal","S2CellId":"0900000000000000","result":125,"accuracy":0.03325167,"title":"The+Hospital+sign"}
{"id":503569676,"url":"http://farm1.staticflickr.com/207/503569676_25d67d884c.jpg","path":"1be/ddb/1beddb30933f8ff12673e4fef09411f6.jpg","date":"2007-05-12","year":2007,"month":5,"lon":-16.757069,"lat":13.404481,"tags":"africa,gambia,myfave,people,sunset","S2CellId":"3b05000000000000","result":2531,"accuracy":0.21376683,"title":"The+rest"}
{"id":351734789,"url":"http://farm1.staticflickr.com/160/351734789_46cf67b2ce.jpg","path":"0d3/bfd/0d3bfd513e1737f6513433eb982e7.jpg","date":"2007-01-09","year":2007,"month":1,"lon":-17.484999,"lat":14.707481,"tags":"50-200mm,africa,bird,birds,birds+of+senegal,birds+of+west+africa,birdsgs,birdwatching,corvus+albus,crow,dakar,e300,evolt300,faiza,nozooshots,olympus,pied+crow,senegal,senegambia,west+africa,wild,zd","S2CellId":"48760c4000000000","result":5277,"accuracy":0.0657624,"title":"Not+letting+the+water+go+to+waste","description":"Pied+crows.+++%28Corvus+albus%29.++A+common+sight+in+Dakar.++Noisy%2C+social%2C+fun+and+seeming+a+bit+of+the+prankster%2C+the+pied+crow++seems+to+have+little+problem+sharing+watering+holes+and+scavenging+areas+with+the+black+kite+%28milvus+migrans%29.++Wikipedia+entry%3A+%3Ca+href%3D%22http%3A%2F%2Fen.wikipedia.org%2Fwiki%2FPied_Crow%22%3EPied+Crow%3C%2Fa%3E."}
{"id":3093279450,"url":"http://farm4.staticflickr.com/3245/3093279450_0ee6b0d487.jpg","path":"9d3/ffa/9d3ffa974ff5976f153c2298c0cc84d3.jpg","date":"2008-12-08","year":2008,"month":12,"lon":-16.699219,"lat":13.288065,"tags":"africa,afrika,beetle,coleoptera,coleoptera-us,cordata,gambia,insect,k%C3%A4fer,pachnoda,pachnoda+cordata,scarabaeidae,westafrika","S2CellId":"4873a10000000000","result":5088,"accuracy":0.19083217,"title":"Pachnoda+cordata+Drury%2C+1773","description":"Familie%3A+Scarabaeidae%0AGr%C3%B6sse%3A+15-19+mm%0AFundort%3A+Gambia%2C+Serekunda%0Aleg.+det.+U.Schmidt%2C+1990%0AFoto%3A+U.Schmidt%2C+2006"}
{"id":2570088079,"url":"http://farm4.staticflickr.com/3110/2570088079_aca8474a9c.jpg","path":"7af/9dc/7af9dcd9c25b6c43636ed0e78722b.jpg","date":"2008-06-02","year":2008,"month":6,"lon":-17.43187,"lat":14.762101,"tags":"camera,dakar,ghetto,hip+hop,interview,rodaje,senegal","S2CellId":"46524c0000000000","result":2849,"accuracy":0.02594487,"title":"DSC02579.JPG"}
{"id":360639120,"url":"http://farm1.staticflickr.com/164/360639120_2c8d3d5d28.jpg","path":"754/4c0/7544c02d30dc3e749a85f624ed096.jpg","date":"2007-01-17","year":2007,"month":1,"lon":-17.478046,"lat":14.721262,"tags":"50-200mm,africa,bird,birds,birds+of+senegal,birds+of+west+africa,birdsgs,birdwatching,e300,faiza,lagonosticta+senegala,nozooshots,red-billed+firefinch,senegal,senegambia,west+africa,wikipedia,wild","S2CellId":"2300000000000000","result":1490,"accuracy":0.01267129,"title":"Red-Billed+Firefinch+%28Lagonosticta+senegala%29","description":"Brightly+colored+male.++Not+crazy+about+this+pic+--+but+it%27s+a+small%2C+twichy+bird+defying+so+far+all+my+attempts+at+a+good+caputre.++++Added+to+%3Ca+href%3D%22http%3A%2F%2Fen.wikipedia.org%2Fwiki%2FRed-billed_Firefinch%22%3EWikipedia%3C%2Fa%3E+as+they++had+only+a+very+small+%28distant%29+image+of+the+male%3E"}
{"id":3985132956,"url":"http://farm3.staticflickr.com/2560/3985132956_0714d9cfb5.jpg","path":"9ed/e45/9ede45512658e369f816f6aea1b43f51.jpg","date":"2009-09-21","year":2009,"month":9,"lon":-17.481018,"lat":14.764186,"tags":"africa%2C,cooperacion%2C,cooperation,senegal%2C","S2CellId":"1740000000000000","result":1415,"accuracy":0.1492141,"title":"Ni%C3%B1os"}
{"id":6299757720,"url":"http://farm7.staticflickr.com/6019/6299757720_f9776fb8a2.jpg","path":"85d/b45/85db45bbe73be3ec8ae48c3f55ba41.jpg","date":"2011-10-19","year":2011,"month":10,"lon":-16.795177,"lat":13.371917,"tags":"gambia,gambia%27s+people,josep+salvia+bote,tanji","S2CellId":"3a52400000000000","result":2515,"accuracy":0.29108897,"title":"GENT+DE+GAMBIA+-+GAMBIA%27S+PEOPLE+12"}
{"id":8748943747,"url":"http://farm9.staticflickr.com/8262/8748943747_9439e8786a.jpg","path":"1ad/1f8/1ad1f85bd62318a31812757e33699df.jpg","date":"2013-05-13","year":2013,"month":5,"lon":-17.479763,"lat":14.765586,"tags":"africa,dakar,freewheely.com,senegal,yoff","S2CellId":"0ed0000000000000","result":640,"accuracy":0.37923414,"title":"20130513-DSC_8535"}
{"id":8748980031,"url":"http://farm4.staticflickr.com/3679/8748980031_8ef5f74099.jpg","path":"4a9/783/4a9783503dea15e591f8275c666d7772.jpg","date":"2013-05-13","year":2013,"month":5,"lon":-17.479763,"lat":14.765586,"tags":"africa,dakar,freewheely.com,senegal,yoff","S2CellId":"0dad000000000000","result":615,"accuracy":0.5573687,"title":"20130513-DSC_8546"}
{"id":2357907404,"url":"http://farm3.staticflickr.com/2169/2357907404_e8cfb85914.jpg","path":"9df/b2c/9dfb2c5b6c8567ced212d09a49d9e5e4.jpg","date":"2008-03-18","year":2008,"month":3,"lon":-17.485428,"lat":14.731306,"tags":"dakar,senegal","S2CellId":"144c000000000000","result":1197,"accuracy":0.14215767,"title":"ucad+entrance"}
{"id":336291419,"url":"http://farm1.staticflickr.com/125/336291419_f19a7c99e3.jpg","path":"bf8/1b1/bf81b1c85288478e9d58c31f351315b4.jpg","date":"2006-12-28","year":2006,"month":12,"lon":-17.472038,"lat":14.656585,"tags":"40-150mm,africa,bird,birds,birds+of+senegal,birds+of+west+africa,birdsgs,birdwatching,cormorant,dakar,e300,evolt300,great+cormorant,nozooshots,olympus,parc+national+des+iles+de+la+madeleine,phalacrocorax+carbo,phalacrocorax+carbo+lucidus,phalacrocorax+lucidus,point++fann,senegal,senegambia,subspecies+not+in+clements+5th,west++africa,wild,zd","S2CellId":"4881000000000000","result":5669,"accuracy":0.2044208,"title":"Phalacrocorax+carbo","description":"From+Parc+national+de+la+Madeleine%2C+Dakar%2C+Senegal.++Spring+2006."}
{"id":2544048844,"url":"http://farm3.staticflickr.com/2174/2544048844_c2c15814b8.jpg","path":"505/fbd/505fbdbc2e9bde37a85a8bb71f48f28.jpg","date":"2007-01-01","year":2007,"month":1,"lon":-17.47839,"lat":14.721293,"tags":"abdoulaye,afp,ali,almadie,amadou,amidou,aminata,assises,bamba,bara,barthelemy,bathily,castro,cheikh,chekh,dakar,diagne,diallo,diaz,dieng,dieye,diop,diouf,el,farba,front,haidar,hotel,jef,jel,kama,kane,karim,lamine,loum,mactar,madani,madior,makhtar,malick,mamadou,mansour,mbaye,mbengue,mbodj,mboji,mbow,meridien,mouhamadou,moustapha,nationales,ndiaye,niasse,opposition,ousmane,penda,polique,president,ps,rnd,seck,senactu,senegal,senegalaise,senghor,serigne,seydou,siggil,sy,sylla,tall,talla,tanor,thiam,wade","S2CellId":"48761acc00000000","result":5306,"accuracy":0.053831145,"title":"Assises+Nationales+du+front+siggil+senegal+et+de+l%27opposition","description":"photo+by+serignediagne%40gmail.com"}
{"id":4081822823,"url":"http://farm3.staticflickr.com/2595/4081822823_aa9d2e1cd0.jpg","path":"5ed/d43/5edd4303f87909d1d69e5939457ce.jpg","date":"2009-10-30","year":2009,"month":10,"lon":-17.473927,"lat":14.656004,"tags":"africa,dakar,door,esclavos,goree,goree+island,isla,isla+de+goree,island,puerta,puerta+de+esclavos,puerta+de+la+casa+de+los+esclavos,senegal,slave%27s+door,slaves","S2CellId":"12d4fc0000000000","result":918,"accuracy":0.08872601,"title":"Puerta+de+la+casa+de+los+esclavos"}
{"id":6817463621,"url":"http://farm8.staticflickr.com/7020/6817463621_aac57e51ae.jpg","path":"c4f/24e/c4f24e7414bcf75ff889de67fd989a.jpg","date":"2011-10-21","year":2011,"month":10,"lon":-16.442413,"lat":13.652325,"tags":"cebra,josep+salvia+bote,ratlles,rayas,zebra","S2CellId":"17c0000000000000","result":1416,"accuracy":0.029290771,"title":"RATLLES"}
{"id":2040318438,"url":"http://farm3.staticflickr.com/2123/2040318438_36212b9272.jpg","path":"441/4f6/4414f62eb4cc35984cc424d88e41834b.jpg","date":"2006-03-30","year":2006,"month":3,"lon":-17.479591,"lat":14.723088,"tags":"http%3A%2F%2Fdinaiz.blogspot.com,pentaxk10d,senegal","S2CellId":"0f40000000000000","result":642,"accuracy":0.08041169,"title":"071+Jaqueline%2C+ou+Sama+xol%2C+en+train+de+faire+le+Tieboudien"}
{"id":4150218702,"url":"http://farm3.staticflickr.com/2506/4150218702_d653c6073f.jpg","path":"209/33f/20933f71dc334eef9ea838fbfb6f2f80.jpg","date":"2009-11-07","year":2009,"month":11,"lon":-16.723766,"lat":12.348721,"tags":"africa,atardecer,bar+de+la+mer,beach,cap+skirring,cielo,cielo+rojo,futbol,hotel+de+la+mer,playa,red,red+sky,rojo,senegal,sky,soccer,sunset","S2CellId":"47ddc00000000000","result":4500,"accuracy":0.037175637,"title":"Futbol+playa"}
{"id":2423371966,"url":"http://farm3.staticflickr.com/2305/2423371966_6796072360.jpg","path":"6a9/542/6a95427f851dbd1615af8769192724d.jpg","date":"2008-03-04","year":2008,"month":3,"lon":-16.9985,"lat":14.556,"tags":"%28coracias,abyssinicus%29%3B,animal%2Fbird%2Frollier,animal%2Fbird%2Frollier+d%27abyssinie+%28coracias+abyssinicus%29,d%27abyssinie,gallery2flickr,place%2Fcontinent%2Fafrica%3B,place%2Fcountry%2Fsenegal%2Fbandia,place%2Fcountry%2Fsenegal%3B,senegal","S2CellId":"9aab000000000000","result":9926,"accuracy":0.064333044,"title":"La+Petite+Cote+en+tandem+avec+Pauline"}
{"id":5901936801,"url":"http://farm7.staticflickr.com/6032/5901936801_2126b3b184.jpg","path":"6a1/7ca/6a17ca44a1bcf5132739c7c9bc8c6441.jpg","date":"2011-07-04","year":2011,"month":7,"lon":-17.5177,"lat":14.747908,"tags":"ringexcellence","S2CellId":"0ed0000000000000","result":640,"accuracy":0.26621863,"title":"Bienvenue+en+Afrique"}
{"id":2166893527,"url":"http://farm3.staticflickr.com/2229/2166893527_fb67a76ffd.jpg","path":"347/191/347191d423f215e806d97804241249.jpg","date":"2007-12-09","year":2007,"month":12,"lon":-16.612015,"lat":13.362898,"tags":"gambia,insecta,meloidae","S2CellId":"864e640000000000","result":7620,"accuracy":0.014772371,"title":"cole%C3%B3ptero+%3F","description":"The+Gambia.%0AIMG_1344.JPG"}
{"id":1467417206,"url":"http://farm2.staticflickr.com/1414/1467417206_37abe92088.jpg","path":"8da/392/8da3926dbc7e94146cb24cb72fbf8a0.jpg","date":"2007-09-10","year":2007,"month":9,"lon":-16.728401,"lat":13.452735,"tags":"2007,africa,atardecer,ci33,excapture,gambia,gente,kikaytete,onlythebestare,puesta+de+sol,social,superbmasterpiece,vacaciones","S2CellId":"0d0c400000000000","result":164,"accuracy":0.043911446,"title":"Juegos+de+playa","description":"Minolta+DSC"}
{"id":2570261817,"url":"http://farm4.staticflickr.com/3022/2570261817_63df80320c.jpg","path":"708/752/7087525a1e29a573490dae74f16cd90.jpg","date":"2008-06-03","year":2008,"month":6,"lon":-17.43187,"lat":14.762101,"tags":"camera,dakar,ghetto,hip+hop,interview,rodaje,senegal","S2CellId":"8ebc000000000000","result":9502,"accuracy":0.08789629,"title":"DSC02703.JPG"}
{"id":9290640227,"url":"http://farm4.staticflickr.com/3689/9290640227_963914f08b.jpg","path":"5ad/4e7/5ad4e7c98568adaca12f9f2381934.jpg","date":"2013-06-11","year":2013,"month":6,"lon":-15.01592,"lat":12.015785,"tags":"africa,bicycle,day220,freewheely.com,guinea-bissau","S2CellId":"2cb0000000000000","result":1530,"accuracy":0.33829993,"title":"20130611-DSC_9019"}
{"id":4092753314,"url":"http://farm3.staticflickr.com/2448/4092753314_95bcd45fdd.jpg","path":"afd/1ff/afd1ff34eb565ffa6ca6e78045d6d7.jpg","date":"2009-10-31","year":2009,"month":10,"lon":-16.705055,"lat":12.595779,"tags":"africa,barco,casa,casamance,dakar,fisherman,house,manglares,mangrove,pescador,rio,river,senegal,ship,ziguinchor","S2CellId":"310b000000000000","result":1702,"accuracy":0.03254951,"title":"Casa+de+pescadores"}
{"id":4274708391,"url":"http://farm5.staticflickr.com/4005/4274708391_91d80bf0f6.jpg","path":"caa/fb6/caafb6e8922bff6bd520f7af539bbf82.jpg","date":"2009-12-27","year":2009,"month":12,"lon":-16.58824,"lat":13.447476,"tags":"africa,banjul,holiday,street,the+gambia,trucks,urban","S2CellId":"0ed0000000000000","result":640,"accuracy":0.049716678,"title":"Banjul","description":"Capital+of+The+Gambia"}
{"id":8930451474,"url":"http://farm8.staticflickr.com/7288/8930451474_a098dd0183.jpg","path":"3f7/fb4/3f7fb49ff05fbd5688635378bf78d5ec.jpg","date":"2013-05-31","year":2013,"month":5,"lon":-16.647175,"lat":13.467703,"tags":"africa,banjul,bicycle,day209,freewheely.com,gambia,highway","S2CellId":"3d00000000000000","result":2580,"accuracy":0.035097193,"title":"20130531-DSC_8817"}
{"id":7276700324,"url":"http://farm8.staticflickr.com/7101/7276700324_174f41502e.jpg","path":"c4b/e02/c4be02a86cfc8cf2db984dc2da4ccc1.jpg","date":"2012-05-27","year":2012,"month":5,"lon":-16.8385,"lat":14.156833,"tags":"africa,senegal,viaggi","S2CellId":"89c2444000000000","result":8937,"accuracy":0.032712344}
{"id":3375379664,"url":"http://farm4.staticflickr.com/3448/3375379664_e3b8059480.jpg","path":"cf2/4af/cf24afbbde6c812f508256cf1496618.jpg","date":"2009-03-22","year":2009,"month":3,"lon":-16.761703,"lat":13.39371,"tags":"gambia","S2CellId":"1833000000000000","result":1424,"accuracy":0.017959084,"title":"Gambia+102","description":"Baobob+%2F+Creme+a+Tata%2C+Gambia"}
{"id":2876912454,"url":"http://farm4.staticflickr.com/3252/2876912454_4c0972d441.jpg","path":"658/a8b/658a8b677bcec9212c1a16034b46734.jpg","date":"2008-08-18","year":2008,"month":8,"lon":-16.515352,"lat":12.533199,"tags":"africa,casamance,senegal,travel,viajes,viatges","S2CellId":"0f40000000000000","result":642,"accuracy":0.1660609,"title":"case+a+impluvium+elubaline"}
{"id":193387692,"url":"http://farm1.staticflickr.com/60/193387692_5caf32349e.jpg","path":"908/5c3/9085c3304fa0414164b295885bb0b1ee.jpg","date":"2006-01-22","year":2006,"month":1,"lon":-16.57485,"lat":13.452985,"tags":"banjul,gambia","S2CellId":"8ebc000000000000","result":9502,"accuracy":0.11756733,"title":"Gambia13"}
{"id":12345564963,"url":"http://farm4.staticflickr.com/3833/12345564963_0b36eca11d.jpg","path":"b6a/1d8/b6a1d834d99e7a559bbefa96f7db5e43.jpg","date":"2014-01-20","year":2014,"month":1,"lon":-16.655682,"lat":13.189267,"tags":"allan+hopkins,animalia,aves,chordata,falco,falco+ardosiaceus,falconidae,falconiformes,gray+kestrel,grey+kestrel,hoppy1951,marakissa,marakissa+river+camp,savanna+woodland,the+gambia,west+africa","S2CellId":"1950000000000000","result":1435,"accuracy":0.054418042,"title":"Grey+Kestrel+%28Falco+ardosiaceus%29","description":"Pair+perched+on+a+dead+palm+tree+in+savanna+woodland.+Near+Marakissa+River+Camp%2C+Marakissa%2C+The+Gambia."}
{"id":8266647569,"url":"http://farm9.staticflickr.com/8357/8266647569_719246a401.jpg","path":"48d/9d7/48d9d714e2de36bba8565c99b424ca.jpg","date":"2012-12-12","year":2012,"month":12,"lon":-17.5195,"lat":14.744499,"tags":"2012,africa,aid,amp,amp2012,bank,best,dakar,development,discussion,effectiveness,finance,gateway,good,governance,government,liberia,management,photo,platform,practices,program,senegal,transparency,workshop,world","S2CellId":"1650000000000000","result":1412,"accuracy":0.09442219,"title":"Liberian+delegation+pointing+out+the+high+level+of+aid+effectiveness+possible+with+AMP","description":"--"}
{"id":5846496111,"url":"http://farm3.staticflickr.com/2776/5846496111_55f445964e.jpg","path":"86f/bb4/86fbb4201c60315af71510e46ca65fe.jpg","date":"2011-06-01","year":2011,"month":6,"lon":-17.397308,"lat":14.66766,"tags":"2011,dakar,goree,senegal","S2CellId":"477b100000000000","result":3439,"accuracy":0.06569875,"title":"View+from+Maison+des+Esclaves","description":"Goree+Island%2C+Senegal"}
{"id":2357906172,"url":"http://farm3.staticflickr.com/2348/2357906172_bb0f886f39.jpg","path":"c3e/339/c3e339ee59e293e2652fb1ae101368d6.jpg","date":"2008-03-18","year":2008,"month":3,"lon":-17.485428,"lat":14.731306,"tags":"dakar,senegal","S2CellId":"80dbf40000000000","result":7322,"accuracy":0.028726028,"title":"gang"}
{"id":4125440073,"url":"http://farm3.staticflickr.com/2488/4125440073_be1edaf4f8.jpg","path":"a07/812/a078124138dcb4bd25b2aa9e24a9019.jpg","date":"2009-11-22","year":2009,"month":11,"lon":-17.432674,"lat":14.723927,"tags":"camel,dakar,senegal,zoo","S2CellId":"8f57000000000000","result":9530,"accuracy":0.03052616,"title":"IMG_3484","description":"The+camels+had+a+bit+of+a+hole+in+the+fence+to+stick+their+heads+through."}
{"id":2191041782,"url":"http://farm3.staticflickr.com/2261/2191041782_c056bac2a1.jpg","path":"e5d/da4/e5dda4bf3ee2105afa92cc19ee4b6.jpg","date":"2008-01-06","year":2008,"month":1,"lon":-16.64772,"lat":13.39371,"tags":"abuko+nature+reserve,gambia","S2CellId":"94ce5b4000000000","result":9726,"accuracy":0.05916543,"title":"Hammerhead","description":"Abuko+park"}
{"id":8924871066,"url":"http://farm3.staticflickr.com/2854/8924871066_8547c862d7.jpg","path":"63e/3bf/63e3bfffc863405a3d80bbc62ee7eeb.jpg","date":"2013-05-27","year":2013,"month":5,"lon":-16.398483,"lat":14.292412,"tags":"africa,bicycle,day205,delta,freewheely.com,senegal,sine+saloum","S2CellId":"0e90000000000000","result":638,"accuracy":0.36220056,"title":"20130527-DSC_8711"}
{"id":1021729162,"url":"http://farm2.staticflickr.com/1380/1021729162_a6d0f31ce7.jpg","path":"fdd/fa3/fddfa3160f44ea88cee2a4ccb5f695.jpg","date":"2007-07-28","year":2007,"month":7,"lon":-16.645779,"lat":13.395245,"tags":"abuko,abuko+reserve,ave,aves,avifauna,bird,birds,birdwatching,g%C3%A2mbia,giant+kingfisher,isidro,megaceryle+maximus,modou+colley,nature,natureza,the+gambia,wildbirds,wildlife","S2CellId":"88d0a631cabb5071","result":8563,"accuracy":0.07307065,"title":"Giant+Kingfisher","description":"%28%3Ci%3EMegaceryle+maximus%3C%2Fi%3E%29%0AAbuko+Reserve%0AThe+Gambia+%2F+G%C3%A2mbia%0A%0A%0A%3Ca+href%3D%22http%3A%2F%2Floc.alize.us%2F%23%2Fflickr%3A1021729162%22+rel%3D%22nofollow%22%3ESee+where+this+picture+was+taken.%3C%2Fa%3E+%3Ca+href%3D%22http%3A%2F%2Fwww.flickr.com%2Fgroups%2Fgeotagging%2Fdiscuss%2F72157594165549916%2F%22%3E%5B%3F%5D%3C%2Fa%3E%0A%0AOur+trip+photos+were+taken+by+my+%3Ca+href%3D%22http%3A%2F%2Fwww.flickr.com%2Fphotos%2F81126336%40N00%2F%22%3Ewife%3C%2Fa%3E%0A%0AOther+Names%3A%0ADanish+%3A+k%C3%A6mpest%C3%B8dfisker%0ADutch+%3A+afrikaanse+reuzenijsvogel%0AEnglish+%3A+giant+kingfisher%0AFrench+%3A+martin-p%C3%AAcheur+g%C3%A9ant%0AGerman+%3A+Riesenfischer%0AItalian+%3A+martin+pescatore+gigante%0ALatin+%3A+Megaceryle+maxima%0APortuguese+%3A+guarda-rios-gigante%0ASpanish+%3A+mart%C3%ADn+gigante+africano%0ASwahili+%3A+*mkumburu%3F%3F%0ASwedish+%3A+*j%C3%A4ttekungsfiskare%3F%3F%0A%5BTranslated+by+Logos+Dictionary+%3Ca+href%3D%22http%3A%2F%2Fwww.logosdictionary.org%2F%22+rel%3D%22nofollow%22%3Ewww.logosdictionary.org%2F%3C%2Fa%3E+%5D"}
{"id":193382962,"url":"http://farm1.staticflickr.com/70/193382962_57bc2ddff7.jpg","path":"4ca/a29/4caa2964db2f3897b1d7a16aa2bdd2.jpg","date":"2006-01-21","year":2006,"month":1,"lon":-16.546698,"lat":13.485539,"tags":"gambia","S2CellId":"88d1c00000000000","result":8570,"accuracy":0.09961247,"title":"Gambia01"}
{"id":2189121405,"url":"http://farm3.staticflickr.com/2294/2189121405_7ce51f5bc5.jpg","path":"72a/6f9/72a6f94d68342023ef2dc4773897bf27.jpg","date":"2007-12-09","year":2007,"month":12,"lon":-16.612015,"lat":13.362898,"tags":"butorides+striatus,gambia,socozinho,striated+heron","S2CellId":"88d0a631cabb5071","result":8563,"accuracy":0.02057411,"title":"Butorides+striatus+%2F+Striated+Heron+%2F+Socozinho","description":"soc_IMG_1743.JPG"}
{"id":4126100086,"url":"http://farm3.staticflickr.com/2636/4126100086_804891990a.jpg","path":"40c/973/40c973b92ba0d05935f3344eb5cb6fdf.jpg","date":"2009-11-22","year":2009,"month":11,"lon":-17.43358,"lat":14.724541,"tags":"dakar,senegal,zoo","S2CellId":"60188c3000000000","result":6489,"accuracy":0.01196636,"title":"IMG_3365"}
{"id":8923191630,"url":"http://farm8.staticflickr.com/7394/8923191630_cf1eeb7645.jpg","path":"a66/5ac/a665ac8db21d4beb27dea7106baec25b.jpg","date":"2013-05-26","year":2013,"month":5,"lon":-16.823818,"lat":14.153273,"tags":"africa,bicycle,cashew,day204,freewheely.com,petite+cote,senegal","S2CellId":"8085874500000000","result":6974,"accuracy":0.027920086,"title":"20130526-IMG_2360"}
{"id":3746704914,"url":"http://farm4.staticflickr.com/3482/3746704914_0eb52eab40.jpg","path":"b07/778/b07778a7d59b97a35ab2bb90e7a4ec7d.jpg","date":"2006-12-25","year":2006,"month":12,"lon":-17.000141,"lat":14.431272,"tags":"barque,coucher+de+soleil,mer,ocre","S2CellId":"185c000000000000","result":1431,"accuracy":0.033701997,"title":"Coucher+de+soleil+au+S%C3%A9n%C3%A9gal"}
{"id":412534184,"url":"http://farm1.staticflickr.com/153/412534184_923f182125.jpg","path":"a52/c19/a52c193acaec1b881b9d78b52a7c8339.jpg","date":"2007-03-06","year":2007,"month":3,"lon":-16.936798,"lat":14.481223,"tags":"africa,guia,senegal,turistico","S2CellId":"0ef0000000000000","result":641,"accuracy":0.08585187,"title":"senegal18"}
{"id":2248820635,"url":"http://farm3.staticflickr.com/2098/2248820635_5bbf3b9801.jpg","path":"25c/77b/25c77b52831a24d2472f748d23e43c.jpg","date":"2007-06-29","year":2007,"month":6,"lon":-16.6725,"lat":13.47667,"tags":"abuko,gambia,holiday,msh0208,msh0208-15,naturereserve,parasite,plant,strangler,treehugger","S2CellId":"864e640000000000","result":7620,"accuracy":0.01934778,"title":"Parasitic+Strangler","description":"A+real+%3Ci%3ETree-hugger%3C%2Fi%3E%21++%3Ca+href%3D%22http%3A%2F%2Fwww.darwingambia.gm%2Fanr.htm%22%3EAbuko+Nature+Reserve%3C%2Fa%3E%0A%0AGambia+2007"}
{"id":4180033014,"url":"http://farm3.staticflickr.com/2760/4180033014_3343da72bb.jpg","path":"3a3/0ae/3a30aec66d49117a564ec3fa83381.jpg","date":"2009-08-26","year":2009,"month":8,"lon":-16.513996,"lat":12.496079,"tags":"%C3%A1frica,africa,afrika,afrique,afriquia,reisen,sahel,senegal,travel,viagem,viaggi,viajes,voyages","S2CellId":"12a49d0000000000","result":704,"accuracy":0.042078488,"title":"Oecophylla+longinoda+%28Hormigas+tejedoras%29"}
{"id":12978145714,"url":"http://farm4.staticflickr.com/3542/12978145714_1c6e1612ce.jpg","path":"5eb/2b8/5eb2b848d77adbdfafe039437279a8.jpg","date":"2014-01-08","year":2014,"month":1,"lon":-16.653708,"lat":13.389139,"tags":"abuko+nature+reserve,african+paradise-flycatcher,allan+hopkins,animalia,aves,chordata,monarchidae,passeriformes,plunge-bathing,terpsiphone,terpsiphone+v.+viridis,terpsiphone+viridis,the+gambia,west+africa,western+division","S2CellId":"8620af4000000000","result":7522,"accuracy":0.021942567,"title":"African+Paradise-Flycatcher+%28Terpsiphone+v.+viridis%29+plunge-bathing+1%2F5","description":"Plunging+into+the+water.+Abuko+Nature+Reserve%2C+Western+Region%2C+The+Gambia."}
{"id":222864052,"url":"http://farm1.staticflickr.com/79/222864052_d17f2774b5.jpg","path":"cc2/6db/cc26db38a0912e8f7eaab2cc469f7348.jpg","date":"2006-08-23","year":2006,"month":8,"lon":-17.483368,"lat":14.724417,"tags":"2003,senegal","S2CellId":"8eb4000000000000","result":9501,"accuracy":0.09434044,"title":"ecole_primaire+%2831%29"}
{"id":6758361739,"url":"http://farm8.staticflickr.com/7171/6758361739_80796ba78a.jpg","path":"e66/160/e66160e0e922317382f7644ebd14129.jpg","date":"2012-01-25","year":2012,"month":1,"lon":-16.947784,"lat":14.604847,"tags":"animals,bandia,giraff,giraffs,perspective,reserve,size","S2CellId":"1837000000000000","result":1426,"accuracy":0.17226508,"title":"Perspective+Playing+With+Size+of+Giraffs+-+Bandia+Reserve%2C+Senegal","description":"Giraffs+are+so+high%2C+even+babies+look+taller+than+adults+fo+other+animals.+Great+to+meet+them%21%0A----------%0ALes+girafes+font+partie+des+animaux+les+plus+%C3%A9vocateurs+de+l%27Afrique+dans+l%27imaginaire+occidental.+La+photo+ici+joue+sur+la+perspective+pour+souligner+la+taille+de+ces+mammif%C3%A8res+hauts+sur+pattes%2C+au+tr%C3%A8s+long+cou%3A+m%C3%AAme+le+b%C3%A9b%C3%A9+semble+immense.%0A%0A%28By+Jean+Marc+Demol%29%0A%0A%3Ca+href%3D%22http%3A%2F%2Fwww.dakar-travel.com%22+rel%3D%22nofollow%22%3Ewww.dakar-travel.com%3C%2Fa%3E"}
{"id":5275493681,"url":"http://farm6.staticflickr.com/5130/5275493681_a18287062f.jpg","path":"228/57f/22857f415b8602d1121b7d06fa014.jpg","date":"2010-10-11","year":2010,"month":10,"lon":-16.084667,"lat":13.238666,"tags":"africa,banana+trees,birds,weaver","S2CellId":"88d0a631cabb5071","result":8563,"accuracy":0.1322816,"title":"Perched"}
{"id":337476130,"url":"http://farm1.staticflickr.com/155/337476130_f09b58fc53.jpg","path":"a62/204/a62204b9a8e565df4a95a7a658013.jpg","date":"2006-12-29","year":2006,"month":12,"lon":-17.38861,"lat":14.644378,"tags":"africa,e300,evolt300,goree,goree+island,olympus,senegal,west+africa,zd","S2CellId":"0ed0000000000000","result":640,"accuracy":0.19500099,"title":"PA220404"}
{"id":2114601915,"url":"http://farm3.staticflickr.com/2355/2114601915_057ca220fb.jpg","path":"142/9ca/1429ca2b23ec6d75081e6df9d21bf7c.jpg","date":"2007-12-07","year":2007,"month":12,"lon":-16.612015,"lat":13.362898,"tags":"african+wattled+lapwing,gambia,vanellus+senegallus,wattled+plover","S2CellId":"94bd000000000000","result":9682,"accuracy":0.01544551,"title":"Vanellus+senegallus+%2F+African+Wattled+Lapwing","description":"The+Gambia.%0AAfrica%0AIMG_0344_fk.JPG"}
{"id":2184209408,"url":"http://farm3.staticflickr.com/2118/2184209408_f756fbcd40.jpg","path":"8f3/ee5/8f3ee5fca77c6410be437ccaa17a8.jpg","date":"2008-01-02","year":2008,"month":1,"lon":-16.798267,"lat":13.358639,"tags":"gambia,tanji","S2CellId":"0ed0000000000000","result":640,"accuracy":0.67815995,"title":"Women+on+beach+in+Tanji"}
