{"id":6266041002,"url":"http://farm7.staticflickr.com/6233/6266041002_dbd54bce35.jpg","path":"5fb/3d2/5fb3d2f062e218dbdc4e7319ce82245d.jpg","date":"2011-10-13","year":2011,"month":10,"lon":35.540115,"lat":30.360317,"tags":"aerial+archaeology,aerial+photography,air+photo,ancient+history,archaeology,middle+east","S2CellId":"96a9000000000000","result":9916,"accuracy":0.013425167,"title":"Khidad+Ruins+21+%28SJIAP+%23+**%29","description":"APAAME_20111013_DDB-0517.dng"}
{"id":11115953636,"url":"http://farm4.staticflickr.com/3678/11115953636_749a0ca6b6.jpg","path":"a82/669/a826695bba336db62c593af6d450d6bc.jpg","date":"2013-10-28","year":2013,"month":10,"lon":35.453995,"lat":30.31169,"tags":"ancient,animal,arab,beauty,bridle,camel,carving,curious,desert,dry,face,hump,jordan,nabatean,petra,rock,sandstone,sun","S2CellId":"1501400000000000","result":1348,"accuracy":0.96823823,"title":"Curious+Camel%2C+Petra%2C+Jordan"}
{"id":5113915366,"url":"http://farm2.staticflickr.com/1076/5113915366_7d9cd9847b.jpg","path":"843/08e/84308e45a85b3c75e9dad7fad84e9590.jpg","date":"2010-10-17","year":2010,"month":10,"lon":35.410324,"lat":30.094051,"tags":"aerial+archaeology,aerial+photography,air+photo,ancient+history,levant,middle+east,near+east,village","S2CellId":"8737000000000000","result":7801,"accuracy":0.036480144,"title":"ARNAS+225","description":"APAAME_20101017_SES-0136.dng"}
{"id":5338854849,"url":"http://farm6.staticflickr.com/5049/5338854849_4ee6ebfab3.jpg","path":"54c/5f5/54c5f58d8bcb98742563a102b893512.jpg","date":"2011-01-05","year":2011,"month":1,"lon":35.610638,"lat":30.526335,"tags":"castle,jordan","S2CellId":"14d1000000000000","result":1328,"accuracy":0.2216334,"title":"Shobak+Castle+25","description":"artefacts"}
{"id":5462126941,"url":"http://farm6.staticflickr.com/5216/5462126941_961f69ef49.jpg","path":"325/ad6/325ad6a6dd2f3b26e0e8be4da8e83.jpg","date":"2009-10-19","year":2009,"month":10,"lon":35.44278,"lat":30.19125,"tags":"desert,giordania,iordan,jordan,middle+east,petra,wadi+musa","S2CellId":"1501400000000000","result":1348,"accuracy":0.7608396,"title":"A+Peek"}
{"id":5124911375,"url":"http://farm5.staticflickr.com/4049/5124911375_e199b81410.jpg","path":"577/8ed/5778ede950782230815bdbe4ea84b773.jpg","date":"2008-10-08","year":2008,"month":10,"lon":35.934013,"lat":30.839113,"tags":"aerial+archaeology,aerial+photography,air+photo,ancient+history,bridge,digital+camera,flight+5,levant,middle+east,near+east,paved+road,qal%E2%80%99at+al-hasa","S2CellId":"152b000000000000","result":1396,"accuracy":0.15303251,"title":"Qal%E2%80%99at+al-Hasa","description":"Apaame_20081008_ffr-0207.Jpg"}
{"id":6262920411,"url":"http://farm7.staticflickr.com/6213/6262920411_4c0e9c32e6.jpg","path":"e3c/992/e3c992ac7b51b87fca80fd8bc9322cfc.jpg","date":"2011-10-13","year":2011,"month":10,"lon":35.845825,"lat":30.96469,"tags":"aerial+archaeology,aerial+photography,air+photo,ancient+history,archaeology,middle+east","S2CellId":"94ce59f000000000","result":9723,"accuracy":0.0043775328,"title":"Aina+Ruin+7","description":"APAAME_20111013_MND-0160.dng"}
{"id":6835440826,"url":"http://farm8.staticflickr.com/7039/6835440826_95f8510867.jpg","path":"f15/bde/f15bdee24aee49a0cfd81b6f98532dbc.jpg","date":"2011-10-13","year":2011,"month":10,"lon":35.46604,"lat":30.590185,"tags":"aerial+archaeology,aerial+photography,air+photo,ancient+history,archaeology,middle+east","S2CellId":"80c7000000000000","result":7223,"accuracy":0.086749256,"title":"Faynan+area","description":"APAAME_20111013_RHB-0431.jpg"}
{"id":6910053716,"url":"http://farm8.staticflickr.com/7063/6910053716_a8ca2f3da0.jpg","path":"b9e/168/b9e1682fa83f98194730baeac15ef5.jpg","date":"2012-03-19","year":2012,"month":3,"lon":35.481976,"lat":30.322508,"tags":"jord%C3%A0nia,jordan,jordania,petra","S2CellId":"0dafee7000000000","result":628,"accuracy":0.13120621,"title":"Jord%C3%A0nia+2012"}
{"id":37974439,"url":"http://farm1.staticflickr.com/24/37974439_1c9aa76568.jpg","path":"ebc/1ee/ebc1ee644964fd655cb2e447efcf4e86.jpg","date":"2005-08-28","year":2005,"month":8,"lon":35.472107,"lat":30.324286,"tags":"jordan,petra","S2CellId":"88d0a631cabb5071","result":8563,"accuracy":0.17880394,"title":"Black+and+white+bird%2C+Petra"}
{"id":234063662,"url":"http://farm1.staticflickr.com/88/234063662_b3ff4422ea.jpg","path":"718/3e8/7183e83a7adb320e17e454c0eb9e9c.jpg","date":"2006-08-28","year":2006,"month":8,"lon":35.469704,"lat":30.328878,"tags":"camel,camels,david+poe,jordan,petra","S2CellId":"1501400000000000","result":1348,"accuracy":0.79676133,"title":"Camel+parking+lot","description":"In+Petra.++Jordan%2C+2006."}
{"id":5099640924,"url":"http://farm5.staticflickr.com/4131/5099640924_5c9c580b06.jpg","path":"2cb/87a/2cb87af24245b34686591b5846ee0dc.jpg","date":"2010-10-16","year":2010,"month":10,"lon":35.535442,"lat":30.41637,"tags":"aerial+archaeology,aerial+photography,air+photo,ancient+history,farm%3F,levant,middle+east,near+east,road+station","S2CellId":"1c70000000000000","result":1446,"accuracy":0.1434821,"title":"Khidad+Ruin+86","description":"APAAME_20101016_DLK-0185.dng"}
{"id":5099390722,"url":"http://farm2.staticflickr.com/1233/5099390722_e534f1b922.jpg","path":"648/a71/648a7115759fb2923f7bc45b70c388.jpg","date":"2010-10-16","year":2010,"month":10,"lon":35.526764,"lat":30.546421,"tags":"aerial+archaeology,aerial+photography,air+photo,ancient+history,levant,middle+east,near+east,village","S2CellId":"0da3000000000000","result":611,"accuracy":0.041659314,"title":"Shaubak+Ruin+21","description":"APAAME_20101016_DDB-0080.dng"}
{"id":6143338385,"url":"http://farm7.staticflickr.com/6157/6143338385_6fb154e4f9.jpg","path":"135/931/135931da8b876fc3eadea4eb42d21ab.jpg","date":"2011-08-20","year":2011,"month":8,"lon":35.024757,"lat":30.045097,"tags":"arava,desert,deserto,eretz,erez,heretz,herez,israel,israele,kibbutz,negev","S2CellId":"1240000000000000","result":651,"accuracy":0.04743281,"title":"fabcom_IMG_8079"}
{"id":4219185214,"url":"http://farm5.staticflickr.com/4054/4219185214_cfe7fc852e.jpg","path":"209/06c/20906cd4166a95aef905dc99482238a.jpg","date":"2009-10-13","year":2009,"month":10,"lon":35.453243,"lat":30.324709,"tags":"jor,jordan,umm+%C5%9Fay%E1%B8%A9%C5%ABn,umm+say%3Fun","S2CellId":"1501400000000000","result":1348,"accuracy":0.5131773,"title":"aida_0910_115","description":"Khazne+al-Firaun+von+Innen"}
{"id":6265979448,"url":"http://farm7.staticflickr.com/6039/6265979448_efe65ddcd8.jpg","path":"b3b/2ca/b3b2cade8253913842bbefceff86edbe.jpg","date":"2011-10-13","year":2011,"month":10,"lon":35.44612,"lat":30.676355,"tags":"aerial+archaeology,aerial+photography,air+photo,ancient+history,archaeology,middle+east","S2CellId":"9114000000000000","result":9597,"accuracy":0.1877283,"title":"Khirbat+Nqeib+Aseimer","description":"APAAME_20111013_DLK-0434.dng"}
{"id":71142315,"url":"http://farm1.staticflickr.com/20/71142315_53c75e569d.jpg","path":"8e4/def/8e4deff84e745e13a530cc9ff5fcd8.jpg","date":"2005-11-24","year":2005,"month":11,"lon":35.31555,"lat":30.109493,"tags":"jordan,petra","S2CellId":"1500c00000000000","result":1347,"accuracy":0.656507,"title":"Petra"}
{"id":5110059891,"url":"http://farm2.staticflickr.com/1217/5110059891_2417e692b8.jpg","path":"4f6/b97/4f6b97511fb0ef264b7a78780848b82.jpg","date":"2010-10-17","year":2010,"month":10,"lon":35.47803,"lat":30.1275,"tags":"aerial+archaeology,aerial+photography,air+photo,ancient+history,levant,middle+east,near+east,village","S2CellId":"9154000000000000","result":9600,"accuracy":0.17717329,"title":"Shara+Village+19+%28Dhor%29","description":"APAAME_20101017_DDB-0178.dng"}
{"id":5113943500,"url":"http://farm2.staticflickr.com/1093/5113943500_7b3fe7c30b.jpg","path":"4c2/5a0/4c25a0cff92e8d59ef8015a7bf4d88d0.jpg","date":"2010-10-17","year":2010,"month":10,"lon":35.44017,"lat":30.096909,"tags":"aerial+archaeology,aerial+photography,air+photo,ancient+history,hamlet%3F,levant,middle+east,near+east","S2CellId":"1503100000000000","result":1355,"accuracy":0.19135213,"title":"ARNAS+159","description":"APAAME_20101017_DLK-0296.dng"}
{"id":6256435613,"url":"http://farm7.staticflickr.com/6161/6256435613_a6b4e707dd.jpg","path":"e25/b2d/e25b2dbc23e2b8b44e9d9ab8e9ba1528.jpg","date":"2011-10-10","year":2011,"month":10,"lon":35.67178,"lat":30.796776,"tags":"aerial+archaeology,aerial+photography,air+photo,ancient+history,archaeology,middle+east","S2CellId":"1c70000000000000","result":1446,"accuracy":0.14156681,"title":"Tafila+Ruin+20","description":"APAAME_20111010_RHB-0312.jpg"}
{"id":457299232,"url":"http://farm1.staticflickr.com/233/457299232_884b681ad1.jpg","path":"e25/27f/e2527f5a61fc233da69ccb12dcc038.jpg","date":"2007-01-18","year":2007,"month":1,"lon":35.440434,"lat":30.325914,"tags":"desert,indiana+jones,jordan,petra,rocks,vacation","S2CellId":"3e94000000000000","result":2627,"accuracy":0.09100478,"title":"IMG_2613.jpg","description":"Walking+into+the+canyon+at+Petra."}
{"id":5100203584,"url":"http://farm2.staticflickr.com/1260/5100203584_1a09ef4706.jpg","path":"83a/3d8/83a3d83c621627fed9f3966e669017.jpg","date":"2010-10-16","year":2010,"month":10,"lon":35.47664,"lat":30.247686,"tags":"aerial+archaeology,aerial+photography,air+photo,ancient+history,levant,middle+east,near+east,village","S2CellId":"80c7000000000000","result":7223,"accuracy":0.07278406,"title":"Kh.+Majddal","description":"APAAME_20101016_SES-0252.dng"}
{"id":8733354615,"url":"http://farm8.staticflickr.com/7293/8733354615_919fd7cf68.jpg","path":"438/316/43831661cf717da83fa73c90b0946ba2.jpg","date":"2013-05-09","year":2013,"month":5,"lon":35.45937,"lat":30.323858,"tags":"dead2red,e+18-55mm+f3.5-5.6+oss,jordan,petra","S2CellId":"1501400000000000","result":1348,"accuracy":0.889419,"title":"DSC07903"}
{"id":11751271564,"url":"http://farm8.staticflickr.com/7429/11751271564_917bd9db8e.jpg","path":"e72/024/e72024d079d746c846bbd3afc3e28a9.jpg","date":"2013-12-29","year":2013,"month":12,"lon":35.450226,"lat":30.324345,"tags":"bedouin,camel,jordan,petra","S2CellId":"1501400000000000","result":1348,"accuracy":0.9303151,"title":"Petra%27s+People"}
{"id":4869733363,"url":"http://farm5.staticflickr.com/4118/4869733363_96a6a7fc1c.jpg","path":"f4f/09a/f4f09a6613855d70a476baa238db1eb.jpg","date":"2010-07-14","year":2010,"month":7,"lon":35.443096,"lat":30.352213,"tags":"jordan,petra","S2CellId":"1501400000000000","result":1348,"accuracy":0.7968437,"title":"IMG_7226"}
{"id":5110054483,"url":"http://farm2.staticflickr.com/1117/5110054483_27a9cd3c00.jpg","path":"6eb/8d1/6eb8d116741c4583e1bfe8887c1e399f.jpg","date":"2010-10-17","year":2010,"month":10,"lon":35.41015,"lat":30.098358,"tags":"aerial+archaeology,aerial+photography,air+photo,ancient+history,levant,middle+east,near+east,village","S2CellId":"8737000000000000","result":7801,"accuracy":0.3967223,"title":"ARNAS+225","description":"APAAME_20101017_DLK-0121.dng"}
{"id":4325134234,"url":"http://farm5.staticflickr.com/4041/4325134234_8782d76ddc.jpg","path":"879/2ba/8792baccb194347221cb6ccd71fa874.jpg","date":"2008-10-09","year":2008,"month":10,"lon":35.508793,"lat":30.014336,"tags":"aerial+archaeology,aerial+photography,air+photo,ancient+history,archaeology,middle+east","S2CellId":"5351f00000000000","result":6036,"accuracy":0.020892752,"title":"Shara+Village+4a","description":"APAAME_20081009_DLK-0094.dng"}
{"id":6940383779,"url":"http://farm8.staticflickr.com/7037/6940383779_5582bc31ff.jpg","path":"3c6/a46/3c6a467ea6c68ddeb5d8b3fdc3f5bb3d.jpg","date":"2011-11-08","year":2011,"month":11,"lon":35.442783,"lat":30.326296,"tags":"ancient+history,archaeology,byzantine,church,geo%3Acity%3D,geo%3Acountrys%3D,geo%3Astate%3D,ground,middle+east,mozaic","S2CellId":"14cab9bf00000000","result":1317,"accuracy":0.061724808,"title":"Petra","description":"APAAMEG_20111108_MND-0237.dng"}
{"id":3750672432,"url":"http://farm3.staticflickr.com/2567/3750672432_e24144bdb2.jpg","path":"427/df8/427df8d88491c390373e2cf49d3de617.jpg","date":"2004-12-31","year":2004,"month":12,"lon":35.47657,"lat":30.322878,"tags":"balcony,jordan,petra,petra+palace+hotel","S2CellId":"0d7c000000000000","result":608,"accuracy":0.052215792,"title":"Petra+Palace+Hotel"}
{"id":5494126052,"url":"http://farm6.staticflickr.com/5098/5494126052_4b0a2fe85a.jpg","path":"582/a6f/582a6f159d2abc441a5fdfa84d304e7b.jpg","date":"2011-02-20","year":2011,"month":2,"lon":35.456314,"lat":30.330137,"tags":"jordan,petra","S2CellId":"1501400000000000","result":1348,"accuracy":0.45837614,"title":"Policeman","description":"Petra+-+Jordan"}
{"id":5262161753,"url":"http://farm6.staticflickr.com/5201/5262161753_501e0dc9db.jpg","path":"15f/5e9/15f5e96bc82e752523a2e379ce8a842.jpg","date":"2009-09-30","year":2009,"month":9,"lon":35.56608,"lat":30.52839,"tags":"aerial+archaeology,aerial+photography,air+photo,ancient+history,digital+camera,flight+3,jordan,levant,maan,middle+east,near+east","S2CellId":"151cc00000000000","result":1380,"accuracy":0.18662024,"title":"Shaubak+Castle","description":"APAAME_20090930_MJN-210.dng"}
{"id":4325052760,"url":"http://farm3.staticflickr.com/2728/4325052760_8ca92ca8c3.jpg","path":"cec/e90/cece90ac5ac0882532117f3a187f9e5.jpg","date":"2008-10-08","year":2008,"month":10,"lon":35.75729,"lat":30.183556,"tags":"aerial+archaeology,flight+5,ma%27an,ma%27an+trenches+2,trenches,trenches+2","S2CellId":"9114000000000000","result":9597,"accuracy":0.30343175,"title":"Ma%27an+Trenches+2","description":"APAAME_20081008_RHB-0242.dng"}
{"id":6263437619,"url":"http://farm7.staticflickr.com/6019/6263437619_0bacd3b168.jpg","path":"603/84f/60384f5d18c84deb32ef9267447a41e.jpg","date":"2011-10-13","year":2011,"month":10,"lon":35.605183,"lat":30.885406,"tags":"aerial+archaeology,aerial+photography,air+photo,ancient+history,archaeology,middle+east","S2CellId":"80db100000000000","result":7313,"accuracy":0.06481602,"title":"Aima","description":"APAAME_20111013_DDB-0302.dng"}
{"id":5142489376,"url":"http://farm2.staticflickr.com/1255/5142489376_3597df19fc.jpg","path":"dbc/4ef/dbc4ef6c29bcd622dc553c7b1e3c18.jpg","date":"2010-10-25","year":2010,"month":10,"lon":35.971176,"lat":30.982168,"tags":"aerial+archaeology,aerial+photography,air+photo,ancient+history,levant,middle+east,near+east","S2CellId":"877c000000000000","result":7905,"accuracy":0.084409624,"title":"Kh.+al-Askar","description":"APAAME_20101025_DLK-0047.dng"}
{"id":5587695836,"url":"http://farm6.staticflickr.com/5099/5587695836_da5b09a3fa.jpg","path":"f37/cca/f37cca9afd1167adb3ce64b0b7b9a1.jpg","date":"2009-10-29","year":2009,"month":10,"lon":35.44464,"lat":30.04532,"tags":"coca-cola,jordan","S2CellId":"8644b5a700000000","result":7586,"accuracy":0.00373287,"title":"d091115+543c"}
{"id":5110418400,"url":"http://farm2.staticflickr.com/1066/5110418400_0ea2425c5a.jpg","path":"012/3ca/0123cad73306834f2fd88705baf13b.jpg","date":"2010-10-17","year":2010,"month":10,"lon":35.463425,"lat":30.0228,"tags":"aerial+archaeology,aerial+photography,air+photo,ancient+history,levant,middle+east,near+east,village","S2CellId":"8748400000000000","result":7819,"accuracy":0.21692197,"title":"Kh.+%27Ayn+Surra","description":"APAAME_20101017_SES-0031.dng"}
{"id":7912435198,"url":"http://farm9.staticflickr.com/8300/7912435198_d67caba434.jpg","path":"40b/134/40b134ad8223a60a77a871f39af8f2f.jpg","date":"2012-08-15","year":2012,"month":8,"lon":35.46936,"lat":30.329027,"tags":"2012,august,james+guppy,jordan,middle+east,petra","S2CellId":"1501400000000000","result":1348,"accuracy":0.7911089,"title":"IMG_0178","description":"These+horses+were+all+just+doll+bludgers%21"}
{"id":5124948387,"url":"http://farm5.staticflickr.com/4059/5124948387_00ae5c5672.jpg","path":"f74/747/f74747baef583cd4760a0d3f35a778c.jpg","date":"2008-10-08","year":2008,"month":10,"lon":35.657295,"lat":30.645855,"tags":"aerial+archaeology,aerial+photography,air+photo,ancient+history,circle+3,digital+camera,flight+5,levant,middle+east,near+east","S2CellId":"47f9000000000000","result":4733,"accuracy":0.0054610185,"title":"Circle+3","description":"Apaame_20081008_ffr-0339.Jpg"}
{"id":6688034351,"url":"http://farm8.staticflickr.com/7022/6688034351_8ff86e5c64.jpg","path":"998/582/998582b995943ccf76549b8f4c973b6.jpg","date":"2012-01-12","year":2012,"month":1,"lon":35.452286,"lat":30.32213,"tags":"20120112-085101.jpg,jordan,jordanie,jordanien,petra,wadi+moussa,wadi+musa","S2CellId":"4659400000000000","result":2884,"accuracy":0.0037595956,"title":"Another+random+Petra+panorama","description":"Again+in+crappy+phone+camera+quality..."}
{"id":4504612941,"url":"http://farm3.staticflickr.com/2734/4504612941_53e0f7b17b.jpg","path":"f77/66b/f7766b803346ed55e099e01fe73064b3.jpg","date":"2010-03-31","year":2010,"month":3,"lon":35.473995,"lat":30.327139,"tags":"beams,canyon,cliff,d50,desfiladero,flare,jordan,jordania,monta%C3%B1a,mountain,nikon,pe%C3%B1asco,petra,piedra,ray,rayos,rocas,rocks,sol,solares,sun,sunbeams,sunny,talleda,xavi+talleda","S2CellId":"8737000000000000","result":7801,"accuracy":0.1008311,"title":"dots+of+light"}
{"id":4325276202,"url":"http://farm3.staticflickr.com/2756/4325276202_951ed39657.jpg","path":"dba/3d1/dba3d17d88226557be4b6a6d611346.jpg","date":"2008-10-09","year":2008,"month":10,"lon":35.501923,"lat":30.224628,"tags":"aerial+archaeology,aerial+photography,air+photo,ancient+history,archaeology,middle+east","S2CellId":"80c2bac000000000","result":7165,"accuracy":0.0023050858,"title":"Shara+Ruin+26","description":"APAAME_20081009_DLK-0346.dng"}
{"id":4994465455,"url":"http://farm5.staticflickr.com/4089/4994465455_60c0eb6ac6.jpg","path":"3ae/9be/3ae9bec12eded694117835b8f957b915.jpg","date":"2007-04-19","year":2007,"month":4,"lon":35.726402,"lat":30.750336,"tags":"aerial+archaeology,aerial+photography,air+photo,ancient+history,flight+2,fort,jordan+2007,levant,middle+east,near+east,roman,scanned+from+slide,village","S2CellId":"8737000000000000","result":7801,"accuracy":0.032932825,"title":"Kh.+at-Tuwanah","description":"APAAME_20070419_RHB-0038.tif"}
{"id":5114057260,"url":"http://farm2.staticflickr.com/1055/5114057260_58acbe5f18.jpg","path":"4a5/7b5/4a57b58c25939e76c3fa91596419.jpg","date":"2010-10-17","year":2010,"month":10,"lon":35.507957,"lat":30.287657,"tags":"aerial+archaeology,aerial+photography,air+photo,ancient+history,levant,middle+east,near+east,village","S2CellId":"1c70000000000000","result":1446,"accuracy":0.019086404,"title":"Khidad+Ruin+58","description":"APAAME_20101017_SES-0170.dng"}
{"id":9553151141,"url":"http://farm4.staticflickr.com/3668/9553151141_94af4e964b.jpg","path":"ca6/f2f/ca6f2f5ce2925e1587934de7b29472.jpg","date":"2008-10-09","year":2008,"month":10,"lon":35.511574,"lat":30.00459,"tags":"aerial+archaeology,aerial+photography,air+photo,ancient+history,archaeology,middle+east","S2CellId":"1c70000000000000","result":1446,"accuracy":0.4005592,"title":"Shara+Ruin+14","description":"APAAME_20081009_FFR-0123.jpg"}
{"id":4194934918,"url":"http://farm3.staticflickr.com/2583/4194934918_b63077cb10.jpg","path":"c42/9bd/c429bde593de488c9d28d513ada21.jpg","date":"2009-09-30","year":2009,"month":9,"lon":35.483784,"lat":30.302753,"tags":"flight+3,jordan,petra+ruin+6","S2CellId":"1c70000000000000","result":1446,"accuracy":0.028862912,"title":"Petra+Ruin+6","description":"APAAME_20090930_DLK-0357.dng"}
{"id":5099830219,"url":"http://farm2.staticflickr.com/1096/5099830219_bf6d45cae9.jpg","path":"24d/c2a/24dc2a416f918a568dd448f017da536.jpg","date":"2010-10-16","year":2010,"month":10,"lon":35.605057,"lat":30.262394,"tags":"aerial+archaeology,aerial+photography,air+photo,ancient+history,levant,middle+east,near+east","S2CellId":"5351f00000000000","result":6036,"accuracy":0.071374215,"title":"SAAS+112","description":"APAAME_20101016_DDB-0534.dng"}
{"id":5885853630,"url":"http://farm7.staticflickr.com/6004/5885853630_4d27c852c5.jpg","path":"523/73b/52373b986556145488deb01653c3cac.jpg","date":"2011-06-22","year":2011,"month":6,"lon":35.480797,"lat":30.320013,"tags":"barren,carriages,desert,petra,rock,transport,world+heritage","S2CellId":"1501400000000000","result":1348,"accuracy":0.72712195,"title":"Carriage+Conversation"}
{"id":5918056244,"url":"http://farm7.staticflickr.com/6134/5918056244_dd976d1c79.jpg","path":"6ac/34f/6ac34ff36b49b5bf9a379f73be115.jpg","date":"2007-03-17","year":2007,"month":3,"lon":35.029285,"lat":30.045584,"tags":"birds,israel,wagtails,wagtails+and+pipits","S2CellId":"3d00000000000000","result":2580,"accuracy":0.03230602,"title":"Yellow_Wagtail_feldegg_Yotvata_Israel_2007_03_17_004.jpg"}
{"id":6910106502,"url":"http://farm8.staticflickr.com/7046/6910106502_e4fe011869.jpg","path":"b66/d93/b66d93bb1ccd50f08c63affd9fa78b2a.jpg","date":"2012-03-19","year":2012,"month":3,"lon":35.481976,"lat":30.322508,"tags":"fam%C3%ADlia,gl%C3%B2ria,jord%C3%A0nia,jordan,jordania,petra","S2CellId":"12a8400000000000","result":770,"accuracy":0.06834598,"title":"Jord%C3%A0nia+2012","description":"Petra.+Entorns+del+Monestir."}
{"id":6255009790,"url":"http://farm7.staticflickr.com/6094/6255009790_b26de56ce7.jpg","path":"d78/9e4/d789e4431015d15ae5c71ad6d3a2cb5a.jpg","date":"2011-10-10","year":2011,"month":10,"lon":35.6344,"lat":30.651522,"tags":"aerial+archaeology,aerial+photography,air+photo,ancient+history,archaeology,middle+east","S2CellId":"464ff24000000000","result":2832,"accuracy":0.022041734,"title":"Khirbet+Shada","description":"APAAME_20111010_RHB-0233.jpg"}
{"id":9686376536,"url":"http://farm4.staticflickr.com/3729/9686376536_47c80c0c06.jpg","path":"867/9b5/8679b5cc7fe93951dd460549a1df54b.jpg","date":"2007-08-17","year":2007,"month":8,"lon":35.657185,"lat":30.646055,"tags":"ancient+history,archaeology,big+circle,geo%3Acity%3D,geo%3Acountrys%3D,geo%3Astate%3D,ground,jordan,middle+east,stone+structure","S2CellId":"54b4000000000000","result":6293,"accuracy":0.0778434,"title":"Jordan+Circle+3+%28Shaubak%29","description":"APAAMEG_20070817_DLK-0083.JPG"}
{"id":506774084,"url":"http://farm1.staticflickr.com/214/506774084_05b3d78226.jpg","path":"24c/a67/24ca6773a94953b195d2362e39dd74bb.jpg","date":"2007-05-16","year":2007,"month":5,"lon":35.46919,"lat":30.321766,"tags":"arab,arabic,asia,bones,eastern+mediterranean,jordan,levant,little+petra,middle+east,petra,siq+al-berid,southwest+asia,tourism,travel","S2CellId":"2bfc000000000000","result":1527,"accuracy":0.018693205,"title":"Dead+Livestock","description":"This+one+must+have+died+naturally%2C+as+there+were+no+roads+anywhere+near+here...+appropriately+enough%2C+we+were+horribly+lost+when+we+came+across+this."}
{"id":6256858726,"url":"http://farm7.staticflickr.com/6040/6256858726_f0364c92a8.jpg","path":"81b/5cc/81b5cc5ab2987e38b5bf807b2ef5ffb5.jpg","date":"2011-10-10","year":2011,"month":10,"lon":35.616863,"lat":30.76174,"tags":"ancient+history,archaeology,geo%3Acity%3D,geo%3Acountrys%3D,geo%3Astate%3D,jadis%3A2001009,mega-j%3A9172,middle+east","S2CellId":"144c000000000000","result":1197,"accuracy":0.012390546,"title":"Tafila+Ruins+15","description":"APAAME_20111010_DLK-0361.dng"}
{"id":6788231068,"url":"http://farm8.staticflickr.com/7052/6788231068_f59aaa6348.jpg","path":"b69/1e9/b691e9e94bc73a2ed77ff03bcf4b593b.jpg","date":"2011-11-06","year":2011,"month":11,"lon":35.77913,"lat":30.493763,"tags":"ancient+history,archaeology,geo%3Acity%3D,geo%3Acountrys%3D,geo%3Astate%3D,ground,middle+east","S2CellId":"8732400000000000","result":7784,"accuracy":0.05502366,"title":"Unayza+Trenches+3","description":"APAAMEG_20111106_MND-0171.dng"}
{"id":18022876,"url":"http://farm1.staticflickr.com/13/18022876_ebdec92eff.jpg","path":"aae/11c/aae11c4e2a6bf35b3f916fa60a8b76a.jpg","date":"2005-03-25","year":2005,"month":3,"lon":35.48,"lat":30.32,"tags":"beastofburden,camels,jordan,oldandnew,petra,suit,twocultures","S2CellId":"1501400000000000","result":1348,"accuracy":0.36702225,"title":"Camels+at+Petra","description":"looks+like+this+guy+is+saying+%22no+thanks+I%27ll+walk..%22%0D%0A%0D%0A%3Ca+href%3D%22http%3A%2F%2Fwww.geobloggers.com%22%3Ewww.geobloggers.com%3C%2Fa%3E"}
{"id":5881971673,"url":"http://farm7.staticflickr.com/6057/5881971673_fc726083c8.jpg","path":"c22/7c5/c227c5075d7eb647c08b9454506d65.jpg","date":"2011-06-22","year":2011,"month":6,"lon":35.480625,"lat":30.319717,"tags":"decor,design,hotel,jordan,lounge,movenpick+resort,opulent,symmetrical,wadi+musa","S2CellId":"12a3840000000000","result":681,"accuracy":0.1268806,"title":"Hotel+Lounge"}
{"id":8731799243,"url":"http://farm8.staticflickr.com/7285/8731799243_a3d4de928a.jpg","path":"404/aab/404aabdfcb8061af7b9afdf6abc412.jpg","date":"2013-05-08","year":2013,"month":5,"lon":35.56154,"lat":30.52974,"tags":"castle,dead2red,jordan,shobak,tunnel","S2CellId":"12df000000000000","result":942,"accuracy":0.0149305975}
{"id":5099496236,"url":"http://farm2.staticflickr.com/1125/5099496236_78fc021e2e.jpg","path":"6bc/c2e/6bcc2e43e732f885a5e3ed4e16854a.jpg","date":"2010-10-16","year":2010,"month":10,"lon":35.543674,"lat":30.50044,"tags":"aerial+archaeology,aerial+photography,air+photo,ancient+history,levant,middle+east,near+east,village","S2CellId":"1501400000000000","result":1348,"accuracy":0.034366246,"title":"Khidad+Ruin+78","description":"APAAME_20101016_DLK-0122.dng"}
{"id":2134255776,"url":"http://farm3.staticflickr.com/2209/2134255776_e271b16082.jpg","path":"8f3/091/8f309158126a5345d95f9ee926d58f1.jpg","date":"2007-10-20","year":2007,"month":10,"lon":35.447052,"lat":30.321346,"tags":"jordan,jordanie2007,map20071020,map20071020d,petra","S2CellId":"80c8b00000000000","result":7226,"accuracy":0.066908024,"title":"IMG_7175.JPG","description":"Map+it%3A+%3Ca+href%3D%22http%3A%2F%2Fwww.robogeo.com%2FFlickr2Map%2F%22%3EGoogle+Earth%3C%2Fa%3E+%7C+%3Ca+href%3D%22http%3A%2F%2Fwww.robogeo.com%2FFlickr2Map%2F%3Ftype%3Dmap%22+target%3D%22_blank%22%3EStreet%3C%2Fa%3E+%7C+%3Ca+href%3D%22http%3A%2F%2Fwww.robogeo.com%2FFlickr2Map%2F%3Ftype%3Dmap%26view%3Dsatellite%22+target%3D%22_blank%22%3ESatellite%3C%2Fa%3E+%7C+%3Ca+href%3D%22http%3A%2F%2Fwww.robogeo.com%2FFlickr2Map%2F%3Ftype%3Dmap%26view%3Dhybrid%22+target%3D%22_blank%22%3EHybrid%3C%2Fa%3E+%7C+%3Ca+href%3D%22http%3A%2F%2Fwww.robogeo.com%2FFlickr2Map%2F%3Ftype%3Dnautical%22+target%3D%22_blank%22%3ENautical%3C%2Fa%3E"}
{"id":4500685890,"url":"http://farm3.staticflickr.com/2766/4500685890_b7e1905a83.jpg","path":"ada/e55/adae557f81c94b9abe9791688e6b0f6.jpg","date":"2004-09-30","year":2004,"month":9,"lon":35.443695,"lat":30.32962,"tags":"%CF%80%CE%AD%CF%84%CF%81%CE%B1,%D7%A0%D7%91%D7%98%D7%99%D7%9D,%D7%A4%D7%98%D7%A8%D7%94,%D8%A7%D9%84%D8%A3%D8%B1%D8%AF%D9%86,%D8%A7%D9%84%D8%A8%D8%AA%D8%B1%D8%A7%D8%A1,%D9%85%D8%B9%D8%A7%D9%86,%D9%85%D9%85%D9%84%D9%83%D8%A9+%D8%A7%D9%84%D8%A3%D9%86%D8%A8%D8%A7%D8%B7,%E3%83%9A%E3%83%88%E3%83%A9,2004,al-%27urdunn,al-batr%C4%81,ancient,beduion,hashemite+kingdom+of+jordan,jill+marie,jordan,ma%27an,middleeast,nabatean,new+seven+wonders+of+the+world,petra,rock,travel,unesco,world+heritage+site","S2CellId":"1501400000000000","result":1348,"accuracy":0.6524463,"title":"JO04+8671+Petra","description":"Bartering+with+Jordanian+camel+driver."}
{"id":4540144953,"url":"http://farm5.staticflickr.com/4031/4540144953_1c3c561b65.jpg","path":"19a/a28/19aa28ac91a2c44972f8669132a24a0.jpg","date":"2010-02-27","year":2010,"month":2,"lon":35.441723,"lat":30.33073,"tags":"2010,boy,jordan,little,petra,rocks,sheep,shepherd,stones","S2CellId":"2bfc000000000000","result":1527,"accuracy":0.08373909,"title":"IMG_4985","description":"The+little+shepherd"}
{"id":5100558040,"url":"http://farm2.staticflickr.com/1362/5100558040_9a71f83c62.jpg","path":"534/b22/534b22472224f7afa7e2584591bc25b4.jpg","date":"2010-10-16","year":2010,"month":10,"lon":35.4552,"lat":30.115295,"tags":"aerial+archaeology,aerial+photography,air+photo,ancient+history,farm%3F,levant,middle+east,near+east","S2CellId":"1c70000000000000","result":1446,"accuracy":0.09029413,"title":"Kh.+ad-D%C5%ABr+West","description":"APAAME_20101016_DDB-0579.dng"}
{"id":5125884696,"url":"http://farm2.staticflickr.com/1083/5125884696_5c14bf2f5c.jpg","path":"c2a/8d1/c2a8d1ee1cb492f5568d151a2e16ef2.jpg","date":"2010-10-29","year":2010,"month":10,"lon":35.48041,"lat":30.32031,"tags":"jordan,petra,red,rose,stone","S2CellId":"877c000000000000","result":7905,"accuracy":0.03228091,"title":"Rose-Red+Stone","description":"There+is+a+good+reason+Petra+has+become+known+as+a+rose-hued+gem+in+the+middle+of+the+desert+landscape.+The+flowing+patterns+add+a+brilliant+layer+to+the+carved-out+temples%2C+tombs%2C+and+other+buildings+in+the+Nabataean+oasis."}
{"id":4332387731,"url":"http://farm3.staticflickr.com/2797/4332387731_9eb567757c.jpg","path":"f93/bde/f93bde8bbd3fb8a724279e6743c23d2.jpg","date":"2010-02-01","year":2010,"month":2,"lon":35.453407,"lat":30.32064,"tags":"jordan,petra,treasury","S2CellId":"0dbc000000000000","result":635,"accuracy":0.034493834,"title":"The+Treasury"}
{"id":4986207834,"url":"http://farm5.staticflickr.com/4128/4986207834_3b2d75f00d.jpg","path":"e41/626/e4162665b7cd8b58fcdf8d5e3278aff0.jpg","date":"2005-10-02","year":2005,"month":10,"lon":35.515278,"lat":30.241943,"tags":"aerial+archaeology,aerial+photography,air+photo,ancient+history,farm,flight+3,jordan+2005_3,levant,middle+east,near+east,scanned+from+slide","S2CellId":"9154000000000000","result":9600,"accuracy":0.030805381,"title":"Ma%27an+Ruin+17","description":"APAAME_20051002_RHB-0050.tif"}
{"id":1373874701,"url":"http://farm2.staticflickr.com/1022/1373874701_576e9a8551.jpg","path":"d11/cf3/d11cf37ae46128291ec5232fb82c21fb.jpg","date":"2007-09-10","year":2007,"month":9,"lon":35.587463,"lat":30.848005,"tags":"jordan,kings+highway","S2CellId":"12a4a2f900000000","result":738,"accuracy":0.037959278,"title":"Kerak+Castle"}
{"id":6263423415,"url":"http://farm7.staticflickr.com/6110/6263423415_3f09333d63.jpg","path":"4ba/491/4ba491c06c1cbaf71dd6d0919554b834.jpg","date":"2011-10-13","year":2011,"month":10,"lon":35.608025,"lat":30.883953,"tags":"aerial+archaeology,aerial+photography,air+photo,ancient+history,archaeology,middle+east","S2CellId":"80cbc00000000000","result":7264,"accuracy":0.038802117,"title":"Aima","description":"APAAME_20111013_DDB-0295.dng"}
{"id":5111329738,"url":"http://farm2.staticflickr.com/1429/5111329738_618c1e4ee6.jpg","path":"2c2/dff/2c2dff44e39c599e71814c8afac3ab.jpg","date":"2010-10-17","year":2010,"month":10,"lon":35.444202,"lat":30.07719,"tags":"aerial+archaeology,aerial+photography,air+photo,ancient+history,levant,middle+east,near+east,village","S2CellId":"8737000000000000","result":7801,"accuracy":0.068556465,"title":"Shara+Village+34+%28Kh.+Umm+Baradiya+South%29","description":"APAAME_20101017_DDB-0272.dng"}
{"id":3958706690,"url":"http://farm3.staticflickr.com/2620/3958706690_2a03757d21.jpg","path":"4a8/ee9/4a8ee9ffe7e965c1fef83884eb8ddd6.jpg","date":"2009-09-19","year":2009,"month":9,"lon":35.45906,"lat":30.29585,"tags":"2009,animals,donkeys,jordan,petra,unesco,world+heritage+sites","S2CellId":"1501400000000000","result":1348,"accuracy":0.12456885,"title":"Donkey+taxis+waiting+for+a+fare","description":"One+of+the+royal+princesses+started+an+animal+clinic%2C+so+they+are+well-cared+for"}
{"id":4985180887,"url":"http://farm5.staticflickr.com/4085/4985180887_3d797c0913.jpg","path":"16d/199/16d1998b2a268b768da4ea6f288ecff.jpg","date":"2004-06-01","year":2004,"month":6,"lon":35.657295,"lat":30.645855,"tags":"aerial+archaeology,aerial+photography,air+photo,ancient+history,flight+3+2004,jordan,levant,middle+east,near+east,scanned+from+slide","S2CellId":"872b640000000000","result":7770,"accuracy":0.019020522,"title":"Circle+3+%28Shaubak%29","description":"APAAME_20040601_DLK-0108.tif"}
{"id":6256873200,"url":"http://farm7.staticflickr.com/6093/6256873200_4665957b18.jpg","path":"683/8ab/6838abf5f33799369e60a5b786163f4.jpg","date":"2011-10-10","year":2011,"month":10,"lon":35.594,"lat":30.763678,"tags":"aerial+archaeology,aerial+photography,air+photo,ancient+history,archaeology,middle+east","S2CellId":"144c000000000000","result":1197,"accuracy":0.07067206,"title":"Al-Mitan","description":"APAAME_20111010_DLK-0368.dng"}
{"id":6793900616,"url":"http://farm8.staticflickr.com/7197/6793900616_569e5b5aab.jpg","path":"429/2de/4292dea53dcd5dc8e95ba6c32511751.jpg","date":"2011-11-07","year":2011,"month":11,"lon":35.463257,"lat":30.321634,"tags":"ancient+history,archaeology,geo%3Acity%3D,geo%3Acountrys%3D,geo%3Astate%3D,ground,middle+east","S2CellId":"1501400000000000","result":1348,"accuracy":0.22403237,"title":"Petra","description":"APAAMEG_20111107_MND-0067.dng"}
{"id":5942259115,"url":"http://farm7.staticflickr.com/6137/5942259115_44978a0cbe.jpg","path":"f8d/98b/f8d98b8c8322cd653b46bf9b64292e2.jpg","date":"2011-06-15","year":2011,"month":6,"lon":35.670547,"lat":30.641457,"tags":"blanc,butterfly,dana,desert,dhana,euchloe,gr%C3%A8s,green,jordan,jordanie,juin,june,middle-east,montagne,mountains,moyen-orient,papillon,pi%C3%A9ride,roc,rocher,rock,sandstone,vert,white","S2CellId":"12a4840000000000","result":693,"accuracy":0.04733127,"title":"Pi%C3%A9ride+%C3%A0+Dhana","description":"probablement+une+esp%C3%A8ce+d%27Euchloe"}
{"id":5100016702,"url":"http://farm5.staticflickr.com/4148/5100016702_e3f91e4af5.jpg","path":"928/39c/92839cf35adeb2591eddeefb474f55d.jpg","date":"2010-10-16","year":2010,"month":10,"lon":35.515675,"lat":30.236385,"tags":"aerial+archaeology,aerial+photography,air+photo,ancient+history,levant,middle+east,near+east,tower","S2CellId":"0da3000000000000","result":611,"accuracy":0.037619457,"title":"Ma%27an+Ruin+12","description":"APAAME_20101016_DDB-0400.dng"}
{"id":2138720013,"url":"http://farm3.staticflickr.com/2223/2138720013_c614be7497.jpg","path":"a25/432/a25432117d6135c3fe52824f884ecea.jpg","date":"2007-12-26","year":2007,"month":12,"lon":35.47949,"lat":30.319174,"tags":"%D0%B8%D0%BE%D1%80%D0%B4%D0%B0%D0%BD,ancient,arch%C3%A4ologi,arch%C3%A9ologie,archaeology,arqueolog%C3%ADa,byzantine,church,il+giordano,jordan,jordania,jordanien,mosaic,nabatea,petra,rose+red+city,unesco+world+heritage+list,unesco+world+heritage+site","S2CellId":"1501400000000000","result":1348,"accuracy":0.052307468,"title":"Byzantine+Mosaic+20"}
{"id":5099648676,"url":"http://farm5.staticflickr.com/4083/5099648676_43fbe92886.jpg","path":"694/dbf/694dbfc577392180fd8eefb0e99cf890.jpg","date":"2010-10-16","year":2010,"month":10,"lon":35.533985,"lat":30.41765,"tags":"aerial+archaeology,aerial+photography,air+photo,ancient+history,farm%3F,levant,middle+east,near+east,road+station","S2CellId":"1c70000000000000","result":1446,"accuracy":0.14953023,"title":"Khidad+Ruin+86","description":"APAAME_20101016_DLK-0189.dng"}
{"id":6263359199,"url":"http://farm7.staticflickr.com/6051/6263359199_020e89cd5a.jpg","path":"2ab/15b/2ab15b4cc8d294161978ee388aefe9c.jpg","date":"2011-10-13","year":2011,"month":10,"lon":35.62867,"lat":30.91678,"tags":"aerial+archaeology,aerial+photography,air+photo,ancient+history,archaeology,middle+east","S2CellId":"9169000000000000","result":9606,"accuracy":0.021198811,"title":"Tafila+area+Fields","description":"APAAME_20111013_DDB-0267.dng"}
{"id":7912521170,"url":"http://farm9.staticflickr.com/8174/7912521170_98ca73e232.jpg","path":"7bd/554/7bd554dd2369587cf06966c05765e985.jpg","date":"2012-08-16","year":2012,"month":8,"lon":35.46936,"lat":30.329027,"tags":"2012,august,james+guppy,jordan,middle+east,petra","S2CellId":"1501400000000000","result":1348,"accuracy":0.8837719,"title":"IMG_0235","description":"Tones...all+about+the+tones."}
{"id":9414226519,"url":"http://farm4.staticflickr.com/3762/9414226519_cd8d18c985.jpg","path":"58f/3cd/58f3cdd2ca0625f0253316cdde99b.jpg","date":"2005-10-02","year":2005,"month":10,"lon":35.406387,"lat":30.316387,"tags":"2005,aerial+archaeology,aerial+photography,air+photo,ancient+history,archaeology,developer%27s+scan,middle+east","S2CellId":"877c000000000000","result":7905,"accuracy":0.02667677,"title":"Jabal+Haroun","description":"APAAME_20051002_DLK-0092.jpg"}
{"id":3749929285,"url":"http://farm3.staticflickr.com/2555/3749929285_afacf0e670.jpg","path":"639/1a3/6391a351738998f5a4dce34f536cf468.jpg","date":"2004-12-31","year":2004,"month":12,"lon":35.47657,"lat":30.322878,"tags":"ant,jordan,petra","S2CellId":"144c000000000000","result":1197,"accuracy":0.05753155,"title":"Ant+near+Monastery%2C+Petra"}
{"id":4325125472,"url":"http://farm3.staticflickr.com/2802/4325125472_acd7a4775e.jpg","path":"cc9/811/cc9811a631a61e326cadec164142cbd1.jpg","date":"2008-10-09","year":2008,"month":10,"lon":35.5143,"lat":30.006218,"tags":"aerial+archaeology,aerial+photography,air+photo,ancient+history,archaeology,middle+east","S2CellId":"1c70000000000000","result":1446,"accuracy":0.15927865,"title":"Shara+Ruin+14","description":"APAAME_20081009_DLK-0081.dng"}
{"id":4194966744,"url":"http://farm3.staticflickr.com/2787/4194966744_ac30c0d563.jpg","path":"abc/41b/abc41b5eb2d6b51dedf0bf7eeb88920.jpg","date":"2009-09-30","year":2009,"month":9,"lon":35.76,"lat":30.552937,"tags":"da%27ajaniya,flight+3,fort,jordan,roman","S2CellId":"1c70000000000000","result":1446,"accuracy":0.029545061,"title":"Da%27ajaniya","description":"APAAME_20090930_DLK-0424.dng"}
{"id":6835436094,"url":"http://farm8.staticflickr.com/7207/6835436094_a223b53347.jpg","path":"6b8/adf/6b8adff1ac56d3156f104c1cad374b5f.jpg","date":"2011-10-13","year":2011,"month":10,"lon":35.49901,"lat":30.49586,"tags":"aerial+archaeology,aerial+photography,air+photo,ancient+history,archaeology,middle+east","S2CellId":"1c70000000000000","result":1446,"accuracy":0.13457192,"title":"Khirbat+al-Malayqta","description":"APAAME_20111013_RHB-0420.jpg"}
{"id":6254419989,"url":"http://farm7.staticflickr.com/6034/6254419989_634254a897.jpg","path":"fea/799/fea799d6cbd54cc4af0f7977e33d094.jpg","date":"2011-10-10","year":2011,"month":10,"lon":35.724487,"lat":30.660576,"tags":"aerial+archaeology,aerial+photography,air+photo,ancient+history,archaeology,middle+east","S2CellId":"809f000000000000","result":7130,"accuracy":0.00800224,"title":"Shaubak+Ruins+2","description":"APAAME_20111010_RHB-0221.jpg"}
{"id":6302906153,"url":"http://farm7.staticflickr.com/6237/6302906153_c2d16cc074.jpg","path":"402/1a2/4021a28f92164414ab2c16f8cf1c7.jpg","date":"2011-09-18","year":2011,"month":9,"lon":35.448685,"lat":30.323942,"tags":"cat,ginger,jordan","S2CellId":"1458300000000000","result":1202,"accuracy":0.020955984,"title":"P1080099"}
{"id":5100263010,"url":"http://farm2.staticflickr.com/1350/5100263010_748c1032e5.jpg","path":"d7a/dc6/d7adc6d8c357869687c4b33ae7cf9.jpg","date":"2010-10-16","year":2010,"month":10,"lon":35.604843,"lat":30.32896,"tags":"aerial+archaeology,aerial+photography,air+photo,ancient+history,hamlet,levant,middle+east,near+east","S2CellId":"5351f00000000000","result":6036,"accuracy":0.030101169,"title":"Tell+Udruh","description":"APAAME_20101016_DDB-0491.dng"}
{"id":9677440825,"url":"http://farm8.staticflickr.com/7376/9677440825_30ab54711b.jpg","path":"22e/a3c/22ea3cf8ada32f3133bc80a25b7544.jpg","date":"2007-04-10","year":2007,"month":4,"lon":35.595676,"lat":30.329082,"tags":"ancient+history,archaeology,geo%3Acity%3D,geo%3Acountrys%3D,geo%3Astate%3D,ground,jordan,legionary+fortress,middle+east,roman","S2CellId":"151cc00000000000","result":1380,"accuracy":0.20018661,"title":"Udruh+Fortress","description":"APAAMEG_20070410_DLK-0018.JPG"}
{"id":4994479961,"url":"http://farm5.staticflickr.com/4113/4994479961_642d5472e1.jpg","path":"579/b50/579b5042c1f3f1a914115d20f1adde.jpg","date":"2007-04-19","year":2007,"month":4,"lon":35.651424,"lat":30.308647,"tags":"aerial+archaeology,aerial+photography,air+photo,ancient+history,channel,flight+2,jordan+2007,levant,middle+east,near+east,reservoir,scanned+from+slide,walls","S2CellId":"9114000000000000","result":9597,"accuracy":0.06714365,"title":"Fiqay+Reservoir+1","description":"APAAME_20070419_RHB-0064.tif"}
{"id":4272716502,"url":"http://farm5.staticflickr.com/4050/4272716502_319d9876d2.jpg","path":"329/2ab/3292abd6a0f8d47ae8c3bafddf66c3.jpg","date":"2010-01-09","year":2010,"month":1,"lon":35.561016,"lat":30.531538,"tags":"ash-shawbak,jordan,qal%27at,saladin","S2CellId":"916d9c0000000000","result":9613,"accuracy":0.19673261,"title":"shawbak+aperture"}
{"id":4995150228,"url":"http://farm5.staticflickr.com/4113/4995150228_42578a778a.jpg","path":"d53/07f/d5307f2b172f1441794fc9dc3e47b0.jpg","date":"2007-04-19","year":2007,"month":4,"lon":35.70315,"lat":30.907103,"tags":"aerial+archaeology,aerial+photography,air+photo,ancient+history,digital+camera,flight+2,jordan,jordan+2007,levant,middle+east,nabataean,near+east,village","S2CellId":"4ec0000000000000","result":5959,"accuracy":0.059770275,"title":"Kh.+ed-Dharih","description":"APAAME_20070419_DLK-0193.tif"}
{"id":5113510889,"url":"http://farm2.staticflickr.com/1348/5113510889_f50596b494.jpg","path":"fa2/cd7/fa2cd73793ba7cae9dadb23524f07f21.jpg","date":"2010-10-17","year":2010,"month":10,"lon":35.505253,"lat":30.26222,"tags":"aerial+archaeology,aerial+photography,air+photo,ancient+history,farm%3F,levant,middle+east,near+east","S2CellId":"1c70000000000000","result":1446,"accuracy":0.069469534,"title":"Khidad+Ruin+11","description":"APAAME_20101017_DLK-0389.dng"}
{"id":4324865430,"url":"http://farm5.staticflickr.com/4009/4324865430_499edd4e88.jpg","path":"53a/014/53a01496317966273fc75cc17f7b9d8.jpg","date":"2008-10-08","year":2008,"month":10,"lon":35.972473,"lat":30.988253,"tags":"aerial+archaeology,flight+5,kh.+al-%C3%B4askar,kh.+al-%E2%80%98askar,kh.+al-askar","S2CellId":"9114000000000000","result":9597,"accuracy":0.1734777,"title":"Kh.+al-Askar","description":"APAAME_20081008_RHB-0074.dng"}
{"id":5100378150,"url":"http://farm2.staticflickr.com/1101/5100378150_e6d1c9d573.jpg","path":"38f/d80/38fd8036561c1f85a760a5cc11b723ac.jpg","date":"2010-10-16","year":2010,"month":10,"lon":35.608604,"lat":30.291224,"tags":"aerial+archaeology,aerial+photography,air+photo,ancient+history,levant,middle+east,near+east,tower","S2CellId":"80c7000000000000","result":7223,"accuracy":0.019425482,"title":"SAAS+051","description":"APAAME_20101016_DDB-0522.dng"}
{"id":5110444560,"url":"http://farm5.staticflickr.com/4083/5110444560_576bc04790.jpg","path":"d9f/4da/d9f4da907157efcbea76f20afd79.jpg","date":"2010-10-17","year":2010,"month":10,"lon":35.458694,"lat":30.04834,"tags":"aerial+archaeology,aerial+photography,air+photo,ancient+history,levant,middle+east,near+east,road","S2CellId":"1c70000000000000","result":1446,"accuracy":0.35070878,"title":"Darb+er-Rasif","description":"APAAME_20101017_DLK-0052.dng"}
{"id":5114094066,"url":"http://farm2.staticflickr.com/1343/5114094066_d218c513bd.jpg","path":"2a2/9c0/2a29c0cd247de4e2bea1b126f260a48.jpg","date":"2010-10-17","year":2010,"month":10,"lon":35.4894,"lat":30.251017,"tags":"aerial+archaeology,aerial+photography,air+photo,ancient+history,levant,middle+east,near+east,road-station,roman","S2CellId":"1c70000000000000","result":1446,"accuracy":0.1288566,"title":"Petra+Ruin+16+%28Kh.+as-Samra%29","description":"APAAME_20101017_SES-0179.dng"}
{"id":6265497443,"url":"http://farm7.staticflickr.com/6236/6265497443_a49ab5abaa.jpg","path":"61c/c4b/61cc4bc1238d35b43dc36359bc311581.jpg","date":"2011-10-13","year":2011,"month":10,"lon":35.626293,"lat":30.578175,"tags":"aerial+archaeology,aerial+photography,air+photo,ancient+history,archaeology,middle+east","S2CellId":"0dbc000000000000","result":635,"accuracy":0.071188174,"title":"Shaubak+Area+landscape","description":"APAAME_20111013_DDB-0505.dng"}
{"id":5113967742,"url":"http://farm2.staticflickr.com/1338/5113967742_1c0a6a7d64.jpg","path":"3b4/1ba/3b41ba682b4a47ac2df3c277af4454c1.jpg","date":"2010-10-17","year":2010,"month":10,"lon":35.412216,"lat":30.113808,"tags":"aerial+archaeology,aerial+photography,air+photo,ancient+history,levant,middle+east,near+east,village","S2CellId":"1503100000000000","result":1355,"accuracy":0.03177368,"title":"Kh.+Burq","description":"APAAME_20101017_DDB-0345.dng"}
{"id":2217650514,"url":"http://farm3.staticflickr.com/2368/2217650514_688af02695.jpg","path":"848/94d/84894dd49c66bcd57c62c0fb726958aa.jpg","date":"2004-10-13","year":2004,"month":10,"lon":35.337524,"lat":30.291088,"tags":"ancient,archer10,colors,colours,dennis,dennis+g.+jarvis,dennis+jarvis,free,holiday,i+am+canadian,jordan,khazneh,monuments,nabataeans,petra,romans,ruins,sandstone,tombs,travel,world+travels","S2CellId":"1bc0000000000000","result":1443,"accuracy":0.08725191,"title":"Jordan-18A-066","description":"Looking+down+on+the+Street+of+Facades+I+saw+the+camels+waiting+to+carry+tourists.+Petra%2C+Jordan"}
{"id":4194964294,"url":"http://farm3.staticflickr.com/2196/4194964294_b5969d3f0d.jpg","path":"1e5/7a7/1e57a7d9b32f601de3df5633688b9a49.jpg","date":"2009-09-30","year":2009,"month":9,"lon":35.655293,"lat":30.297363,"tags":"fiqay+reservoir+1,flight+3,jordan,reservoir","S2CellId":"0900000000000000","result":125,"accuracy":0.024211414,"title":"Fiqay+Reservoir+1","description":"APAAME_20090930_DLK-0418.dng"}
{"id":4324993694,"url":"http://farm5.staticflickr.com/4001/4324993694_3f0124bceb.jpg","path":"9b5/a13/9b5a13034783f9cf828fabaffa76c4.jpg","date":"2008-10-08","year":2008,"month":10,"lon":35.63136,"lat":30.699608,"tags":"aerial+archaeology,flight+5,rashadiyah,rashadiyah+%28village%29,road,roman+road,village","S2CellId":"8621400000000000","result":7528,"accuracy":0.15246025,"title":"Rashadiyah+%28Village%29","description":"APAAME_20081008_DLK-0245.dng"}
{"id":266442919,"url":"http://farm1.staticflickr.com/116/266442919_6e02e55b44.jpg","path":"3cc/4b4/3cc4b4cd57c8e6e1b3a5b7ebedbe165.jpg","date":"2006-07-07","year":2006,"month":7,"lon":35.467728,"lat":30.324581,"tags":"jordan,petra","S2CellId":"0da3000000000000","result":611,"accuracy":0.081937954,"title":"Carriage","description":"Wanna+go+for+a+ride+%3F"}
{"id":5262256191,"url":"http://farm6.staticflickr.com/5283/5262256191_245ec147ab.jpg","path":"303/016/303016604f3a219e1286141ddca217b6.jpg","date":"2009-09-30","year":2009,"month":9,"lon":35.53475,"lat":30.309448,"tags":"aerial+archaeology,aerial+photography,air+photo,ancient+history,digital+camera,flight+3,jordan,levant,middle+east,near+east","S2CellId":"8734400000000000","result":7797,"accuracy":0.0037772567,"title":"Khidad+Ruin+40","description":"APAAME_20090930_SES-0122.dng"}
{"id":9677246261,"url":"http://farm4.staticflickr.com/3701/9677246261_9212c718d7.jpg","path":"135/6e8/1356e82963ceb2f630ae68b545461b8b.jpg","date":"2007-04-09","year":2007,"month":4,"lon":35.442223,"lat":30.328611,"tags":"ancient+history,archaeology,geo%3Acity%3D,geo%3Acountrys%3D,geo%3Astate%3D,ground,jordan,middle+east","S2CellId":"144c000000000000","result":1197,"accuracy":0.17048205,"title":"Petra+Great+Temple","description":"APAAMEG_20070409_DLK-0091.JPG"}
{"id":4994589013,"url":"http://farm5.staticflickr.com/4151/4994589013_0a76c969d0.jpg","path":"981/612/981612dd58a13a0d88f2b8e9eaa2276.jpg","date":"2007-04-19","year":2007,"month":4,"lon":35.726402,"lat":30.750336,"tags":"aerial+archaeology,aerial+photography,air+photo,ancient+history,digital+camera,flight+2,fort,jordan,jordan+2007,levant,middle+east,near+east,roman,via+nova+traiana","S2CellId":"8621400000000000","result":7528,"accuracy":0.014785652,"title":"Kh.+at-Tuwanah","description":"APAAME_20070419_FFR-0078.tif"}
{"id":5098833199,"url":"http://farm2.staticflickr.com/1137/5098833199_f88bc050e6.jpg","path":"906/f2c/906f2c3972bb91e9fe2f7707984ec3f.jpg","date":"2010-10-16","year":2010,"month":10,"lon":35.523846,"lat":30.525476,"tags":"aerial+archaeology,aerial+photography,air+photo,ancient+history,levant,middle+east,near+east,village","S2CellId":"1c70000000000000","result":1446,"accuracy":0.095020406,"title":"Shaubak+Ruin+20","description":"APAAME_20101016_DLK-0085.dng"}
{"id":5099648449,"url":"http://farm2.staticflickr.com/1353/5099648449_fc0b1f701f.jpg","path":"263/d59/263d598de67846827aa943d676acc.jpg","date":"2010-10-16","year":2010,"month":10,"lon":35.605255,"lat":30.337275,"tags":"aerial+archaeology,aerial+photography,air+photo,ancient+history,levant,middle+east,near+east,village%3F","S2CellId":"872f000000000000","result":7782,"accuracy":0.026134647,"title":"Juray%C4%ABdeh","description":"APAAME_20101016_SES-0257.dng"}
{"id":4324955898,"url":"http://farm5.staticflickr.com/4053/4324955898_80452d249b.jpg","path":"659/2d3/6592d37dfa7408148d5ee2c5621b93.jpg","date":"2008-10-08","year":2008,"month":10,"lon":35.918007,"lat":30.853464,"tags":"aerial+archaeology,flight+5,fort,ruweihi,ruweihi+%28%3D+whs+674%29,whs+674","S2CellId":"9114000000000000","result":9597,"accuracy":0.053096756,"title":"Ruweihi+%28%3D+WHS+674%29","description":"APAAME_20081008_RHB-0117.dng"}
{"id":4325254108,"url":"http://farm5.staticflickr.com/4038/4325254108_f0dbd193c8.jpg","path":"ba9/c8a/ba9c8a8ffce254f9dbf84b9519c7b773.jpg","date":"2008-10-09","year":2008,"month":10,"lon":35.475197,"lat":30.15847,"tags":"aerial+archaeology,aerial+photography,air+photo,ancient+history,archaeology,middle+east","S2CellId":"1c70000000000000","result":1446,"accuracy":0.07165513,"title":"Shara+Village+21","description":"APAAME_20081009_DLK-0303.dng"}
{"id":6788225418,"url":"http://farm8.staticflickr.com/7053/6788225418_556710c08d.jpg","path":"a9d/150/a9d150e6dc8c6f1fd967cf4372603f18.jpg","date":"2011-11-06","year":2011,"month":11,"lon":35.779503,"lat":30.494104,"tags":"ancient+history,archaeology,geo%3Acity%3D,geo%3Acountrys%3D,geo%3Astate%3D,ground,middle+east","S2CellId":"9154000000000000","result":9600,"accuracy":0.19747244,"title":"Unayza+Trenches+3","description":"APAAMEG_20111106_MND-0158.dng"}
{"id":7056166841,"url":"http://farm8.staticflickr.com/7242/7056166841_4643677f66.jpg","path":"af6/b43/af6b43dc73737315b3602cdfa28b6115.jpg","date":"2012-03-19","year":2012,"month":3,"lon":35.481976,"lat":30.322508,"tags":"jord%C3%A0nia,jordan,jordania,petra","S2CellId":"1501400000000000","result":1348,"accuracy":0.74398917,"title":"Jord%C3%A0nia+2012","description":"Petra+people."}
{"id":4194111859,"url":"http://farm3.staticflickr.com/2743/4194111859_aea341b3f6.jpg","path":"672/4ff/6724fff5e6f46e7e44c84c813b979627.jpg","date":"2009-09-30","year":2009,"month":9,"lon":35.56246,"lat":30.532175,"tags":"flight+3,jordan,shaubak+castle","S2CellId":"96a9000000000000","result":9916,"accuracy":0.07783409,"title":"Shaubak+Castle","description":"APAAME_20090930_DLK-0201.dng"}
{"id":4324569697,"url":"http://farm3.staticflickr.com/2755/4324569697_16c5d7ced1.jpg","path":"d4e/b23/d4eb23b078f8afe8bec5bab5d5713ddc.jpg","date":"2008-10-09","year":2008,"month":10,"lon":35.421314,"lat":30.355711,"tags":"aerial+archaeology,aerial+photography,air+photo,ancient+history,archaeology,middle+east","S2CellId":"8748400000000000","result":7819,"accuracy":0.032617442,"title":"Nabataean+Village+W+of+Beidha","description":"APAAME_20081009_DLK-0399.dng"}
{"id":6934342185,"url":"http://farm8.staticflickr.com/7049/6934342185_ed10840f65.jpg","path":"056/f3e/056f3e626cf7cf2fc53c26696c04f.jpg","date":"2011-11-06","year":2011,"month":11,"lon":35.779156,"lat":30.49378,"tags":"ancient+history,archaeology,geo%3Acity%3D,geo%3Acountrys%3D,geo%3Astate%3D,ground,middle+east","S2CellId":"9aab000000000000","result":9926,"accuracy":0.08433702,"title":"Unayza+Trenches+3","description":"APAAMEG_20111106_MND-0164.dng"}
{"id":9553556055,"url":"http://farm8.staticflickr.com/7425/9553556055_fff021df20.jpg","path":"b9f/0fb/b9f0fbb5949360f45d147747cd66f6e.jpg","date":"2008-10-09","year":2008,"month":10,"lon":35.453484,"lat":30.096075,"tags":"aerial+archaeology,aerial+photography,air+photo,ancient+history,archaeology,middle+east","S2CellId":"1c70000000000000","result":1446,"accuracy":0.15894043,"title":"Shara+Village+17","description":"APAAME_20081009_FFR-0374.jpg"}
{"id":4333321278,"url":"http://farm5.staticflickr.com/4055/4333321278_838ee915e2.jpg","path":"809/ae6/809ae6f677873e1f37d9c3a9cafa2f4.jpg","date":"2010-02-02","year":2010,"month":2,"lon":35.46502,"lat":30.342539,"tags":"jordan","S2CellId":"1501400000000000","result":1348,"accuracy":0.6909619,"title":"Jordanian+Desert"}
{"id":5099493615,"url":"http://farm2.staticflickr.com/1063/5099493615_10cfdee2b8.jpg","path":"ff3/1eb/ff31eb4c99de80553cb4394ea4f6ce76.jpg","date":"2010-10-16","year":2010,"month":10,"lon":35.480602,"lat":30.213968,"tags":"aerial+archaeology,aerial+photography,air+photo,ancient+history,hamlet,levant,middle+east,near+east","S2CellId":"1c70000000000000","result":1446,"accuracy":0.14351092,"title":"SAAS+011","description":"APAAME_20101016_DDB-0428.dng"}
{"id":9681405840,"url":"http://farm6.staticflickr.com/5485/9681405840_eccc96861d.jpg","path":"2cb/ee3/2cbee3eed3882bafa28fbb5125ec6e.jpg","date":"2007-04-22","year":2007,"month":4,"lon":35.586006,"lat":30.328508,"tags":"ancient+history,archaeology,geo%3Acity%3D,geo%3Acountrys%3D,geo%3Astate%3D,ground,jordan,middle+east","S2CellId":"2bfc000000000000","result":1527,"accuracy":0.104183815,"title":"Jordan+Circle+5","description":"APAAMEG_20070422_DLK-0084.JPG"}
{"id":9556445472,"url":"http://farm8.staticflickr.com/7396/9556445472_ba6302c158.jpg","path":"d2b/686/d2b686dee8c2ab5d4b2a6b414370e3f.jpg","date":"2008-10-09","year":2008,"month":10,"lon":35.478615,"lat":30.166063,"tags":"aerial+archaeology,aerial+photography,air+photo,ancient+history,archaeology,middle+east","S2CellId":"1c70000000000000","result":1446,"accuracy":0.14471632,"title":"Shara+Village+23","description":"APAAME_20081009_FFR-0451.jpg"}
{"id":8732990738,"url":"http://farm8.staticflickr.com/7290/8732990738_7df0efe1ed.jpg","path":"7f2/e1e/7f2e1e1f257028d01b15894e34e1be4.jpg","date":"2013-05-08","year":2013,"month":5,"lon":35.49933,"lat":30.484024,"tags":"bikers,dead2red,e+18-55mm+f3.5-5.6+oss,jordan,mountains,road","S2CellId":"0da3000000000000","result":611,"accuracy":0.05229335}
{"id":5111264656,"url":"http://farm2.staticflickr.com/1330/5111264656_57b48716c0.jpg","path":"77f/758/77f758c258b828735774c68045cf8e8d.jpg","date":"2010-10-17","year":2010,"month":10,"lon":35.421173,"lat":30.065931,"tags":"aerial+archaeology,aerial+photography,air+photo,ancient+history,farm%3F,levant,middle+east,near+east","S2CellId":"1c70000000000000","result":1446,"accuracy":0.01262028,"title":"Rujum+Khal%C4%ABl","description":"APAAME_20101017_DDB-0255.dng"}
{"id":6254782105,"url":"http://farm7.staticflickr.com/6101/6254782105_593527d991.jpg","path":"236/ab1/236ab1b6982bc05fac0bf266d151.jpg","date":"2011-10-10","year":2011,"month":10,"lon":35.722076,"lat":30.709652,"tags":"aerial+archaeology,aerial+photography,air+photo,ancient+history,archaeology,middle+east","S2CellId":"1c70000000000000","result":1446,"accuracy":0.014470847,"title":"Shaubak+Ruins+7","description":"APAAME_20111010_MND-0348.jpg"}
{"id":167659470,"url":"http://farm1.staticflickr.com/70/167659470_26bf679898.jpg","path":"683/82d/68382d9cd48dd41d572282876d5e0a0.jpg","date":"2006-06-12","year":2006,"month":6,"lon":35.48043,"lat":30.329176,"tags":"jordan,petra","S2CellId":"865c900000000000","result":7666,"accuracy":0.09447807,"title":"Petra","description":"Petra%2C+Jordan"}
{"id":4324266119,"url":"http://farm3.staticflickr.com/2755/4324266119_4fd96c7227.jpg","path":"ec7/acd/ec7acd96cf42d0cf35d90789f5242f9.jpg","date":"2008-10-08","year":2008,"month":10,"lon":35.63454,"lat":30.706347,"tags":"aerial+archaeology,flight+5,reservoir+and+channel,roman+road,shaubak+reservoir+and+channel","S2CellId":"1c70000000000000","result":1446,"accuracy":0.06340731,"title":"Shaubak+Reservoir+and+Channel","description":"APAAME_20081008_RHB-0178.dng"}
{"id":6266247022,"url":"http://farm7.staticflickr.com/6230/6266247022_b7866b81c9.jpg","path":"2dc/96c/2dc96cf2ff5b189bc606b8f279f95ad.jpg","date":"2011-10-13","year":2011,"month":10,"lon":35.59948,"lat":30.8414,"tags":"aerial+archaeology,aerial+photography,air+photo,ancient+history,archaeology,middle+east","S2CellId":"144c000000000000","result":1197,"accuracy":0.056965623,"title":"Tafila+Castle","description":"APAAME_20111013_MND-0369.dng"}
{"id":4194933156,"url":"http://farm3.staticflickr.com/2793/4194933156_5671d7b8fc.jpg","path":"30a/6a0/30a6a08a6e842277bea48cd34777f72.jpg","date":"2009-09-30","year":2009,"month":9,"lon":35.480583,"lat":30.306433,"tags":"flight+3,jordan,petra+ruin+5","S2CellId":"1c70000000000000","result":1446,"accuracy":0.14129628,"title":"Petra+Ruin+5","description":"APAAME_20090930_DLK-0354.dng"}
{"id":5100469338,"url":"http://farm2.staticflickr.com/1098/5100469338_e4086cd21f.jpg","path":"e65/340/e65340589ca1f71c77cdaa75cc1e8570.jpg","date":"2010-10-16","year":2010,"month":10,"lon":35.58167,"lat":30.1735,"tags":"aerial+archaeology,aerial+photography,air+photo,ancient+history,levant,middle+east,near+east,trenches,wwi","S2CellId":"1503100000000000","result":1355,"accuracy":0.082689494,"title":"Waheida","description":"APAAME_20101016_SES-0302.dng"}
{"id":4325161010,"url":"http://farm5.staticflickr.com/4053/4325161010_40380a6c50.jpg","path":"b8a/9ae/b8a9ae6dc420d4293fffdbb03cb773ff.jpg","date":"2008-10-09","year":2008,"month":10,"lon":35.479443,"lat":30.042046,"tags":"aerial+archaeology,aerial+photography,air+photo,ancient+history,archaeology,middle+east","S2CellId":"8737000000000000","result":7801,"accuracy":0.05119588,"title":"Circle+8+%28Naqb%29","description":"APAAME_20081009_DLK-0143.dng"}
{"id":4985631087,"url":"http://farm5.staticflickr.com/4090/4985631087_b2b47f005b.jpg","path":"962/8ca/9628ca6ee3da8f51531ca921a95e3ba.jpg","date":"2005-10-02","year":2005,"month":10,"lon":35.46596,"lat":30.326208,"tags":"aerial+archaeology,aerial+photography,air+photo,ancient+history,digital+camera,flight+3,jordan+2005_3,levant,middle+east,near+east","S2CellId":"0dbc000000000000","result":635,"accuracy":0.13941172,"title":"Petra+Crowne+Plaza+Hotel","description":"APAAME_20051002_RHB-0107.dng"}
{"id":4325055512,"url":"http://farm5.staticflickr.com/4050/4325055512_483341a6f3.jpg","path":"f13/d35/f13d35291127a6bd7f219d70ca657d16.jpg","date":"2008-10-08","year":2008,"month":10,"lon":35.7589,"lat":30.18123,"tags":"aerial+archaeology,flight+5,ma%27an,ma%27an+trenches+2,trenches,trenches+2","S2CellId":"8737000000000000","result":7801,"accuracy":0.09127467,"title":"Ma%27an+Trenches+2","description":"APAAME_20081008_DLK-0383.dng"}
{"id":4194176471,"url":"http://farm3.staticflickr.com/2758/4194176471_653a3f4bc2.jpg","path":"c33/852/c33852c0be16806dea216a3f91cf6073.jpg","date":"2009-09-30","year":2009,"month":9,"lon":35.47846,"lat":30.300463,"tags":"flight+3,jordan,petra+ruin+1","S2CellId":"8737000000000000","result":7801,"accuracy":0.018880896,"title":"Petra+Ruin+1","description":"APAAME_20090930_DLK-0352.dng"}
{"id":1373678375,"url":"http://farm2.staticflickr.com/1047/1373678375_80a02e4780.jpg","path":"6b6/e90/6b6e907dec836666e3e738f4b6d624ad.jpg","date":"2007-09-12","year":2007,"month":9,"lon":35.4891,"lat":30.348583,"tags":"jordan,petra","S2CellId":"0d70400000000000","result":569,"accuracy":0.046043552,"title":"Wadi+Mousa"}
{"id":3754636871,"url":"http://farm4.staticflickr.com/3439/3754636871_e6fd7f3c15.jpg","path":"171/bde/171bde159f4c7b5313eaf4f1d7199f5.jpg","date":"2009-07-14","year":2009,"month":7,"lon":35.44052,"lat":30.33681,"tags":"a+wonder+of+the+world,amazing,breathtaking,city,inspirational,jordan,middle+east,nabateans,petra,rock,romans,sanstone","S2CellId":"1500c00000000000","result":1347,"accuracy":0.42516175,"title":"Stillness","description":"Petra+%28Greek+%22%CF%80%CE%AD%CF%84%CF%81%CE%B1%22+%28petra%29%2C+meaning+cleft+in+the+rock%3B+Arabic%3A+%D8%A7%D9%84%D8%A8%D8%AA%D8%B1%D8%A7%D8%A1%2C+Al-Batr%C4%81%CA%BE%29+is+an+archaeological+site+in+the+Arabah%2C+Ma%27an+Governorate%2C+Jordan%2C+lying+on+the+slope+of+Mount+Hor%5B1%5D+in+a+basin+among+the+mountains+which+form+the+eastern+flank+of+Arabah+%28Wadi+Araba%29%2C+the+large+valley+running+from+the+Dead+Sea+to+the+Gulf+of+Aqaba.+It+is+renowned+for+its+rock-cut+architecture.+Petra+is+also+one+of+the+New+Seven+Wonders+of+the+World.+The+Nabateans+constructed+it+as+their+capital+city+around+100+BCE.+%3Ca+href%3D%22http%3A%2F%2Fen.wikipedia.org%2Fwiki%2FPetra%22+rel%3D%22nofollow%22%3Esource%3C%2Fa%3E"}
{"id":4985561015,"url":"http://farm5.staticflickr.com/4086/4985561015_e8b4551008.jpg","path":"fd4/97a/fd497ad474fbaa134142a1ff564a622d.jpg","date":"2005-10-02","year":2005,"month":10,"lon":35.40635,"lat":30.316448,"tags":"aerial+archaeology,aerial+photography,air+photo,ancient+history,church,flight+3,islamic,jordan+2005_3,levant,middle+east,near+east,roman,scanned+from+slide,tomb","S2CellId":"1c70000000000000","result":1446,"accuracy":0.11738939,"title":"Jabal+Haroun","description":"APAAME_20051002_DLK-0025.tif"}
{"id":5099275595,"url":"http://farm2.staticflickr.com/1171/5099275595_48a087f350.jpg","path":"7ec/18f/7ec18f37ee8b1c632c3cdd0133c4a67.jpg","date":"2010-10-16","year":2010,"month":10,"lon":35.53846,"lat":30.301573,"tags":"aerial+archaeology,aerial+photography,air+photo,ancient+history,farm%3F,levant,middle+east,near+east","S2CellId":"1c70000000000000","result":1446,"accuracy":0.017777376,"title":"Khidad+Ruin+57","description":"APAAME_20101016_DDB-0343.dng"}
{"id":4194108485,"url":"http://farm5.staticflickr.com/4002/4194108485_0dd0bd9bd2.jpg","path":"de8/838/de8838c36ffd28243b0eac30268fc3.jpg","date":"2009-09-30","year":2009,"month":9,"lon":35.559914,"lat":30.529793,"tags":"castle,crusader,flight+3,jordan,shaubak+castle","S2CellId":"9114000000000000","result":9597,"accuracy":0.077546015,"title":"Shaubak+Castle","description":"APAAME_20090930_RHB-0205.dng"}
{"id":6265622735,"url":"http://farm7.staticflickr.com/6055/6265622735_88c75e5bee.jpg","path":"d88/cb7/d88cb75d5ebd547f33dfa3cb553ac57e.jpg","date":"2011-10-13","year":2011,"month":10,"lon":35.477333,"lat":30.392208,"tags":"aerial+archaeology,aerial+photography,air+photo,ancient+history,archaeology,middle+east","S2CellId":"5494c00000000000","result":6235,"accuracy":0.0043878434,"title":"Petra+Ruin+17","description":"APAAME_20111013_DDB-0609.dng"}
{"id":6337685157,"url":"http://farm7.staticflickr.com/6226/6337685157_2556a906d1.jpg","path":"453/dd5/453dd52eeec714a56ef61de5cf5f67e3.jpg","date":"2011-11-07","year":2011,"month":11,"lon":35.41443,"lat":30.363396,"tags":"2011,jordan,november,petra,petra+by+night,public","S2CellId":"1500c00000000000","result":1347,"accuracy":0.7656894,"title":"."}
{"id":2557480151,"url":"http://farm4.staticflickr.com/3052/2557480151_f9bd267b1d.jpg","path":"738/c83/738c83871a774e656287fd75cd58d96.jpg","date":"2008-06-04","year":2008,"month":6,"lon":35.46172,"lat":30.292736,"tags":"jordan,petra","S2CellId":"1501400000000000","result":1348,"accuracy":0.06863518,"title":"Petra"}
{"id":1805363091,"url":"http://farm3.staticflickr.com/2352/1805363091_716bff63e6.jpg","path":"1cb/65b/1cb65b12d481df92e26e6d49cc5ea13a.jpg","date":"2007-10-28","year":2007,"month":10,"lon":35.264053,"lat":30.378206,"tags":"2007,israel,monts+edom,terre+sainte","S2CellId":"80c7000000000000","result":7223,"accuracy":0.17064035,"title":"Neguev+-+Reflet+Mer+Morte+14","description":"La+mer+morte.+En+arri%C3%A8re-plan+les+monts+rouges+d%27Edom"}
{"id":8732864116,"url":"http://farm8.staticflickr.com/7291/8732864116_8558f6958d.jpg","path":"a4b/328/a4b3288858b73dc3ea45d23cb637e79.jpg","date":"2013-05-07","year":2013,"month":5,"lon":35.684883,"lat":30.71007,"tags":"dead2red,hills,jordan,road","S2CellId":"5499000000000000","result":6281,"accuracy":0.07102218}
{"id":4986187738,"url":"http://farm5.staticflickr.com/4111/4986187738_691a92d2d2.jpg","path":"fdb/cbf/fdbcbfd27a7e85a732c24144e13bde3.jpg","date":"2005-10-02","year":2005,"month":10,"lon":35.694546,"lat":30.828522,"tags":"aerial+archaeology,aerial+photography,air+photo,ancient+history,flight+3,islamic,jordan+2005_3,levant,middle+east,nabataean,near+east,roman,scanned+from+slide,village","S2CellId":"9114000000000000","result":9597,"accuracy":0.18835583,"title":"Kh.+an-Nasraniyah","description":"APAAME_20051002_RHB-0004.tif"}
{"id":1374697636,"url":"http://farm2.staticflickr.com/1193/1374697636_b54078b6d7.jpg","path":"d3e/bf8/d3ebf845c0e163d5be2d1c5fd5efaa.jpg","date":"2007-09-10","year":2007,"month":9,"lon":35.587463,"lat":30.848005,"tags":"jordan,kings+highway","S2CellId":"3fb0000000000000","result":2634,"accuracy":0.09509379,"title":"Kerak+Castle"}
{"id":4869490277,"url":"http://farm5.staticflickr.com/4142/4869490277_985a9fb994.jpg","path":"105/bb3/105bb3edd22fa2253425441b6bb887d.jpg","date":"2010-07-13","year":2010,"month":7,"lon":35.443096,"lat":30.352213,"tags":"jordan,petra","S2CellId":"80cf000000000000","result":7266,"accuracy":0.08811251,"title":"IMG_7018"}
{"id":9556488464,"url":"http://farm8.staticflickr.com/7442/9556488464_626a03a9af.jpg","path":"317/5ca/3175ca5b18cce870489123874bff68fb.jpg","date":"2008-10-09","year":2008,"month":10,"lon":35.487003,"lat":30.203426,"tags":"aerial+archaeology,aerial+photography,air+photo,ancient+history,archaeology,middle+east","S2CellId":"1c70000000000000","result":1446,"accuracy":0.13218711,"title":"Shara+Village+40","description":"APAAME_20081009_FFR-0484.jpg"}
{"id":4992190767,"url":"http://farm5.staticflickr.com/4147/4992190767_c76826eace.jpg","path":"45c/4ab/45c4ab8062ec7dea5acd02df9a49887.jpg","date":"2007-04-17","year":2007,"month":4,"lon":35.968784,"lat":30.983135,"tags":"aerial+archaeology,aerial+photography,air+photo,ancient+history,digital+camera,flight+1,islamic%3F,jordan,levant,middle+east,near+east,reservoir,village","S2CellId":"3e2c000000000000","result":2583,"accuracy":0.0049171112,"title":"Kh.+al-Askar","description":"APAAME_20070417_RHB-0400.tif"}
{"id":5462707136,"url":"http://farm6.staticflickr.com/5092/5462707136_fe4be24189.jpg","path":"db7/39f/db739f44a0c45a268894c6a51addea.jpg","date":"2009-10-19","year":2009,"month":10,"lon":35.44278,"lat":30.19125,"tags":"desert,giordania,iordan,jordan,middle+east,petra,wadi+musa","S2CellId":"0db4000000000000","result":634,"accuracy":0.13433707}
{"id":4994549187,"url":"http://farm5.staticflickr.com/4154/4994549187_a4cc748eab.jpg","path":"a59/7bf/a597bf31438d63632c08d30a3d5552d.jpg","date":"2007-04-19","year":2007,"month":4,"lon":35.70315,"lat":30.907103,"tags":"aerial+archaeology,aerial+photography,air+photo,ancient+history,digital+camera,flight+2,jordan,jordan+2007,levant,middle+east,nabataean,near+east,village","S2CellId":"8748400000000000","result":7819,"accuracy":0.058533244,"title":"Kh.+ed-Dharih","description":"APAAME_20070419_DLK-0197.tif"}
{"id":5100236646,"url":"http://farm2.staticflickr.com/1257/5100236646_0b7ca3340c.jpg","path":"656/7ae/6567ae86d6d97ac53c7926f4364fc0f6.jpg","date":"2010-10-16","year":2010,"month":10,"lon":35.59762,"lat":30.34263,"tags":"aerial+archaeology,aerial+photography,air+photo,ancient+history,fort%3F,levant,middle+east,near+east","S2CellId":"7953d00000000000","result":6866,"accuracy":0.011662366,"title":"Jabal+M%C5%ABs%C4%AB+al-Ashari","description":"APAAME_20101016_SES-0256.dng"}
{"id":5124931719,"url":"http://farm5.staticflickr.com/4147/5124931719_2f129df57f.jpg","path":"efa/549/efa5492d5c2f1ada17da2b20905d37f4.jpg","date":"2008-10-08","year":2008,"month":10,"lon":35.630814,"lat":30.701056,"tags":"aerial+archaeology,aerial+photography,air+photo,ancient+history,digital+camera,flight+5,levant,middle+east,near+east,rashadiyah,road,roman+road,village","S2CellId":"151cc00000000000","result":1380,"accuracy":0.08208338,"title":"Rashadiyah+%28Village%29","description":"Apaame_20081008_ffr-0280.Jpg"}
{"id":5110643711,"url":"http://farm2.staticflickr.com/1395/5110643711_4eeae325b3.jpg","path":"4f4/bfc/4f4bfca54d6cecd8b54182e577aca77.jpg","date":"2010-10-17","year":2010,"month":10,"lon":35.421497,"lat":30.068636,"tags":"aerial+archaeology,aerial+photography,air+photo,ancient+history,farm%3F,levant,middle+east,near+east","S2CellId":"8737000000000000","result":7801,"accuracy":0.04885507,"title":"Rujum+Khal%C4%ABl","description":"APAAME_20101017_DDB-0252.dng"}
{"id":102964851,"url":"http://farm1.staticflickr.com/41/102964851_e7b54c6d3b.jpg","path":"5f5/b56/5f5b56da3d4dffa5d945a4c2d4262485.jpg","date":"2005-08-29","year":2005,"month":8,"lon":35.436142,"lat":30.32861,"tags":"asino,beast,beast+of+burden,beasts+of+burden,bedouin,donkey,donleys,eeyore,ezel,ezels,jordan,men,petra,pink,women","S2CellId":"1501400000000000","result":1348,"accuracy":0.39499703,"title":"Bedouin+couple+with+donkeys"}
{"id":6265528061,"url":"http://farm7.staticflickr.com/6107/6265528061_ac91398faa.jpg","path":"a43/1cb/a431cb81a3f6ec3369ccd6126490317a.jpg","date":"2011-10-13","year":2011,"month":10,"lon":35.509583,"lat":30.361385,"tags":"aerial+archaeology,aerial+photography,air+photo,ancient+history,archaeology,middle+east","S2CellId":"809f000000000000","result":7130,"accuracy":0.0034371135,"title":"Khidad+Tower+3","description":"APAAME_20111013_DLK-0502.dng"}
{"id":5099917932,"url":"http://farm5.staticflickr.com/4083/5099917932_593fa22525.jpg","path":"9cf/f80/9cff809d59b697a9a3eec77ba3f1f87d.jpg","date":"2010-10-16","year":2010,"month":10,"lon":35.530533,"lat":30.290773,"tags":"aerial+archaeology,aerial+photography,air+photo,ancient+history,levant,middle+east,near+east,tower","S2CellId":"89fb400000000000","result":9399,"accuracy":0.0093758255,"title":"Khidad+Tower+2%3F","description":"APAAME_20101016_SES-0179.dng"}
{"id":5111197428,"url":"http://farm2.staticflickr.com/1223/5111197428_4640c0c96d.jpg","path":"132/2f4/1322f499ca4eb22192805be8ee688f48.jpg","date":"2010-10-17","year":2010,"month":10,"lon":35.38922,"lat":30.089436,"tags":"aerial+archaeology,aerial+photography,air+photo,ancient+history,levant,middle+east,near+east,village","S2CellId":"8737000000000000","result":7801,"accuracy":0.04049351,"title":"Kh.+al-Juhayr","description":"APAAME_20101017_DDB-0239.dng"}
{"id":4325029136,"url":"http://farm3.staticflickr.com/2746/4325029136_b811c6f964.jpg","path":"47c/6bd/47c6bd118dca1dd0dfb7f52ac9ab567.jpg","date":"2008-10-08","year":2008,"month":10,"lon":35.636623,"lat":30.581665,"tags":"aerial+archaeology,das+160,flight+5,kh.+es-samra,khirbat+es-samra%2F+vnt+and+fortlet+%28das+160%29,road,road+station,roman+road,vnt+and+fortlet","S2CellId":"1c70000000000000","result":1446,"accuracy":0.21652822,"title":"Khirbat+Es-Samra%2F+VNT+and+Fortlet+%28DAS+160%29","description":"APAAME_20081008_DLK-0328.dng"}
{"id":5881919823,"url":"http://farm6.staticflickr.com/5070/5881919823_2d2b630792.jpg","path":"4ea/aae/4eaaaea81a14c4ea115f52c4bc4ea93.jpg","date":"2011-06-22","year":2011,"month":6,"lon":35.672607,"lat":30.17674,"tags":"desert,dry,highway,hills,jordan,scattered,village","S2CellId":"0dbc000000000000","result":635,"accuracy":0.1139724,"title":"Scattered+Village"}
{"id":5918059278,"url":"http://farm7.staticflickr.com/6132/5918059278_b1af20f2be.jpg","path":"62d/e86/62de865320d878196325e4e91888ed.jpg","date":"2007-03-29","year":2007,"month":3,"lon":35.128395,"lat":30.084232,"tags":"birds,flowers,israel,old+world+warblers,sylviidae,warblers","S2CellId":"88d0a631cabb5071","result":8563,"accuracy":0.052960362,"title":"Blackcap_Yarel_IL_2007_03_29_003.jpg"}
{"id":3379629826,"url":"http://farm4.staticflickr.com/3604/3379629826_da3aa9df87.jpg","path":"767/ad8/767ad8143c843d6c92577a224a048.jpg","date":"2009-03-12","year":2009,"month":3,"lon":35.47966,"lat":30.311245,"tags":"jordan,petra,treasury","S2CellId":"1501400000000000","result":1348,"accuracy":0.2591414,"title":"Another+view+of+the+Treasury"}
{"id":4992914820,"url":"http://farm5.staticflickr.com/4087/4992914820_4cf30fa743.jpg","path":"4dc/b2e/4dcb2eb7d9522c7f2de13c08659aac.jpg","date":"2009-04-11","year":2009,"month":4,"lon":35.448547,"lat":30.32436,"tags":"cave,creative+commons,dust,house,jordanrock,petra,sand","S2CellId":"80c9400000000000","result":7256,"accuracy":0.22572917,"title":"Petra"}
{"id":5100613812,"url":"http://farm2.staticflickr.com/1209/5100613812_d01ce4a832.jpg","path":"dfa/417/dfa41774b7c66b12179a82022cc6a3a.jpg","date":"2010-10-16","year":2010,"month":10,"lon":35.220753,"lat":30.014095,"tags":"aerial+archaeology,aerial+photography,air+photo,ancient+history,levant,middle+east,near+east,sand+dunes","S2CellId":"1c70000000000000","result":1446,"accuracy":0.22886766,"title":"Sand+Desert+on+E+Side+of+Araba+S+of+Gharandal","description":"APAAME_20101016_DDB-0616.dng"}
{"id":5099532521,"url":"http://farm2.staticflickr.com/1191/5099532521_36855125d4.jpg","path":"d9f/066/d9f0664745e0593238ac4e99975fc4b4.jpg","date":"2010-10-16","year":2010,"month":10,"lon":35.4855,"lat":30.23741,"tags":"aerial+archaeology,aerial+photography,air+photo,ancient+history,levant,middle+east,near+east,village","S2CellId":"48cd000000000000","result":5785,"accuracy":0.025358416,"title":"Kh.+al-Mabrak","description":"APAAME_20101016_DDB-0436.dng"}
{"id":9417017828,"url":"http://farm8.staticflickr.com/7369/9417017828_868b310a6a.jpg","path":"411/544/4115447dfefeaf4f2c89ea9914c69354.jpg","date":"2005-10-02","year":2005,"month":10,"lon":35.52028,"lat":30.243334,"tags":"2005,aerial+archaeology,aerial+photography,air+photo,ancient+history,archaeology,developer%27s+scan,middle+east","S2CellId":"1c70000000000000","result":1446,"accuracy":0.03152339,"title":"Ma%27an+Ruin+16","description":"APAAME_20051002_DLK-0116.jpg"}
{"id":2350074913,"url":"http://farm4.staticflickr.com/3275/2350074913_cbfda3b08d.jpg","path":"971/75c/97175c4a688ce6c1ad3b32cc44a29b35.jpg","date":"2008-03-15","year":2008,"month":3,"lon":35.482834,"lat":30.319988,"tags":"24-120,d40,desert,jordan,landscape,middle-east,nikon,petra,sky,travel","S2CellId":"80da400000000000","result":7308,"accuracy":0.19779502,"title":"Jordan+from+a+Taxi+Window","description":"The+5+hour+drive+to+Petra+was+a+nice+time+for+photos+when+I+wasn%27t+napping."}
{"id":4333134462,"url":"http://farm3.staticflickr.com/2757/4333134462_66988c8619.jpg","path":"783/084/783084e72b1a67843e06b61228dad2.jpg","date":"2010-02-01","year":2010,"month":2,"lon":35.451786,"lat":30.322624,"tags":"jordan,petra,treasury","S2CellId":"1501400000000000","result":1348,"accuracy":0.48103645,"title":"The+Treasury"}
{"id":3943495023,"url":"http://farm3.staticflickr.com/2543/3943495023_b35f72b857.jpg","path":"6e3/fb8/6e3fb88919487e341535e2e3f85a17.jpg","date":"2009-07-23","year":2009,"month":7,"lon":35.026302,"lat":30.049334,"tags":"%D7%99%D7%A9%D7%A8%D7%90%D7%9C,%D7%A0%D7%90%D7%95%D7%AA+%D7%A1%D7%9E%D7%93%D7%A8,%D7%A7%D7%99%D7%91%D7%95%D7%A5,2009,canon+eos+400d+digital,israel,kibbutz,neot+semadar","S2CellId":"0d65000000000000","result":543,"accuracy":0.0025903257,"title":"Neot+Semadar"}
{"id":4194115573,"url":"http://farm3.staticflickr.com/2742/4194115573_6da19ffb58.jpg","path":"e15/6f2/e156f2631b39da3232f2c2ffe9cea569.jpg","date":"2009-09-30","year":2009,"month":9,"lon":35.51575,"lat":30.49387,"tags":"flight+3,jordan,shamakh","S2CellId":"8737000000000000","result":7801,"accuracy":0.17677763,"title":"Shamakh","description":"APAAME_20090930_DLK-0208.dng"}
{"id":5262204065,"url":"http://farm6.staticflickr.com/5167/5262204065_9d0e81c043.jpg","path":"7d3/f2e/7d3f2e6dd7231da3585cd5a5552f8e5.jpg","date":"2009-09-30","year":2009,"month":9,"lon":35.568512,"lat":30.374798,"tags":"aerial+archaeology,aerial+photography,air+photo,ancient+history,digital+camera,flight+3,jordan,levant,middle+east,near+east","S2CellId":"809f000000000000","result":7130,"accuracy":0.008598306,"title":"Khidad+Ruin+35","description":"APAAME_20090930_SES-0075.dng"}
{"id":6915739246,"url":"http://farm8.staticflickr.com/7111/6915739246_0a6881bbc4.jpg","path":"2ad/ddf/2adddf116b87418fa4f816944de3155.jpg","date":"2012-03-29","year":2012,"month":3,"lon":35.464123,"lat":30.327545,"tags":"accident,adventure,arab,arabic,bump,car+crash,care+hire,dry+country,fun,holiday,incident,islam,islamic+country,jordan,journey,middle+east,muslim,reliable,shunt,tourism,tourist,travel,trip,vacation","S2CellId":"12b5ec0000000000","result":810,"accuracy":0.0075256256,"title":"Jordan_Petra_March2012_271","description":"Evidence+of+a+few+small+scratches"}
{"id":6934349443,"url":"http://farm8.staticflickr.com/7038/6934349443_d5dc285308.jpg","path":"fde/c73/fdec739a1267141d9b42bfb4221f3770.jpg","date":"2011-11-06","year":2011,"month":11,"lon":35.77884,"lat":30.493383,"tags":"ancient+history,archaeology,geo%3Acity%3D,geo%3Acountrys%3D,geo%3Astate%3D,ground,middle+east","S2CellId":"80c7000000000000","result":7223,"accuracy":0.023022542,"title":"Unayza+Trenches+3","description":"APAAMEG_20111106_MND-0178.dng"}
{"id":7770668052,"url":"http://farm9.staticflickr.com/8292/7770668052_9954e069eb.jpg","path":"524/3be/5243be24d6e2e232879fbe66d73ee5.jpg","date":"2012-08-08","year":2012,"month":8,"lon":35.492165,"lat":30.326332,"tags":"petra%2C+jordania%2C+night","S2CellId":"3e8c000000000000","result":2626,"accuracy":0.0706324,"title":"Petra+by+night"}
{"id":6262987141,"url":"http://farm7.staticflickr.com/6099/6262987141_9ba530f984.jpg","path":"325/6d2/3256d23731d16e4fc9de3ab675c42ef.jpg","date":"2011-10-13","year":2011,"month":10,"lon":35.818558,"lat":30.942036,"tags":"aerial+archaeology,aerial+photography,air+photo,ancient+history,archaeology,middle+east","S2CellId":"80c7000000000000","result":7223,"accuracy":0.016862348,"title":"Aina+Ruin+4","description":"APAAME_20111013_DLK-0190.dng"}
{"id":6263553908,"url":"http://farm7.staticflickr.com/6236/6263553908_ed87490220.jpg","path":"86a/159/86a1597ac56bd84f18e183f98bfae6ad.jpg","date":"2011-10-13","year":2011,"month":10,"lon":35.96831,"lat":30.857155,"tags":"aerial+archaeology,aerial+photography,air+photo,ancient+history,archaeology,middle+east","S2CellId":"1c70000000000000","result":1446,"accuracy":0.027558954,"title":"Bedouin+Tent+Pads%2C+Aina+area","description":"APAAME_20111013_MND-0202.dng"}
{"id":2631704584,"url":"http://farm4.staticflickr.com/3112/2631704584_98e04e1830.jpg","path":"63f/63a/63f63a5861485c698317e213962c9831.jpg","date":"2006-12-14","year":2006,"month":12,"lon":35.45082,"lat":30.322655,"tags":"backpa,backpacker,camel,canyon,desert,east,jordan,middle,nabatean,petra,rum,temple,travel,wadi,world","S2CellId":"1501400000000000","result":1348,"accuracy":0.1046223,"title":"Jordan"}
{"id":4324391383,"url":"http://farm5.staticflickr.com/4037/4324391383_836e341353.jpg","path":"e84/aac/e84aacc071ea6ee2a1edd861f68aeed.jpg","date":"2008-10-09","year":2008,"month":10,"lon":35.50827,"lat":30.003325,"tags":"aerial+archaeology,aerial+photography,air+photo,ancient+history,archaeology,middle+east","S2CellId":"8737000000000000","result":7801,"accuracy":0.04950744,"title":"Shara+Square+Enclosures+%2B+Fields","description":"APAAME_20081009_DLK-0083.dng"}
{"id":4910363575,"url":"http://farm5.staticflickr.com/4076/4910363575_2af7b85b01.jpg","path":"d43/bb3/d43bb368af2051b564ef7de8bf3b31.jpg","date":"2010-07-20","year":2010,"month":7,"lon":35.456314,"lat":30.309763,"tags":"aqaba,b%C3%A9douin,canyon,chameaux,d%C3%A9sert,gr%C3%A8s,jordan,jordanie,jordanien,marina,nabat%C3%A9ens,petra,pierre,roche,siq,site+arch%C3%A9ologique","S2CellId":"1501400000000000","result":1348,"accuracy":0.3563168,"title":"Petra"}
{"id":5125497398,"url":"http://farm5.staticflickr.com/4038/5125497398_6a5c292fe9.jpg","path":"bb6/4c7/bb64c76ed055ca99b5cce7b2e2312b.jpg","date":"2008-10-08","year":2008,"month":10,"lon":35.99264,"lat":30.9923,"tags":"aerial+archaeology,aerial+photography,air+photo,ancient+history,digital+camera,flight+5,levant,middle+east,near+east,ottoman+tent+lines","S2CellId":"9114000000000000","result":9597,"accuracy":0.3332776,"title":"Aina+Ottoman+Tent+Lines","description":"Apaame_20081008_ffr-0151.Jpg"}
{"id":5262809908,"url":"http://farm6.staticflickr.com/5242/5262809908_7d2218e2d0.jpg","path":"189/c14/189c14e23bad9ae1c57c79566863148a.jpg","date":"2009-09-30","year":2009,"month":9,"lon":35.56047,"lat":30.37334,"tags":"aerial+archaeology,aerial+photography,air+photo,ancient+history,digital+camera,flight+3,jordan,levant,middle+east,near+east","S2CellId":"489f000000000000","result":5781,"accuracy":0.031474568,"title":"Khidad+Ruin+37","description":"APAAME_20090930_SES-0071.dng"}
{"id":6263595300,"url":"http://farm7.staticflickr.com/6046/6263595300_7d372a1815.jpg","path":"7ee/1ed/7ee1ede9d9df06e30e5ec21a13a4f7.jpg","date":"2011-10-13","year":2011,"month":10,"lon":35.98842,"lat":30.82976,"tags":"aerial+archaeology,aerial+photography,air+photo,ancient+history,archaeology,middle+east","S2CellId":"9114000000000000","result":9597,"accuracy":0.10454045,"title":"Aina+area","description":"APAAME_20111013_MND-0219.dng"}
{"id":2630880111,"url":"http://farm4.staticflickr.com/3175/2630880111_c3f695f9be.jpg","path":"7e7/b42/7e7b427d2d7f34c4a51178a90804a17.jpg","date":"2006-12-14","year":2006,"month":12,"lon":35.45082,"lat":30.322655,"tags":"backpa,backpacker,camel,canyon,desert,east,jordan,middle,nabatean,petra,rum,temple,travel,wadi,world","S2CellId":"144c000000000000","result":1197,"accuracy":0.027116569,"title":"Jordan"}
{"id":354505271,"url":"http://farm1.staticflickr.com/133/354505271_5acc878239.jpg","path":"b0a/31b/b0a31b17cc6f8d0a072a642e570b8cb.jpg","date":"2006-05-18","year":2006,"month":5,"lon":35.53528,"lat":30.308874,"tags":"%28petra%29,jordan","S2CellId":"1501400000000000","result":1348,"accuracy":0.087787025,"title":"IMG_0391.JPG"}
{"id":6835410836,"url":"http://farm8.staticflickr.com/7054/6835410836_40bf528197.jpg","path":"a42/d1e/a42d1eca50578f92b456beb73e2d983.jpg","date":"2011-10-13","year":2011,"month":10,"lon":35.44959,"lat":30.381006,"tags":"aerial+archaeology,aerial+photography,air+photo,ancient+history,archaeology,middle+east","S2CellId":"8734400000000000","result":7797,"accuracy":0.25622392,"title":"Beidha+al-Amti","description":"APAAME_20111013_RHB-0365.jpg"}
{"id":4194966058,"url":"http://farm3.staticflickr.com/2587/4194966058_046f33962e.jpg","path":"d72/154/d72154ed1e942cc4fb2281597482f6.jpg","date":"2009-09-30","year":2009,"month":9,"lon":35.6481,"lat":30.30378,"tags":"flight+3,jordan,kh+el-fiqay+2","S2CellId":"94ce59f000000000","result":9723,"accuracy":0.0028661129,"title":"Kh+el-Fiqay+2","description":"APAAME_20090930_RHB-0388.dng"}
{"id":5099205985,"url":"http://farm2.staticflickr.com/1158/5099205985_8a441ba050.jpg","path":"63b/d3c/63bd3c64ad5ecdb821a89a31168117.jpg","date":"2010-10-16","year":2010,"month":10,"lon":35.516914,"lat":30.329025,"tags":"aerial+archaeology,aerial+photography,air+photo,ancient+history,levant,middle+east,near+east,tower","S2CellId":"89a4000000000000","result":8776,"accuracy":0.008364372,"title":"Khidad+Ruin+90","description":"APAAME_20101016_SES-0154.dng"}
{"id":5113331163,"url":"http://farm2.staticflickr.com/1371/5113331163_f2ac60ba16.jpg","path":"441/c46/441c460e37f79f8e8f2f92fc9611a3c.jpg","date":"2010-10-17","year":2010,"month":10,"lon":35.445,"lat":30.094294,"tags":"aerial+archaeology,aerial+photography,air+photo,ancient+history,levant,middle+east,near+east","S2CellId":"1c70000000000000","result":1446,"accuracy":0.058986187,"title":"Naqb+Area","description":"APAAME_20101017_DDB-0325.dng"}
{"id":11725128214,"url":"http://farm4.staticflickr.com/3788/11725128214_437da6da0c.jpg","path":"92c/9d4/92c9d4f7b7b85b6ff5acabeebfb29b66.jpg","date":"2013-12-27","year":2013,"month":12,"lon":35.168884,"lat":30.75671,"tags":"airforce,arava,bombing+range,bombs,desert,eastern+negev,israel,landscape,ordinance,rust,shooting+target+90,target+practice","S2CellId":"80c7000000000000","result":7223,"accuracy":0.3198737}
{"id":4076593620,"url":"http://farm3.staticflickr.com/2698/4076593620_fdc5844d69.jpg","path":"b8c/af8/b8caf8cddc04a807a5c58e3575b88a.jpg","date":"2009-10-19","year":2009,"month":10,"lon":35.494595,"lat":30.32636,"tags":"giordania,jordan,wadi+musa","S2CellId":"0d65000000000000","result":543,"accuracy":0.051126447,"title":"Down+in+the+%22Wadi%22"}
{"id":5110452884,"url":"http://farm5.staticflickr.com/4131/5110452884_7abbe35d16.jpg","path":"fc9/3c4/fc93c4a12e6c48c2fd054f6aa42ac.jpg","date":"2010-10-17","year":2010,"month":10,"lon":35.452,"lat":30.05615,"tags":"aerial+archaeology,aerial+photography,air+photo,ancient+history,levant,middle+east,near+east,village","S2CellId":"9114000000000000","result":9597,"accuracy":0.060087886,"title":"Shara+Village+31","description":"APAAME_20101017_DDB-0094.dng"}
{"id":6137584417,"url":"http://farm7.staticflickr.com/6074/6137584417_22aafb075e.jpg","path":"9cc/5a7/9cc5a7fc1a1bd4e740b3ee9ba8804c7c.jpg","date":"2011-08-16","year":2011,"month":8,"lon":35.165176,"lat":30.353916,"tags":"arava,bungalow,cabin,desert,deserto,downshifting,ecocompatibilit%C3%A0,ecologia,ecologie,ecology,eretz,erez,heretz,herez,israel,israele,mahane,negev,negev+ecolodge,tsukim,tzukim,zofar,zukim","S2CellId":"0dbc000000000000","result":635,"accuracy":0.08856967,"title":"fabcom_IMG_7734"}
{"id":4994624643,"url":"http://farm5.staticflickr.com/4113/4994624643_5c6c7f8707.jpg","path":"5f3/c6a/5f3c6a3fcead366cf851eb5031b7516.jpg","date":"2007-04-19","year":2007,"month":4,"lon":35.595676,"lat":30.329084,"tags":"aerial+archaeology,aerial+photography,air+photo,ancient+history,digital+camera,flight+2,fortress,jordan+2007,levant,middle+east,near+east,roman,village","S2CellId":"1c70000000000000","result":1446,"accuracy":0.03300001,"title":"Udruh+Fortress","description":"APAAME_20070419_FFR-0124.tif"}
{"id":9553863227,"url":"http://farm8.staticflickr.com/7404/9553863227_b33a8f7dc4.jpg","path":"58c/965/58c96599ccb8782d25de569ac7e27c3.jpg","date":"2008-10-09","year":2008,"month":10,"lon":35.406353,"lat":30.316446,"tags":"aerial+archaeology,aerial+photography,air+photo,ancient+history,archaeology,middle+east","S2CellId":"80cf000000000000","result":7266,"accuracy":0.17162241,"title":"Jabal+Haroun","description":"APAAME_20081009_FFR-0616.JPG"}
{"id":4324300515,"url":"http://farm5.staticflickr.com/4010/4324300515_2fd845befc.jpg","path":"4bd/633/4bd6338d5a5385318435be2c1a8a9c3.jpg","date":"2008-10-08","year":2008,"month":10,"lon":35.759445,"lat":30.204063,"tags":"aerial+archaeology,flight+5,ma%27an+el-hammam,qasr,reservoir","S2CellId":"144c000000000000","result":1197,"accuracy":0.029660277,"title":"Ma%27an+el-Hammam","description":"APAAME_20081008_DLK-0343.dng"}
{"id":6265652445,"url":"http://farm7.staticflickr.com/6104/6265652445_0db8895a73.jpg","path":"93a/acb/93aacbceef4ff5fd2860cca3fc0ea.jpg","date":"2011-10-13","year":2011,"month":10,"lon":35.551617,"lat":30.461065,"tags":"aerial+archaeology,aerial+photography,air+photo,ancient+history,archaeology,middle+east","S2CellId":"4712900000000000","result":3195,"accuracy":0.0015257306,"title":"Khidad+Ruin+81","description":"APAAME_20111013_DDB-0638.dng"}
{"id":5113404589,"url":"http://farm2.staticflickr.com/1423/5113404589_d566042989.jpg","path":"938/4af/9384afac261dffb3cee865f3cdc6d7.jpg","date":"2010-10-17","year":2010,"month":10,"lon":35.441742,"lat":30.104578,"tags":"aerial+archaeology,aerial+photography,air+photo,ancient+history,hamlet%3F,levant,middle+east,near+east","S2CellId":"1c70000000000000","result":1446,"accuracy":0.06261515,"title":"ARNAS+120","description":"APAAME_20101017_DDB-0360.dng"}
{"id":9556388180,"url":"http://farm8.staticflickr.com/7332/9556388180_b196252fa2.jpg","path":"d89/1c5/d891c57b2fbeb97f46891e73f73a9e9.jpg","date":"2008-10-09","year":2008,"month":10,"lon":35.4742,"lat":30.119982,"tags":"aerial+archaeology,aerial+photography,air+photo,ancient+history,archaeology,middle+east","S2CellId":"1c70000000000000","result":1446,"accuracy":0.017793695,"title":"Shara+Village+36","description":"APAAME_20081009_FFR-0406.jpg"}
{"id":641411617,"url":"http://farm2.staticflickr.com/1006/641411617_8ba9a5810f.jpg","path":"b58/b87/b58b879891b197c1b57d866f7665c5d.jpg","date":"2007-06-21","year":2007,"month":6,"lon":35.4776,"lat":30.324286,"tags":"arab,camel,jordan,petra,pretty,rock,ruins,sand","S2CellId":"1501400000000000","result":1348,"accuracy":0.23325336,"title":"IMG+0814","description":"Riding+camels%0D%0AThe+ruins+of+Petra%2C+Jordan"}
{"id":3750673124,"url":"http://farm3.staticflickr.com/2555/3750673124_1787c4692e.jpg","path":"cfd/f66/cfdf661aa7ab4a51fdb476bfeef73db.jpg","date":"2004-12-31","year":2004,"month":12,"lon":35.47657,"lat":30.322878,"tags":"balcony,jordan,petra,petra+palace+hotel","S2CellId":"0d71d00000000000","result":572,"accuracy":0.093697265,"title":"Petra+Palace+Hotel"}
{"id":5099383724,"url":"http://farm2.staticflickr.com/1203/5099383724_53c59dec60.jpg","path":"771/986/771986c0bd5df3f9eee2833bb87551e4.jpg","date":"2010-10-16","year":2010,"month":10,"lon":35.55672,"lat":30.527464,"tags":"aerial+archaeology,aerial+photography,air+photo,ancient+history,castle,levant,middle+east,near+east","S2CellId":"8733110000000000","result":7788,"accuracy":0.05639441,"title":"Shaubak+Castle","description":"APAAME_20101016_SES-0013.dng"}
{"id":5113247411,"url":"http://farm2.staticflickr.com/1067/5113247411_35a61291a1.jpg","path":"2e3/cf4/2e3cf41e6af6c3359705285a67ea9f5.jpg","date":"2010-10-17","year":2010,"month":10,"lon":35.436768,"lat":30.080423,"tags":"aerial+archaeology,aerial+photography,air+photo,ancient+history,hamlet%3F,levant,middle+east,near+east","S2CellId":"1c70000000000000","result":1446,"accuracy":0.0587668,"title":"ARNAS+304","description":"APAAME_20101017_DDB-0294.dng"}
{"id":5099937224,"url":"http://farm2.staticflickr.com/1094/5099937224_db99a05a9b.jpg","path":"143/9ea/1439eaa22602ee8a8e47ed6dff4affe.jpg","date":"2010-10-16","year":2010,"month":10,"lon":35.50876,"lat":30.266895,"tags":"aerial+archaeology,aerial+photography,air+photo,ancient+history,levant,middle+east,near+east,road","S2CellId":"1c70000000000000","result":1446,"accuracy":0.11501518,"title":"Khidar+Road+2","description":"APAAME_20101016_DLK-0308.dng"}
{"id":4994993002,"url":"http://farm5.staticflickr.com/4092/4994993002_5921d6e9b6.jpg","path":"8af/4e3/8af4e37f972fb837f9332b3e7f54169d.jpg","date":"2007-04-19","year":2007,"month":4,"lon":35.726402,"lat":30.750336,"tags":"aerial+archaeology,aerial+photography,air+photo,ancient+history,flight+2,fort,jordan+2007,levant,middle+east,near+east,road,road-station,roman,scanned+from+slide,village","S2CellId":"5740000000000000","result":6329,"accuracy":0.016606897,"title":"Kh.+at-Tuwanah","description":"APAAME_20070419_DLK-0040.tif"}
