{"id":9638815375,"url":"http://farm4.staticflickr.com/3674/9638815375_1b29498193.jpg","path":"23a/f99/23af99c5767a82423e73aa6f9fc11cbe.jpg","date":"2013-09-01","year":2013,"month":9,"lon":114.91349,"lat":4.91579,"tags":"instagram+app,iphoneography,square,square+format","S2CellId":"3a02740000000000","result":2506,"accuracy":0.046501055,"title":"Pre-ride+breakfast+%23ScooterLife+%23BikerAtHeart+%23Honda+%23SilverWing+%23MaxiScooter+%23Brunei+%23InstaBruDroid+%23Andrography+%23AidilFitri+%23Weekend+%23Random"}
{"id":7179485377,"url":"http://farm9.staticflickr.com/8147/7179485377_306e66a04c.jpg","path":"5a2/9ec/5a29ecfb9d6c371ccc49c6cf75ce563.jpg","date":"2012-06-12","year":2012,"month":6,"lon":114.89786,"lat":4.973353,"tags":"instagram+app,iphoneography,sierra,square,square+format","S2CellId":"8085808700000000","result":6942,"accuracy":0.007500664,"title":"Best+Practices+within+Science+Education+In+Malaysia+oral+presentation"}
{"id":8691924041,"url":"http://farm9.staticflickr.com/8533/8691924041_709695eb83.jpg","path":"c4b/8be/c4b8be24b9beb5479967986d7c6e.jpg","date":"2013-04-29","year":2013,"month":4,"lon":114.87631,"lat":4.898578,"tags":"instagram+app,iphoneography,normal,square,square+format","S2CellId":"30e2740000000000","result":1651,"accuracy":0.022862008,"title":"Make+sure+you%27re+hungry+when+you+check+out+the+Penang+Food+Festival+at+OGH%21+%23LoveFoodHateWaste+%23YummyInMyTummy+%23Brunei+%23InstaBruDroid+%23Andrography"}
{"id":2213385229,"url":"http://farm3.staticflickr.com/2400/2213385229_b1e32d0a58.jpg","path":"942/66b/94266b38eabb18ecab56e1b85d1492c.jpg","date":"2007-12-25","year":2007,"month":12,"lon":114.971924,"lat":4.168718,"tags":"d80,malaysia,mulu","S2CellId":"9240000000000000","result":9638,"accuracy":0.21844628}
{"id":2442522211,"url":"http://farm3.staticflickr.com/2065/2442522211_00f218fd14.jpg","path":"d74/99e/d7499ed565d51dd6883fe5d67e1761.jpg","date":"2008-04-26","year":2008,"month":4,"lon":114.93198,"lat":4.88635,"tags":"blng,bowling,brunei,edshal,hlp,refinery,utama","S2CellId":"880f100000000000","result":8148,"accuracy":0.031770483,"title":"IMG_6960"}
{"id":8082158938,"url":"http://farm9.staticflickr.com/8048/8082158938_b82bfdfcbf.jpg","path":"7aa/290/7aa290274ee6b0b9396e35b68ef454c.jpg","date":"2012-10-13","year":2012,"month":10,"lon":114.92664,"lat":4.904247,"tags":"instagram+app,iphoneography,square,square+format","S2CellId":"808fcb0000000000","result":7069,"accuracy":0.0035715336,"title":"Pistachio+yumminess+with+the+girls%21+%40nonnieking+%40osemommey+%40inspiredee+%40atulmoksin+%40my7thlife"}
{"id":194377241,"url":"http://farm1.staticflickr.com/45/194377241_44e98a79cb.jpg","path":"cbb/ee9/cbbee97d6253d446367da09f14c1f3.jpg","date":"2006-01-14","year":2006,"month":1,"lon":114.93888,"lat":4.892315,"tags":"brunei","S2CellId":"89b7b7ec00000000","result":8879,"accuracy":0.058905866,"title":"Royal+Regalia+Museum%2C+Brunei"}
{"id":8862396507,"url":"http://farm6.staticflickr.com/5469/8862396507_cd0c379693.jpg","path":"d33/279/d33279cfa889ab5a36de31303e56c0.jpg","date":"2013-05-28","year":2013,"month":5,"lon":114.92045,"lat":4.895923,"tags":"instagram+app,iphoneography,square,square+format","S2CellId":"7955400000000000","result":6875,"accuracy":0.028237637,"title":"How+fun%21+Two+dudes+having+a+Facebook+break+in+the+%23baidurizengarden"}
{"id":8568632312,"url":"http://farm9.staticflickr.com/8108/8568632312_ed5babcf3a.jpg","path":"a99/b51/a99b518b4c780e69935d422f4aad911.jpg","date":"2013-03-18","year":2013,"month":3,"lon":114.95762,"lat":4.954677,"tags":"instagram+app,iphoneography,normal,square,square+format","S2CellId":"80dd317000000000","result":7376,"accuracy":0.014441363,"title":"Laksa+night+at+mum%27s+%23YummyInMyTummy+%23LoveFoodHateWaste+%23Brunei+%23InstaBruDroid+%23Andrography"}
{"id":8086458263,"url":"http://farm9.staticflickr.com/8328/8086458263_93cfa3a933.jpg","path":"977/9bc/9779bc3b96ffce643da1802a8716f96c.jpg","date":"2012-09-28","year":2012,"month":9,"lon":114.830475,"lat":4.023179,"tags":"mucanum+patibulum","S2CellId":"8fa0900000000000","result":9556,"accuracy":0.072549365,"title":"Shield+Bug+Mucanum+patibulum","description":"Gunung+Mulu+NP%2C+Sarawak%2C+MALAYSIA"}
{"id":4171421914,"url":"http://farm3.staticflickr.com/2741/4171421914_1d12534bee.jpg","path":"595/b84/595b849e5dc78686ed23e2b6f75a5.jpg","date":"2009-12-08","year":2009,"month":12,"lon":114.11348,"lat":4.371815,"tags":"aerial,borneo,deforestation,jdeb,malaysia,oil+palm,peatlands,sarawak","S2CellId":"5140000000000000","result":5964,"accuracy":0.01980026,"title":"Sarawak","description":"Deforestation+of+peat+forest+in+Miri+Division.+This+will+be+an+oil+palm+plantation+in+a+year%27s+time.+%0A%0A%3Ca+href%3D%22http%3A%2F%2Floc.alize.us%2F%23%2Fflickr%3A4171421914%22+rel%3D%22nofollow%22%3ESee+where+this+picture+was+taken.%3C%2Fa%3E+%3Ca+href%3D%22http%3A%2F%2Fwww.flickr.com%2Fgroups%2Fgeotagging%2Fdiscuss%2F72157594165549916%2F%22%3E%5B%3F%5D%3C%2Fa%3E"}
{"id":9229284922,"url":"http://farm3.staticflickr.com/2832/9229284922_df0c8e49ce.jpg","path":"441/141/441141136c38433262f9636e301c236.jpg","date":"2013-07-07","year":2013,"month":7,"lon":114.96424,"lat":4.949707,"tags":"instagram+app,iphoneography,normal,square,square+format","S2CellId":"3a02740000000000","result":2506,"accuracy":0.037785057,"title":"Family+%23Sunday+%23Tahlil+%23Brunei+%23InstaBruDroid+%23Andrography+%23Random+%23Weekend"}
{"id":2531297260,"url":"http://farm4.staticflickr.com/3072/2531297260_eb155a88ed.jpg","path":"3ba/f86/3baf86447f6d79869358563fa7692.jpg","date":"2008-05-28","year":2008,"month":5,"lon":114.947205,"lat":4.938151,"tags":"brunei,culture,mosque,religion,travel","S2CellId":"0d126c1c00000000","result":191,"accuracy":0.007915469,"title":"Brunei+-+guard+at+mosque","description":"Brunei+mosque+in+2001+during+a+work+trip+there.+%0AThe+guard+%28%3F%29+was+sitting+at+the+entrance+reading+the+paper.+%0A%0AThese+photos+have+been+the+most+downloaded+of+my+series+I+had+on+webshots."}
{"id":4271422232,"url":"http://farm5.staticflickr.com/4025/4271422232_1a9fe35ffe.jpg","path":"b9a/cfa/b9acfaaaa11d85ada2ce7e385eb7c2.jpg","date":"2010-01-07","year":2010,"month":1,"lon":114.936905,"lat":4.88727,"tags":"asia,bandar+seri+begawan,boat,borneo,brunei,kampung+ayer,kota+kinabalu,ride,south+east+asia,sunset,travel,tropical,village,water","S2CellId":"323b000000000000","result":1891,"accuracy":0.14146227,"title":"Brunei_hnymoon_2_01072010-191"}
{"id":8439860069,"url":"http://farm9.staticflickr.com/8088/8439860069_40771000f5.jpg","path":"bdf/ab0/bdfab0c6663abfbb8e3865ad15b8d6e0.jpg","date":"2007-03-02","year":2007,"month":3,"lon":114.04701,"lat":4.22453,"tags":"nasutitermes","S2CellId":"465a400000000000","result":2886,"accuracy":0.1360003,"title":"Termites+Nasutitermes+sp.","description":"Lambir+Hills+NP%2C+Sarawak%2C+MALAYSIA"}
{"id":8411731942,"url":"http://farm9.staticflickr.com/8371/8411731942_e8c56f80fb.jpg","path":"f5e/8be/f5e8be6788dbc94de62175e1e2a51.jpg","date":"2007-02-24","year":2007,"month":2,"lon":114.82155,"lat":4.013589,"tags":"curculionidae","S2CellId":"8fa7000000000000","result":9567,"accuracy":0.04081348,"title":"Weevil+%28Curculionidae%29","description":"Gunung+Mulu+NP%2C+Sarawak%2C+MALAYSIA"}
{"id":4303556846,"url":"http://farm5.staticflickr.com/4029/4303556846_00719e2890.jpg","path":"cdc/310/cdc31054b272525892d568b68a3b388.jpg","date":"2010-01-24","year":2010,"month":1,"lon":114.87773,"lat":4.849925,"tags":"asia,brunei,jungle,nature,proboscis,proboscis+monkey,rain+forest,southeast","S2CellId":"1ed0000000000000","result":1478,"accuracy":0.11100066,"title":"Proboscis+Monkey+%28Brunei%29+Nasalis+larvatus","description":"We+were++off+to+Brunei+for+a+night+photo+shoot+at+Merimbun+Nature+Preserve+-+but+that+was+in+the+afternoon+%28to+get+there%29+and+evening+%28to+shoot+all+night%29.++So+in+the+morning%2C++took+a+water+taxi+to+the+place+where+there+are+large+populations+of+Proboscis+monkeys.++We+were+fortunate+to+find+a+friendly+family+%28i.e.+they+did+not+run+away%29+-+and+managed+to+get+a+few+more+or+less+focused+images"}
{"id":10237649654,"url":"http://farm3.staticflickr.com/2866/10237649654_dc72486d93.jpg","path":"909/3d0/9093d040173bd0906d93ed5238d7e84e.jpg","date":"2013-10-13","year":2013,"month":10,"lon":114.87706,"lat":4.878569,"tags":"instagram+app,iphoneography,sierra,square,square+format","S2CellId":"3397c84000000000","result":1920,"accuracy":0.008316889,"title":"Processing+pics+from+last+night+and+enjoying+%23CBTL+in+my+new+%23RBbetterfly+mug.+Yup%2C+it%27s+that+kinda+%23Sunday.+%23Brunei+%23InstaBruDroid+%23Andrography+%23Random+%23Weekend+%23Travel"}
{"id":4471503370,"url":"http://farm3.staticflickr.com/2774/4471503370_04925f7898.jpg","path":"41b/410/41b410531e17b62ff2736ed83444b08e.jpg","date":"2010-03-27","year":2010,"month":3,"lon":114.87829,"lat":4.850197,"tags":"brunei,monkey,nature,proboscis,proboscis+monkey","S2CellId":"1833000000000000","result":1424,"accuracy":0.048040554,"title":"A+flying+leap"}
{"id":9272353931,"url":"http://farm6.staticflickr.com/5484/9272353931_4bf8ae6665.jpg","path":"28f/8e9/28f8e939fb7c960c145f65775e0dfcf.jpg","date":"2013-07-13","year":2013,"month":7,"lon":114.82585,"lat":4.871826,"tags":"instagram+app,iphoneography,square,square+format","S2CellId":"80c8d40000000000","result":7253,"accuracy":0.013002038,"title":"Funny+game+%23dumbwaystodie+hahaha%21+Sementara+waiting+for+lives+to+be+refilled+on+%23candycrush.+%23gameaddict+%40hazidiee"}
{"id":6016148608,"url":"http://farm7.staticflickr.com/6007/6016148608_c00e56fda0.jpg","path":"7a6/64e/7a664ebff33a1af2b622877020246d.jpg","date":"2009-11-27","year":2009,"month":11,"lon":114.94016,"lat":4.89223,"tags":"bandar+seri+begawan,borneo,brunei,brunei+darussalam,kampung+ayer,sultan+palace","S2CellId":"3143000000000000","result":1758,"accuracy":0.05003046,"title":"Borneo+017","description":"The+early+20th-century+Sultan+Palace%2C+small+house+behind+the+tree%0A%0ARapid+Travel+Chai%0ATravel+fast+and+smart...linger+only+in+memories%0A%3Ca+href%3D%22http%3A%2F%2Frapidtravelchai.com%22+rel%3D%22nofollow%22%3Erapidtravelchai.com%3C%2Fa%3E"}
{"id":6731222373,"url":"http://farm8.staticflickr.com/7159/6731222373_4c63e5e9cd.jpg","path":"2f7/1b6/2f71b6c72a7b8f655eac350c21696d0.jpg","date":"2007-02-23","year":2007,"month":2,"lon":114.750824,"lat":4.015302,"tags":"phrynoidis+aspera","S2CellId":"00ac000000000000","result":63,"accuracy":0.02351673,"title":"River+Toad+Phrynoidis+aspera","description":"Gunung+Mulu+NP+Sarawak"}
{"id":194376273,"url":"http://farm1.staticflickr.com/75/194376273_385f7d6a0c.jpg","path":"2a9/e48/2a9e4891bb727ae6b6c3b74d7fa3d5cb.jpg","date":"2006-01-10","year":2006,"month":1,"lon":114.45393,"lat":4.669675,"tags":"brunei","S2CellId":"47c4b00000000000","result":4268,"accuracy":0.09677635,"title":"P1100015"}
{"id":4271455682,"url":"http://farm5.staticflickr.com/4012/4271455682_b5e5a4d7c1.jpg","path":"d4b/bb3/d4bbb31545f97789959516367179483.jpg","date":"2010-01-04","year":2010,"month":1,"lon":114.85794,"lat":4.96731,"tags":"asia,borneo,brunei,empire+hotel,hotel,jerudong,kota+kinabalu,luxury,resort,south+east+asia,travel,tropical","S2CellId":"7c06c00000000000","result":6897,"accuracy":0.121584535,"title":"Brunei_hnymoon_3_01042010-074"}
{"id":8093749153,"url":"http://farm9.staticflickr.com/8466/8093749153_6fccac001c.jpg","path":"733/a6e/733a6e55d08b1832f444fe30ef6ddfff.jpg","date":"2012-09-28","year":2012,"month":9,"lon":114.81537,"lat":4.000575,"tags":"crambidae","S2CellId":"36d4000000000000","result":2409,"accuracy":0.34506762,"title":"Crambid+Moth","description":"Gunung+Mulu+NP%2C+Sarawak%2C+MALAYSIA"}
