{"id":3715496548,"url":"http://farm4.staticflickr.com/3418/3715496548_022749d579.jpg","path":"60f/ea2/60fea2858c26e2d381debbcd8ac6ae87.jpg","date":"2009-07-10","year":2009,"month":7,"lon":-120.3608,"lat":38.242664,"tags":"2009,arnold,california,july,russellreno,state+route+4","S2CellId":"88d0a631cabb5071","result":8563,"accuracy":0.026177913,"title":"Arnold+Sierra+Nevada+-9844"}
{"id":6812458296,"url":"http://farm8.staticflickr.com/7061/6812458296_4f76df9496.jpg","path":"4fa/7b9/4fa7b934a5f691ae8cd4a68e737e781f.jpg","date":"2012-03-04","year":2012,"month":3,"lon":-120.0335,"lat":38.8149,"tags":"birthday,california,lake+tahoe,snow,south+lake+tahoe","S2CellId":"45d4000000000000","result":2755,"accuracy":0.027818633,"title":"IMG_2625","description":"Adventure+Mountain+Snow+Park%0A%0AA+trip+to+South+Lake+Tahoe+for+Grant%27s+First+Birthday."}
{"id":5592644098,"url":"http://farm6.staticflickr.com/5261/5592644098_645b3db0d6.jpg","path":"c9a/3ce/c9a3ce3f5a7dd6e8864870202684c990.jpg","date":"2011-04-03","year":2011,"month":4,"lon":-120.403336,"lat":38.92472,"tags":"robbs+hutt+2011,skiing,snow,tahoe","S2CellId":"45d4000000000000","result":2755,"accuracy":0.009764907,"title":"content%3A%2F%2Fmedia%2Fexternal%2Fimages%2Fmedia%2F113"}
{"id":7678890160,"url":"http://farm8.staticflickr.com/7109/7678890160_501d0320be.jpg","path":"8e2/99b/8e299ba6db3bf23c1aab6995d451390.jpg","date":"2012-07-28","year":2012,"month":7,"lon":-120.10247,"lat":38.93419,"tags":"cascade+falls+trail","S2CellId":"80bf000000000000","result":7137,"accuracy":0.18226981,"title":"P1000752"}
{"id":4452238877,"url":"http://farm3.staticflickr.com/2785/4452238877_ac5a458f45.jpg","path":"fb4/7aa/fb47aa23a24414646ba311680daba2c.jpg","date":"2010-03-16","year":2010,"month":3,"lon":-120.09515,"lat":38.961185,"tags":"california,lake,tahoe","S2CellId":"9aab000000000000","result":9926,"accuracy":0.028311739,"title":"Another+of+the+wonerful+sandy+beaches"}
{"id":11381720285,"url":"http://farm8.staticflickr.com/7415/11381720285_6e631e1e1d.jpg","path":"28b/6db/28b6dbaa2f22597edcf31321432ebc71.jpg","date":"2013-10-13","year":2013,"month":10,"lon":-120.07393,"lat":38.879333,"tags":"bay,california,emerald,fallen,honeymoon,lake,leaf,nevada,road,south+lake+tahoe,states,tahoe,tour,trip,united,united+states,usa,vikingsholms,waterfall","S2CellId":"8769700000000000","result":7857,"accuracy":0.1681599,"title":"Honeymoon+%3A+Lake+Tahoe","description":"Tour+around+Lake+Tahoe+%26+Emerald+Bay"}
{"id":7536757428,"url":"http://farm9.staticflickr.com/8149/7536757428_42bc6056fd.jpg","path":"c78/85f/c7885f22e8095806e7d499d2c3ff8fa.jpg","date":"2012-07-06","year":2012,"month":7,"lon":-120.14715,"lat":38.92996,"tags":"name%3A+kyle+o%27connell,name%3A+vika+butsky,set%3A+2012-07-04+desolation+wilderness+backpacking","S2CellId":"8096400000000000","result":7093,"accuracy":0.15659969,"title":"Image+23291.","description":"Place%3A+USA%2FCalifornia%2FHigh+Sierra%2FLake+Tahoe+Basin+Mgmt+Unit%2FDesolation+Wilderness%2FUpper+Velma+Lake"}
{"id":1234195007,"url":"http://farm2.staticflickr.com/1062/1234195007_3b6564a170.jpg","path":"7cd/e5b/7cde5bfab9d9a27bd5fb1ea580ebb190.jpg","date":"2007-08-19","year":2007,"month":8,"lon":-120.26765,"lat":38.243324,"tags":"calaveras+big+trees+state+park","S2CellId":"54bf400000000000","result":6299,"accuracy":0.031588905,"title":"Calaveras+Big+Trees+State+Park"}
{"id":252698611,"url":"http://farm1.staticflickr.com/112/252698611_9c353ec5e1.jpg","path":"ab1/129/ab112916740107fdfe35dc330a3b6d.jpg","date":"2006-09-23","year":2006,"month":9,"lon":-120.35763,"lat":38.252808,"tags":"2006","S2CellId":"878d000000000000","result":7909,"accuracy":0.025443126,"title":"hydrant"}
{"id":6341477936,"url":"http://farm7.staticflickr.com/6034/6341477936_a3bb5a82ed.jpg","path":"6a2/849/6a2849709f7587404db89f7dd12112f1.jpg","date":"2010-08-31","year":2010,"month":8,"lon":-120.40144,"lat":38.034454,"tags":"columbia+ca,columbia+state+historic+park","S2CellId":"809ad70000000000","result":7124,"accuracy":0.059286352,"title":"Masonic+Hall%2C+Columbia+State+Historic+Park"}
{"id":2857324381,"url":"http://farm4.staticflickr.com/3148/2857324381_fb2c1f7f4c.jpg","path":"317/d1d/317d1dc63ca026faa8ee914f71ebe51.jpg","date":"2008-09-08","year":2008,"month":9,"lon":-120.10109,"lat":38.953335,"tags":"beautiful,blue,california,green,lake,nevada,tahoe","S2CellId":"8099900000000000","result":7112,"accuracy":0.106474504,"title":"Bonzai+Pine+Tree%2C+Emerald+Bay"}
{"id":3699104823,"url":"http://farm3.staticflickr.com/2614/3699104823_71d09a0541.jpg","path":"7f4/58c/7f458c68ebe26d2885cdc83adfd0e5bc.jpg","date":"2009-07-07","year":2009,"month":7,"lon":-120.55248,"lat":38.082264,"tags":"bee,black,black+bee,bokeh,bug,insect,macro,peas,pink,pink+peas","S2CellId":"47edc00000000000","result":4703,"accuracy":0.96132,"title":"LEAVE+ME+++++A+L+O+N+E%21","description":"I+was+getting+ready+to+mow+the+back+yard%2C+when+I+saw+this+huge+black+bee%2C+so+I+ran+into+the+house+to+get+my+camera%2C+when+I+came+back+he%27s+still+there+I+was+only+able+to+get+a+couple+of+shots+off+before+he+got+annoyed+then+he+would+fly+back+and+forth+right+in+front+of+my+face.++He+came+back+a+couple+of+more+times+but+wouldn%27t+let+me+take+his+picture%2C+this+was+the+best+one."}
{"id":9442067694,"url":"http://farm4.staticflickr.com/3770/9442067694_3c0687e3dc.jpg","path":"807/d6f/807d6f65f4a6baa3e3cc651a2ce2e1.jpg","date":"2013-07-28","year":2013,"month":7,"lon":-120.138275,"lat":38.408962,"tags":"animal,butterfly,california,nature,rchan415,renedrivers","S2CellId":"47e6d00000000000","result":4688,"accuracy":0.02097724,"title":"Butterflies"}
{"id":2258290001,"url":"http://farm3.staticflickr.com/2315/2258290001_fbdf925469.jpg","path":"1ef/7a6/1ef7a6e9e2eb23182708f9134911f70.jpg","date":"2008-02-11","year":2008,"month":2,"lon":-120.11167,"lat":38.95201,"tags":"emerald+bay,lake+tahoe,snow,tahoe,water","S2CellId":"534fc00000000000","result":6031,"accuracy":0.11590715,"title":"Runoff"}
{"id":420879018,"url":"http://farm1.staticflickr.com/171/420879018_b86b964e1f.jpg","path":"3b9/edf/3b9edf81f6c1930846991abbd52.jpg","date":"2007-03-11","year":2007,"month":3,"lon":-120.037224,"lat":38.463802,"tags":"seeframe,shayan+sanyal","S2CellId":"8096400000000000","result":7093,"accuracy":0.15384856,"title":"Bear+Valley+%2707","description":"At+the+peak%2C+7000+ft"}
{"id":1583620,"url":"http://farm1.staticflickr.com/2/1583620_3e10adea9e.jpg","path":"3be/1a5/3be1a5f45e4994154bde35fa6e672f.jpg","date":"2004-11-19","year":2004,"month":11,"lon":-120.05714,"lat":38.802395,"tags":"california,laketahoe,me,powder,sierra-at-tahoe,skiing,tahoe,telemark","S2CellId":"5487400000000000","result":6150,"accuracy":0.0573664,"title":"Powder+Run+3","description":"We+actually+got+paid+to+do+this%21"}
{"id":101699185,"url":"http://farm1.staticflickr.com/37/101699185_c4884dfa9c.jpg","path":"2ba/792/2ba792719837443e43bc9245b2d08820.jpg","date":"2006-02-19","year":2006,"month":2,"lon":-120.102,"lat":38.954,"tags":"2005,afternoon,autostitch,bay+area,broken+camera,california,damaged+camera,emerald+bay,labor+day+weekend,lake+tahoe,light+leak,michael+patrick,mountain,mountainous,mountains,northern+california,old+camera,panorama,rocky,san+francisco+bay+area,sf+bay+area,sierra,sierra+nevada,sierras,summer,sunny,tahoe,tour","S2CellId":"5353000000000000","result":6037,"accuracy":0.09415098,"title":"inside+Emerald+Bay%2C+Lake+Tahoe%2C+September+2005","description":"Over+Labor+Day+weekend+I+went+to+Lake+Tahoe%2C+and+one+of+the+things+I+did+was+take+a+tour+boat+ride+from+Tahoe+City+along+the+west+shore+to+Emerald+Bay.++This+is+Emerald+Bay+and+the+mountains+above+it%2C+as+viewed+from+about+one-third+of+the+way+from+the+entrance+to+the+far+end.++I+thought+it+would+be+a+great+opportunity+for+a+panorama%2C+but%2C+funny%2C+here+it+looks+more+like+a+distant%2C+minimally+curving+shoreline+and+not+the+completely+surrounding%2C+dwarfing+landscape+that+it+is.%0A%0ASometime+after+this+trip%2C+I+had+my+film+developed%2C+and+the+%3Ca+href%3D%22http%3A%2F%2Flocal.google.com%2Flocal%3Ff%3Dq%26hl%3Den%26q%3DFoto%2BExpress%2C%2BSan%2BJose%2C%2BCA%26ll%3D37.337511%2C-121.88962%26spn%3D0.019347%2C0.020213%22%3EFoto++Express%3C%2Fa%3E+guy+told+me+my+camera+%28a+15-year-old+point-and-shoot%29+had+light+leaks.++So--I+probably+won%27t+be+using+that+camera+anymore.%0A%0A%3Ca+href%3D%22http%3A%2F%2Fmapper.acme.com%2F%22%3EGeotagged%3C%2Fa%3E+%28approximately%29+%2F+%3Ca+href%3D%22http%3A%2F%2Floc.alize.us%2F%23%2Fflickr%3A101699185%22%3Eloc.alize.us%2F%23%2Fflickr%3A101699185%3C%2Fa%3E+%3Ca+href%3D%22http%3A%2F%2Fwww.flickr.com%2Fgroups%2Fgeotagging%2Fdiscuss%2F72157594165549916%2F%22%3E%5B%3F%5D%3C%2Fa%3E"}
{"id":1525527156,"url":"http://farm3.staticflickr.com/2135/1525527156_edca83b233.jpg","path":"3ad/6ca/3ad6ca54206aea28f7fc522fdf20d431.jpg","date":"2007-08-28","year":2007,"month":8,"lon":-120.91647,"lat":38.72161,"tags":"clouds,placerville%2C+ca,sunset","S2CellId":"47d9bc0000000000","result":4479,"accuracy":0.010108926,"title":"IMG_6851"}
{"id":7537257462,"url":"http://farm8.staticflickr.com/7136/7537257462_3e30c472d7.jpg","path":"865/1bf/8651bfb69ec6584476cd03c4691259d.jpg","date":"2012-07-06","year":2012,"month":7,"lon":-120.148056,"lat":38.926224,"tags":"best,set%3A+2012-07-04+desolation+wilderness+backpacking","S2CellId":"54cd000000000000","result":6310,"accuracy":0.011437208,"title":"Image+23371.","description":"Place%3A+USA%2FCalifornia%2FHigh+Sierra%2FLake+Tahoe+Basin+Mgmt+Unit%2FDesolation+Wilderness"}
{"id":11381611135,"url":"http://farm8.staticflickr.com/7449/11381611135_04e05dda9e.jpg","path":"eb5/107/eb5107cb3aebf12739a06789ea376e.jpg","date":"2013-10-14","year":2013,"month":10,"lon":-120.10768,"lat":38.9552,"tags":"bay,california,emerald,fallen,honeymoon,lake,leaf,nevada,road,states,tahoe,tour,trip,united,usa,vikingsholms,waterfall","S2CellId":"8095400000000000","result":7091,"accuracy":0.07695328,"title":"Honeymoon+%3A+Lake+Tahoe","description":"Tour+around+Lake+Tahoe+%26+Emerald+Bay"}
{"id":3307590223,"url":"http://farm4.staticflickr.com/3626/3307590223_47b724076a.jpg","path":"59d/71b/59d71b2e5cecead2d8228f51ddae78f0.jpg","date":"2009-02-24","year":2009,"month":2,"lon":-120.55248,"lat":38.082264,"tags":"blossoms,flowers,plum,spring,tree","S2CellId":"47edc00000000000","result":4703,"accuracy":0.5120316,"title":"Here+comes+spring%21","description":"These+are+peach+blossoms%2C+in+our+back+yard."}
{"id":3677579465,"url":"http://farm3.staticflickr.com/2136/3677579465_b4aeb70fb4.jpg","path":"3e5/bad/3e5bada3c66948cf7dc84b3c7258d.jpg","date":"2004-10-12","year":2004,"month":10,"lon":-120.350845,"lat":38.241955,"tags":"2004,arnold,california","S2CellId":"5470000000000000","result":6094,"accuracy":0.0073842467,"title":"Arnold+California+2004+-+F1010027","description":"2004.10T+-+Arnold3+B%26W+-+10005107"}
{"id":215213509,"url":"http://farm1.staticflickr.com/69/215213509_e3338e43e5.jpg","path":"609/2d0/6092d0ddcbff8e67c4a284fdba1516f4.jpg","date":"2006-08-14","year":2006,"month":8,"lon":-120.86076,"lat":38.852074,"tags":"acrylics,art,blue,graffiti,paint,painting","S2CellId":"808f7e3400000000","result":7028,"accuracy":0.01420459,"title":"Blue+graffiti+background+-+in+progress","description":"Zach%27s+-+background+for+in-progress+work%0A%0AOriginal+street+%2F+graffiti+inspired+art+by+ZCMacPhearson%2C+SF+Bay+Area+graffiti+artist.++%3Ca+href%3D%22http%3A%2F%2Fwww.zcmacphearson.com%22%3Ewww.zcmacphearson.com%3C%2Fa%3E"}
{"id":2909360290,"url":"http://farm4.staticflickr.com/3278/2909360290_d437f5116e.jpg","path":"955/576/955576262a5b34e230b8fa411bcd2b37.jpg","date":"2008-08-15","year":2008,"month":8,"lon":-120.0528,"lat":38.70487,"tags":"author%3A+vlad,set%3A+2008+woods+lake","S2CellId":"8096f70000000000","result":7102,"accuracy":0.10514474,"title":"Image+15182.","description":"Place%3A+USA%2FCalifornia%2FHigh+Sierra%2FEl+Dorado+National+Forest%2FTwin+Lakes+Campsite%0AImage+15182."}
{"id":6071567637,"url":"http://farm7.staticflickr.com/6089/6071567637_9924064eef.jpg","path":"f3f/01a/f3f01a64b62e286ab478112163bdfa6.jpg","date":"2011-08-20","year":2011,"month":8,"lon":-120.0055,"lat":38.875,"tags":"desolation+wilderness,iphone,lake+tahoe,snow","S2CellId":"8096f70000000000","result":7102,"accuracy":0.30164298,"title":"IMG_1337"}
{"id":6901131691,"url":"http://farm8.staticflickr.com/7177/6901131691_8cc4951219.jpg","path":"366/314/3663148ff0f757cf41b78fe9d5f4fed.jpg","date":"2012-02-18","year":2012,"month":2,"lon":-120.14567,"lat":38.796665,"tags":"str,strawberry","S2CellId":"89c2588f00000000","result":8969,"accuracy":0.05448651,"title":"Bears+at+Historic+Strawberry+Lodge"}
{"id":7537286412,"url":"http://farm9.staticflickr.com/8145/7537286412_8e62703256.jpg","path":"e5f/946/e5f94671775163255d45c888d14bf5e.jpg","date":"2012-07-06","year":2012,"month":7,"lon":-120.14713,"lat":38.929825,"tags":"set%3A+2012-07-04+desolation+wilderness+backpacking","S2CellId":"8769700000000000","result":7857,"accuracy":0.116794616,"title":"Image+23375.","description":"Place%3A+USA%2FCalifornia%2FHigh+Sierra%2FLake+Tahoe+Basin+Mgmt+Unit%2FDesolation+Wilderness"}
{"id":6592459511,"url":"http://farm8.staticflickr.com/7158/6592459511_2e55ccfe74.jpg","path":"f9e/683/f9e6839327302f398b653066a051d5.jpg","date":"2011-12-28","year":2011,"month":12,"lon":-120.774086,"lat":38.348873,"tags":"ca+old,california+rustic+charming+amador,country,county,county+calaveras,day+trip,gold+country,jackson,northern,sheep+ranch+ca,small+towns,town+rustic+farm+country+charming+day,town+small,trip+gold,volcano+ca","S2CellId":"6ad1000000000000","result":6610,"accuracy":0.021588359,"title":"Jackson%2C+CA"}
{"id":12424746354,"url":"http://farm3.staticflickr.com/2862/12424746354_d8dc232b76.jpg","path":"37a/0f0/37a0f068a69fa419c0702fbdf748cac.jpg","date":"2013-12-29","year":2013,"month":12,"lon":-120.09393,"lat":38.964462,"tags":"leaf,leaves,nature,needles,plant,rock","S2CellId":"2bfc000000000000","result":1527,"accuracy":0.03860791,"title":"P1100840"}
{"id":988843764,"url":"http://farm2.staticflickr.com/1254/988843764_6422c08b7d.jpg","path":"6ab/c37/6abc3743eec551a91c3f97e7e4265c.jpg","date":"2007-07-28","year":2007,"month":7,"lon":-120.025444,"lat":38.85715,"tags":"bethany,simonelli,tahoe,toney,wedding","S2CellId":"54d3000000000000","result":6313,"accuracy":0.090805426,"title":"DSC_3989.JPG"}
{"id":2443948907,"url":"http://farm3.staticflickr.com/2185/2443948907_8f6e726f77.jpg","path":"57c/750/57c750d3801791a0cca0374f26fe7df5.jpg","date":"2008-04-26","year":2008,"month":4,"lon":-120.87151,"lat":38.242702,"tags":"moke+river,penn+mine","S2CellId":"89b6340000000000","result":8827,"accuracy":0.42275512,"title":"Penn+Mine","description":"The+Moke+river+near+the+Penn+Mine%2C+The+Penn+mine+was+a+major+source+of+copper+during+World+War+2.+This+area+was+allegedly+a+barren+waste+land+when+the+mine+was+closed+a+few+decades+ago.+It+has+bounced+back+rather+nicely%2C+in+my+non-biologist+opinion%21"}
{"id":3329391969,"url":"http://farm4.staticflickr.com/3381/3329391969_2fe99a48ab.jpg","path":"769/5b4/7695b4334dd41278ef17555a2197b2ca.jpg","date":"2009-03-04","year":2009,"month":3,"lon":-120.55248,"lat":38.082264,"tags":"colorful,daffodil,daffodils,flower,spring,tattered,torn,white,yellow","S2CellId":"12a49d0000000000","result":704,"accuracy":0.18673435,"title":"Torn+and+Tattered++Daffodil","description":"We+had+quite+a+storm+the+last+couple+of+days%2C+and+our+poor+daffodils+took+quite+a+beating."}
{"id":2833411082,"url":"http://farm4.staticflickr.com/3228/2833411082_0e8b530a7a.jpg","path":"f22/29c/f2229c53fae7fd3160ce4495f5aaf66e.jpg","date":"2008-08-24","year":2008,"month":8,"lon":-120.075874,"lat":38.948154,"tags":"2008,august+2008,california,lake+tahoe,usa","S2CellId":"8099700000000000","result":7111,"accuracy":0.46920803,"title":"IMG_0324"}
{"id":7536269108,"url":"http://farm9.staticflickr.com/8426/7536269108_7f87645717.jpg","path":"b41/6d9/b416d9e732df1aa8276b0605628818.jpg","date":"2012-07-04","year":2012,"month":7,"lon":-120.11208,"lat":38.93833,"tags":"set%3A+2012-07-04+desolation+wilderness+backpacking","S2CellId":"80bf000000000000","result":7137,"accuracy":0.2437938,"title":"Image+23205.","description":"Place%3A+USA%2FCalifornia%2FHigh+Sierra%2FLake+Tahoe+Basin+Mgmt+Unit%2FDesolation+Wilderness%2FGranite+Lake%0AView+at+Granite+Lake+from+above"}
{"id":10197090503,"url":"http://farm3.staticflickr.com/2847/10197090503_69f49860e7.jpg","path":"c27/e0c/c27e0c7c3b7e5511070533b51b5b2e2.jpg","date":"2013-10-10","year":2013,"month":10,"lon":-120.93042,"lat":38.631596,"tags":"10+october+2013,animal,book,cat,edited,nobuo,processed,silly,sleeping,table,tonal+contrast","S2CellId":"885c400000000000","result":8440,"accuracy":0.010535859,"title":"Nobuo+and+his+Study+Guide","description":"Nobuo%2C+tired+after+studying+for+his+day+job."}
{"id":11382059746,"url":"http://farm6.staticflickr.com/5538/11382059746_a336d521dd.jpg","path":"641/2c1/6412c13bf0b18ee6f5d81341a31b078.jpg","date":"2013-10-14","year":2013,"month":10,"lon":-120.10691,"lat":38.95685,"tags":"bay,california,emerald,fallen,honeymoon,lake,leaf,nevada,road,states,tahoe,tour,trip,united,usa,vikingsholms,waterfall","S2CellId":"8099900000000000","result":7112,"accuracy":0.6925592,"title":"Honeymoon+%3A+Lake+Tahoe","description":"Honeymoon+%3A+Lake+Tahoe"}
{"id":2549832616,"url":"http://farm4.staticflickr.com/3010/2549832616_8b227db59e.jpg","path":"ca8/ffd/ca8ffd1d41662020e3452b1599c1a7b2.jpg","date":"2008-06-01","year":2008,"month":6,"lon":-120.122665,"lat":38.808,"tags":"%E2%98%85%E2%98%85%E2%98%85%E2%98%86%E2%98%86,forest,landscape,mountains,nature,polarizer,polarizing+filter,rocks,valley","S2CellId":"8769700000000000","result":7857,"accuracy":0.08554311,"title":"Forest+Valley"}
{"id":9565117951,"url":"http://farm6.staticflickr.com/5524/9565117951_1c121b2e9a.jpg","path":"946/561/9465618f999ec8f64118a292e37ab1.jpg","date":"2013-08-21","year":2013,"month":8,"lon":-120.10799,"lat":38.949394,"tags":"california,clear,dawn,day,emerald+bay,lake+tahoe,landscape,morning,nikon+d5100,sierra,sigma+10+20,sunrise,tahoe","S2CellId":"8099900000000000","result":7112,"accuracy":0.29271555,"title":"Emerald+Bay","description":"Hey+look%2C+its+the+same+picture+everyone+else+takes."}
{"id":5047778470,"url":"http://farm5.staticflickr.com/4125/5047778470_5c657fdb48.jpg","path":"7a8/0ed/7a80edd868ade0cad26c4408b2bd91b.jpg","date":"2009-08-08","year":2009,"month":8,"lon":-120.12537,"lat":38.810684,"tags":"2009,california,eldorado+national+forest","S2CellId":"8096f10000000000","result":7099,"accuracy":0.118992165,"title":"Trip+to+Tahoe+051"}
{"id":3298522442,"url":"http://farm4.staticflickr.com/3533/3298522442_91588f5472.jpg","path":"832/697/832697c099ed22985cf3b39683ec3ef.jpg","date":"2009-02-16","year":2009,"month":2,"lon":-120.08117,"lat":38.800186,"tags":"america,ca,california,lake,north,skiing,snow,south,sports,tahoe,us,usa,winter","S2CellId":"47b8140000000000","result":4040,"accuracy":0.07386994,"title":"DSC03344"}
{"id":3316122418,"url":"http://farm4.staticflickr.com/3580/3316122418_be780b17d4.jpg","path":"6f9/e1f/6f9e1fe8909f92e9aedca03bfd868576.jpg","date":"2009-02-20","year":2009,"month":2,"lon":-120.552475,"lat":38.08233,"tags":"babysbreath,flowers,leaves,red,rose","S2CellId":"468ec00000000000","result":2975,"accuracy":0.006166397,"title":"Full+bloom","description":"The+one+rose+in+bloom+in+the+bouquet"}
{"id":5218000324,"url":"http://farm6.staticflickr.com/5128/5218000324_45c059859e.jpg","path":"67c/375/67c375202ce0b897d9e315ea1923c9e.jpg","date":"2010-06-05","year":2010,"month":6,"lon":-120.10477,"lat":38.952793,"tags":"2010,bay,buildings,california,emerald,houses,lake,tahoe,vikingsholm","S2CellId":"8096f30000000000","result":7100,"accuracy":0.09699631,"title":"0190+Vikingsholm"}
{"id":6670926621,"url":"http://farm8.staticflickr.com/7164/6670926621_8b0c4914aa.jpg","path":"2d6/c52/2d6c527f6f741051138ba760d1eab.jpg","date":"2012-01-07","year":2012,"month":1,"lon":-120.7927,"lat":38.046535,"tags":"bird,lewis,lewo,woodpecker","S2CellId":"07af000000000000","result":114,"accuracy":0.033803344,"title":"IMG_1444","description":"Lewis%27+Woodpecker"}
{"id":6592463593,"url":"http://farm8.staticflickr.com/7004/6592463593_238560d8af.jpg","path":"12e/f80/12ef8035908ebcd81fb1d3d314c43194.jpg","date":"2011-12-28","year":2011,"month":12,"lon":-120.77342,"lat":38.348305,"tags":"ca+old,california+rustic+charming+amador,country,county,county+calaveras,day+trip,gold+country,jackson,northern,sheep+ranch+ca,small+towns,town+rustic+farm+country+charming+day,town+small,trip+gold,volcano+ca","S2CellId":"8847000000000000","result":8402,"accuracy":0.01490793,"title":"Jackson%2C+CA"}
{"id":25850877,"url":"http://farm1.staticflickr.com/22/25850877_3ce4da435f.jpg","path":"c09/958/c09958abf71cf8aa9977eeaf243c5f.jpg","date":"2005-07-09","year":2005,"month":7,"lon":-120.13078,"lat":38.804066,"tags":"bark,face,tree,trunk","S2CellId":"883cae5000000000","result":8363,"accuracy":0.47675538}
{"id":175791031,"url":"http://farm1.staticflickr.com/54/175791031_20f3959ca7.jpg","path":"98b/57a/98b57a36b319ae4f77ceaa5134c452cb.jpg","date":"2004-01-01","year":2004,"month":1,"lon":-120.70679,"lat":38.11295,"tags":"calavaras,county","S2CellId":"4754000000000000","result":3297,"accuracy":0.09591234,"title":"Calaveras+County+Fog","description":"Calaveras+Co.+in+California"}
{"id":5673029666,"url":"http://farm6.staticflickr.com/5301/5673029666_c1bf0f9884.jpg","path":"a58/93a/a5893aa06660ea8079a865f01a0c4.jpg","date":"2011-04-30","year":2011,"month":4,"lon":-120.0704,"lat":38.695908,"tags":"california,eye-fi,kirkwood,united+states","S2CellId":"88fd000000000000","result":8754,"accuracy":0.0035757455,"title":"IMG_3978.JPG"}
{"id":187787991,"url":"http://farm1.staticflickr.com/46/187787991_eb4a66e166.jpg","path":"124/c2b/124c2bab22db8db8fa2b619367d3.jpg","date":"2006-07-08","year":2006,"month":7,"lon":-120.11202,"lat":38.87306,"tags":"28-105,350d,desolation+wilderness,fallen+leaf+lake,lake+tahoe,tahoe","S2CellId":"536c000000000000","result":6045,"accuracy":0.01684866,"title":"Into+the+wilderness"}
{"id":291255885,"url":"http://farm1.staticflickr.com/119/291255885_dd49476b8f.jpg","path":"c29/845/c298458ea9478f492fd99ad4ea396db.jpg","date":"2006-11-06","year":2006,"month":11,"lon":-120.0396,"lat":38.939884,"tags":"ben+harper,both+sides+of+the+gun,bravo,california,camp+richardson+resort,catamaran,dinghy,dreamy,gradiation,lake+tahoe,lavender+skies,misty,morning,morning+yearning,quadzillanet,raparker,ron+a.+parker,rose+purple,sailboat,soothing,square+format,sunrise,tahoesunsets","S2CellId":"4763000000000000","result":3311,"accuracy":0.036350362,"title":"morning+yearning","description":"Now+playing%3A%0ABen+Harper+-+Both+Sides+of+the+Gun+%0A%3Ci%3E+%3Ca+href%3D%22http%3A%2F%2Fphobos.apple.com%2FWebObjects%2FMZStore.woa%2Fwa%2FviewAlbum%3FplaylistId%3D130012644%26s%3D143441%26i%3D130012802%22+rel%3D%22nofollow%22%3EMorning+Yearning%3C%2Fa%3E%3C%2Fi%3E++%28iTunes+Music+Store+Sample%29%0A%0AGeoTagged%21+%3Ca+href%3D%22http%3A%2F%2Fmaps.yuan.cc%2F%22+rel%3D%22nofollow%22%3Emaps.yuan.cc%2F%3C%2Fa%3E."}
{"id":265898520,"url":"http://farm1.staticflickr.com/101/265898520_e6507ee9d8.jpg","path":"619/85c/61985cba19e81b8ae0fb29fbe131836.jpg","date":"2006-10-08","year":2006,"month":10,"lon":-120.09662,"lat":38.9845,"tags":"alongthetrail,california,emerald+bay,geotag,hike,hiking,lake+tahoe,mikeonthetrail,nevadarambler,rubicon+trail,trail,usa","S2CellId":"54cd000000000000","result":6310,"accuracy":0.054344375,"title":"RubiconTrail-20061008-151926","description":"A+hike+on+the+Rubicon+Trail+and+Emerald+Bay+Lake+Tahoe"}
{"id":4036249774,"url":"http://farm3.staticflickr.com/2597/4036249774_80384d7585.jpg","path":"2ac/fd6/2acfd64958981b453aa44cb044f642b7.jpg","date":"2009-09-10","year":2009,"month":9,"lon":-120.31541,"lat":38.98351,"tags":"backpacking,ca,camping,desolation-wilderness,hiking,outdoors,spot,stanford,trip-leading","S2CellId":"876bec4000000000","result":7871,"accuracy":0.06108358,"title":"IMG_8635","description":"SPOT+2009%2C+Stanford+Pre-Orientation+Trips.+09%2F09%2F2009+-+09%2F14%2F2009.%0A%0AThe+first+day+of+backpacking%2C+in+Desolation+Wilderness+near+Lake+Tahoe."}
{"id":4876212152,"url":"http://farm5.staticflickr.com/4080/4876212152_c95c0ba8d3.jpg","path":"d2b/bf0/d2bbf012b08264ca1c7f1256f4408996.jpg","date":"2010-07-26","year":2010,"month":7,"lon":-120.008835,"lat":38.181915,"tags":"70-200mm+l,bokeh,california,canon,concordians,flower,john+morgan,pinecrest,stream","S2CellId":"47edc00000000000","result":4703,"accuracy":0.7509306,"title":"Daisies+by+the+stream","description":"Morning.+Some+daisies+by+a+stream+in+Pinecrest%2C+CA.+The+bokeh+effect+is+from+reflections+off+the+water+in+the+steam+behind+the+daisies.+I+liked+how+the+various+grasses+between+the+subject+and+the+stream+add+interest+to+the+bokeh.+This+is+SOOC%2C+no+tricks.%0A%0ADetails%3A+Handheld%2C+70-200mm+L%2C+manual+focus%2C+shot+wide+open+%28f4%29+to+maximize+bokeh"}
{"id":116674835,"url":"http://farm1.staticflickr.com/53/116674835_482dd95cd2.jpg","path":"e06/bd7/e06bd748c3b56466f9454211a4397f83.jpg","date":"2006-02-03","year":2006,"month":2,"lon":-120.84826,"lat":38.481056,"tags":"amador,brick,color,red,texture","S2CellId":"4712900000000000","result":3195,"accuracy":0.0036459402,"title":"100_4054.JPG","description":"some+bricks%2C+and+me+being+artistic"}
{"id":2353364670,"url":"http://farm3.staticflickr.com/2171/2353364670_f7ca56892d.jpg","path":"82d/5bc/82d5bcc6f83fad5618024a889deb466.jpg","date":"2008-03-22","year":2008,"month":3,"lon":-120.8427,"lat":38.039608,"tags":"2008,bicycle,california,copperopolis,race,racing,road","S2CellId":"1325f40000000000","result":999,"accuracy":0.04113312,"title":"Jeremy%2C+Cody%2C+etc"}
{"id":271864435,"url":"http://farm1.staticflickr.com/119/271864435_e4d5effcd3.jpg","path":"131/581/131581c2ed53a43e2924994e475e9a3.jpg","date":"2006-10-15","year":2006,"month":10,"lon":-120.003555,"lat":38.663345,"tags":"california,hike,hiking,mikeonthetrail,mokelumne,mokelumne+wilderness,nevadarambler,trail,usa,wilderness","S2CellId":"0d49c00000000000","result":409,"accuracy":0.057517316,"title":"RTP-20061015-115156","description":"Hike+into+the+Mokelumne+Wilderness+Area+-+Winnemucca+Lake%2C+Round+Top+Lake%2C+Round+Top+Peak"}
{"id":4035503889,"url":"http://farm3.staticflickr.com/2539/4035503889_afd4cf3eb1.jpg","path":"776/e39/776e39461116c0cdaf65aa6116d5a46.jpg","date":"2009-09-10","year":2009,"month":9,"lon":-120.31541,"lat":38.98351,"tags":"backpacking,ca,camping,desolation-wilderness,hiking,outdoors,spot,stanford,trip-leading","S2CellId":"80d9300000000000","result":7274,"accuracy":0.019653058,"title":"IMG_8657","description":"SPOT+2009%2C+Stanford+Pre-Orientation+Trips.+09%2F09%2F2009+-+09%2F14%2F2009.%0A%0AThe+first+day+of+backpacking%2C+in+Desolation+Wilderness+near+Lake+Tahoe."}
{"id":8159329438,"url":"http://farm9.staticflickr.com/8199/8159329438_0b3d4dfc3f.jpg","path":"66f/442/66f442b522bf6e097492935cab18f51.jpg","date":"2008-11-08","year":2008,"month":11,"lon":-120.10078,"lat":38.93658,"tags":"plants%2Fforest,times+of+day%2Fmoon,times+of+day%2Ftwilight,usa%2Fcalifornia%2Fcascade+lake","S2CellId":"5351f00000000000","result":6036,"accuracy":0.0616167,"title":"Moonrise+%28tribute+to+Caspar+David+Friedrich%29%3B+near+Cascade+Lake%2C+above+Lake+Tahoe%2C+California","description":"Caspar+David+Friedrich%2C+%22Two+Men+Contemplating+the+Moon%22+%3A+%3Ca+href%3D%22http%3A%2F%2Fwww.metmuseum.org%2Ftoah%2Fworks-of-art%2F2000.51%22+rel%3D%22nofollow%22%3Ewww.metmuseum.org%2Ftoah%2Fworks-of-art%2F2000.51%3C%2Fa%3E"}
{"id":4452230773,"url":"http://farm5.staticflickr.com/4060/4452230773_972db3da0b.jpg","path":"cb2/ffc/cb2ffcb292baffbca386cf44f64a34e.jpg","date":"2010-03-16","year":2010,"month":3,"lon":-120.08932,"lat":38.968952,"tags":"california,lake,tahoe","S2CellId":"8099700000000000","result":7111,"accuracy":0.6949456,"title":"Majestic+mountains%2C+a+crystalline+lake%2C+fresh+air%2C+trees%2C+what+more+could+you+really+ask+for%3F"}
{"id":4180168701,"url":"http://farm5.staticflickr.com/4010/4180168701_51af36c929.jpg","path":"7e3/73a/7e373a259978d438a73f06c77ffcef.jpg","date":"2009-12-08","year":2009,"month":12,"lon":-120.7554,"lat":38.726128,"tags":"2009,california,december,el+dorado+county,goldfinch,icicles,junco,placerville,snow,snow+storm,winter","S2CellId":"883c400000000000","result":8355,"accuracy":0.005987649,"title":"2009+1206+Home+Snow+13"}
{"id":4036237994,"url":"http://farm4.staticflickr.com/3014/4036237994_74b18c85d6.jpg","path":"5af/712/5af7126be5943fda5767f11ce1d25c15.jpg","date":"2009-09-10","year":2009,"month":9,"lon":-120.31541,"lat":38.98351,"tags":"backpacking,ca,camping,desolation-wilderness,hiking,outdoors,spot,stanford,trip-leading","S2CellId":"548ff00000000000","result":6177,"accuracy":0.13237187,"title":"IMG_8587","description":"SPOT+2009%2C+Stanford+Pre-Orientation+Trips.+09%2F09%2F2009+-+09%2F14%2F2009.%0A%0AThe+first+day+of+backpacking%2C+in+Desolation+Wilderness+near+Lake+Tahoe."}
{"id":4252232160,"url":"http://farm3.staticflickr.com/2738/4252232160_297a70f2ed.jpg","path":"5ad/41e/5ad41e3bb82e302c5778a5453427948.jpg","date":"2010-01-03","year":2010,"month":1,"lon":-120.80484,"lat":38.526783,"tags":"amador+county,amador+flower+farm,bokeh,bright,brown,california,close-up,dark,dirt,dreams,flower,glitter,green,january,leaves,light,nature,petals,picnik,pole,red,rock,shadow,stem,tan","S2CellId":"47edc00000000000","result":4703,"accuracy":0.32740673,"title":"Red+and+Green%2C+with+Bokeh+Gleams","description":"This+was+such+a+beautiful+red%2C+and+today%2C+I+wanted+to+share+bokeh+dreams+with+all+of+you.++May+you+find+your+dreams+this+year%2C+and+may+they+bring+you+joy+and+delight.++God+says+that+%22His+people+perish+without+a+vision%22.++We+all+need+to+have+a+vision+for+the+future%21++Hope+you+find+yours+this+year%21++God+bless+you%21"}
{"id":5087783854,"url":"http://farm5.staticflickr.com/4124/5087783854_bf634d6e8a.jpg","path":"51b/1a8/51b1a83bd21cfc93ddee95b712a97745.jpg","date":"2010-10-11","year":2010,"month":10,"lon":-120.00814,"lat":38.938545,"tags":"california,front+desk+clerk,like+glass,morning,pier,reflecting,ron+a.+parker,ron+parker,south+lake+tahoe,tahoe+keys,water","S2CellId":"479b100000000000","result":3807,"accuracy":0.36466095,"title":"pier+reflecting"}
{"id":3917060321,"url":"http://farm4.staticflickr.com/3457/3917060321_be9cf98d61.jpg","path":"c49/391/c493918ff99e3cb4a6a4818c7eb2aa.jpg","date":"2009-08-23","year":2009,"month":8,"lon":-120.55183,"lat":38.078182,"tags":"blue,close-up,flower,leaves,macro,petals,rose,soft,stem,yellow","S2CellId":"88d9300000000000","result":8584,"accuracy":0.0029695781,"title":"To+Fiona","description":"Come+and+dance+with+me%2C+my+pretty%2C+my+lass.%0AAs+we+step+upon+the+grass.++%0ACome+and+remember+with+me%2C+my+pretty%2C+my+lass%0AAs+we+go+to+where+we+met+last.%0ACome+and+know%2C+with+me%2C+my+pretty%2C+my+lass%0AThat+time+goes+so+fast.%0ACome+and+see+with+me%2C+my+pretty%2C+my+lass%0AThat+my+love+is+yours+to+the+last.%0A%0Aby+Laura+Ferreira+for+Fiona"}
{"id":2884140060,"url":"http://farm4.staticflickr.com/3261/2884140060_de42560156.jpg","path":"28d/645/28d64517256440cbf3ba3cf427266c40.jpg","date":"2008-09-20","year":2008,"month":9,"lon":-120.13069,"lat":38.907646,"tags":"dickspass,tahoe,tahoerimtrail","S2CellId":"54cd000000000000","result":6310,"accuracy":0.16256243,"title":"Tahoe+Rim+Trail"}
{"id":956982390,"url":"http://farm2.staticflickr.com/1022/956982390_1b566d8f00.jpg","path":"8c5/533/8c55332fa2b8ba84d248ebc4740da7a.jpg","date":"2007-07-28","year":2007,"month":7,"lon":-120.31632,"lat":38.98391,"tags":"camping,el+dorado+national+forest,loon+lake","S2CellId":"8099700000000000","result":7111,"accuracy":0.21074545,"title":"Loon+Lake"}
{"id":3432445471,"url":"http://farm4.staticflickr.com/3395/3432445471_582e255122.jpg","path":"bd2/bdc/bd2bdc18bf5999bf36b6e67adfa98375.jpg","date":"2009-04-11","year":2009,"month":4,"lon":-120.543755,"lat":38.006596,"tags":"flower,poppie,poppy,popy,white,white+poppy","S2CellId":"548f749000000000","result":6168,"accuracy":0.006198902,"title":"White+Poppy","description":"Here+another+photo+of+a+white+poppy.++It+was+rather+windy+today+so+they+didn%27t+open+up+all+the+way."}
{"id":4896423428,"url":"http://farm5.staticflickr.com/4134/4896423428_5d709f3b5b.jpg","path":"591/ac0/591ac021c7663ce5425fd550ea9aad.jpg","date":"2010-08-13","year":2010,"month":8,"lon":-120.084724,"lat":38.67882,"tags":"216+km+ne+of+san+jose,california,el+dorado+national+forest,lamiaceae,lamiales,magnoliophyta,magnoliopsida,monardella,monardella+glauca,pale+monardella,pink,plantae,roundcluster,united+states","S2CellId":"46f9000000000000","result":3115,"accuracy":0.02861626,"title":"Coyote+Perfume","description":"This+was+anotehr+moment+of+olfactory+interest.++I+believe+this+one%27s+%3Ci%3EMonardella+glauca%3C%2Fi%3E%2C+given+the+purple+bracts."}
{"id":271860161,"url":"http://farm1.staticflickr.com/91/271860161_6817ffe6bb.jpg","path":"408/8c2/4088c2b1ed6325a312b0ad2beaa4966.jpg","date":"2006-10-15","year":2006,"month":10,"lon":-120.00398,"lat":38.663445,"tags":"california,hike,hiking,mikeonthetrail,mokelumne,mokelumne+wilderness,nevadarambler,trail,usa,wilderness","S2CellId":"54bec00000000000","result":6298,"accuracy":0.14272566,"title":"RTP-20061015-114336","description":"Hike+into+the+Mokelumne+Wilderness+Area+-+Winnemucca+Lake%2C+Round+Top+Lake%2C+Round+Top+Peak"}
{"id":3742148342,"url":"http://farm3.staticflickr.com/2648/3742148342_cf7c66bb3b.jpg","path":"848/7c5/8487c5c6bf2be9fb7c9ea45b234225e6.jpg","date":"2009-07-19","year":2009,"month":7,"lon":-120.101,"lat":38.934834,"tags":"cascade+falls","S2CellId":"5353000000000000","result":6037,"accuracy":0.10161678,"title":"untitled"}
{"id":265897244,"url":"http://farm1.staticflickr.com/84/265897244_ef75ce403c.jpg","path":"bc2/c7b/bc2c7bb759f2ae8a71d66a4c3bdfbdd0.jpg","date":"2006-10-08","year":2006,"month":10,"lon":-120.09662,"lat":38.9845,"tags":"alongthetrail,california,emerald+bay,geotag,hike,hiking,lake+tahoe,mikeonthetrail,nevadarambler,rubicon+trail,trail,usa","S2CellId":"8099700000000000","result":7111,"accuracy":0.26239353,"title":"RubiconTrail-20061008-150114","description":"A+hike+on+the+Rubicon+Trail+and+Emerald+Bay+Lake+Tahoe"}
{"id":8005057267,"url":"http://farm9.staticflickr.com/8308/8005057267_8c94f5c56c.jpg","path":"a1f/519/a1f519c2652e7256fb904336939e1e.jpg","date":"2011-01-01","year":2011,"month":1,"lon":-120.14172,"lat":38.98314,"tags":"camping,desolation+wilderness","S2CellId":"8099900000000000","result":7112,"accuracy":0.1272188}
{"id":116674545,"url":"http://farm1.staticflickr.com/49/116674545_c1e8c1a028.jpg","path":"f61/46b/f6146bd73e66c1660e742c86c7fe5a.jpg","date":"2006-01-29","year":2006,"month":1,"lon":-120.66209,"lat":38.60272,"tags":"animal","S2CellId":"89d6c00000000000","result":9266,"accuracy":0.0031752405,"title":"100_4033.JPG","description":"Mo.++A+bird+that+loves+to+be+pet+like+a+cat"}
{"id":2881033971,"url":"http://farm3.staticflickr.com/2092/2881033971_79f7dfd595.jpg","path":"85b/aa6/85baa6be6bcc0be56c4aea9a0d63fa0.jpg","date":"2008-09-21","year":2008,"month":9,"lon":-120.1068,"lat":38.952286,"tags":"ca,california,california+state+park,castle,csp,emerald+bay,tahoe,vikingsholm","S2CellId":"46416d0000000000","result":2792,"accuracy":0.0604819,"title":"IMG_3460"}
{"id":4792149627,"url":"http://farm5.staticflickr.com/4082/4792149627_ca15bf87a5.jpg","path":"cc6/7da/cc67dab32ee31ca89ccc3c6dcba6e2.jpg","date":"2010-07-13","year":2010,"month":7,"lon":-120.68234,"lat":38.200012,"tags":"2010,calaveras+county,california,cemetery,gold+rush,july+13,san+andreas,san+andreas+2010+calaveras+county+california+july+13+san+andreas","S2CellId":"47e66d9000000000","result":4581,"accuracy":0.0980578,"title":"Calaveras+County+July+13+2010-22","description":"Random+photos+taken+in+San+Andreas%2C+California+on+July+13%2C+2010.%0A%0APhotos+taken+in+the+%22People%27s+Cemetary%22+in+downtown+San+Andreas%2C+California.+It+has+graves+dating+back+to+the+Gold+Rush%2C+which+started+about+40+miles+outside+of+the+town."}
{"id":199725466,"url":"http://farm1.staticflickr.com/65/199725466_f46f2a594c.jpg","path":"925/4aa/9254aa5e961140fe45eebe966e36e8fd.jpg","date":"2006-07-21","year":2006,"month":7,"lon":-120.10769,"lat":38.951065,"tags":"california,emerald+bay,tahoe,usa","S2CellId":"8099900000000000","result":7112,"accuracy":0.06903976,"title":"Emerald+Bay"}
{"id":5049305388,"url":"http://farm5.staticflickr.com/4141/5049305388_309c3c7e1e.jpg","path":"a23/f91/a23f91a756f6631397e1d1c9a28a4fe.jpg","date":"2009-08-10","year":2009,"month":8,"lon":-120.10045,"lat":38.953545,"tags":"2009,california,emerald+bay,lake+tahoe,safari+rose","S2CellId":"5351f00000000000","result":6036,"accuracy":0.068224706,"title":"Sierra+Rose+Boat+Cruise+Tahoe+254-2"}
{"id":875865803,"url":"http://farm2.staticflickr.com/1402/875865803_7f68c4a8fd.jpg","path":"234/f3a/234f3a776234b438db8114c4db1a2f91.jpg","date":"2007-07-22","year":2007,"month":7,"lon":-120.152,"lat":38.928356,"tags":"leg7,trt","S2CellId":"8099900000000000","result":7112,"accuracy":0.10274705,"title":"Upper+Velma+Lake"}
{"id":4825111547,"url":"http://farm5.staticflickr.com/4077/4825111547_1734884cbf.jpg","path":"d55/86d/d5586d3ffd97e84671d6614e234d1ee.jpg","date":"2010-07-23","year":2010,"month":7,"lon":-120.11042,"lat":38.954685,"tags":"raw","S2CellId":"8099900000000000","result":7112,"accuracy":0.8953,"title":"IMG_7485"}
{"id":3503862915,"url":"http://farm4.staticflickr.com/3348/3503862915_cbed21c21b.jpg","path":"8b6/1fc/8b61fced313fe29550e3472fe915265d.jpg","date":"2009-03-28","year":2009,"month":3,"lon":-120.89372,"lat":38.801876,"tags":"american+river,california+highway+49+early+spring+hwy+49+california+spring+mitch+lorens+highway+49+auburn+to+placerville","S2CellId":"54bec00000000000","result":6298,"accuracy":0.30315268,"title":"Blue+waters+of+the+river","description":"Along+California+Highway+49+between+Auburn+and+Placerville+-+March+2009."}
{"id":4073508645,"url":"http://farm3.staticflickr.com/2541/4073508645_79ddd4c0fe.jpg","path":"b33/47d/b3347d6b175c83954b4ba2079216a2d.jpg","date":"2009-09-13","year":2009,"month":9,"lon":-120.31541,"lat":38.98351,"tags":"backpacking,ca,camping,desolation-wilderness,hiking,outdoors,spot,stanford,trip-leading","S2CellId":"5240000000000000","result":5966,"accuracy":0.25016117,"title":"IMG_9073","description":"SPOT+2009%2C+Stanford+Pre-Orientation+Trips.+09%2F09%2F2009+-+09%2F14%2F2009.%0A%0AThe+fourth+day+of+backpacking%2C+in+Desolation+Wilderness+near+Lake+Tahoe."}
{"id":2165215970,"url":"http://farm3.staticflickr.com/2218/2165215970_401f0d5910.jpg","path":"65d/0e2/65d0e273bff9aed7992a57b1123dcbc4.jpg","date":"2008-01-01","year":2008,"month":1,"lon":-120.36782,"lat":38.246925,"tags":"clouds,silhouette,sun,trees","S2CellId":"809f000000000000","result":7130,"accuracy":0.011991135,"title":"Sunlight+over+clouds","description":"The+sun+is+peeking+over+some+clouds+between+some+trees+%28silhouetted%29"}
{"id":1396936954,"url":"http://farm2.staticflickr.com/1048/1396936954_aee220b843.jpg","path":"ddd/8fb/ddd8fbff2887a49568021d060989e7.jpg","date":"2007-09-16","year":2007,"month":9,"lon":-120.469635,"lat":38.067055,"tags":"cafifornia,cave,cave+diving,cavern,moaning+cavern,spelunking","S2CellId":"477b300000000000","result":3440,"accuracy":0.12806666,"title":"Moaning+Cavern"}
{"id":8698198785,"url":"http://farm9.staticflickr.com/8113/8698198785_0b15947b9b.jpg","path":"5dd/2c2/5dd2c2d7c498befd191443ffbe616ef1.jpg","date":"2013-01-23","year":2013,"month":1,"lon":-120.00778,"lat":38.938282,"tags":"bird,bird+watching,colaptes+auratus,nature,northern+california,northern+red-shafted+flicker,south+lake+tahoe,tree+branchs,wildlife","S2CellId":"88d0a631cabb5071","result":8563,"accuracy":0.04270973,"title":"wood+pecker+perch"}
{"id":9338564047,"url":"http://farm8.staticflickr.com/7369/9338564047_5cf7b13908.jpg","path":"efb/335/efb3359ccdc4cbbba886ed115e9ef8e0.jpg","date":"2013-07-21","year":2013,"month":7,"lon":-120.11967,"lat":38.814167,"tags":"desolation+wilderness,el+dorado,pyramid+creek,sierra+nevada","S2CellId":"8096fc0000000000","result":7103,"accuracy":0.08306746,"title":"IMG_6071","description":"A+visit+to+Horsetail+Falls+and+Pryamid+Creek+Trail"}
{"id":252101093,"url":"http://farm1.staticflickr.com/102/252101093_f3814a597e.jpg","path":"fc1/bd5/fc1bd5d4a0ce8ae4a819196b10877ebd.jpg","date":"2006-09-24","year":2006,"month":9,"lon":-120.62597,"lat":38.432198,"tags":"blackchasm,cave,helictite,stalactite","S2CellId":"4872100000000000","result":5075,"accuracy":0.054076813,"title":"Helictites+%26+Stalactites","description":"Inside+the+Black+Chasm"}
{"id":6101270091,"url":"http://farm7.staticflickr.com/6090/6101270091_6021d7f22f.jpg","path":"716/38b/71638b988361207033d7a2b072e18c83.jpg","date":"2011-08-31","year":2011,"month":8,"lon":-120.40073,"lat":38.034496,"tags":"49+gold+rush,ca,columbia,columbia+state+park,usa","S2CellId":"87c7000000000000","result":7980,"accuracy":0.040515874,"title":"The+Blacksmith%27s%2C+Columbia+State+Park"}
{"id":3879576299,"url":"http://farm4.staticflickr.com/3432/3879576299_2c83b901e3.jpg","path":"909/bee/909bee327d3aeb8bc39f1c828abf24b.jpg","date":"2009-08-02","year":2009,"month":8,"lon":-120.79835,"lat":38.743645,"tags":"california,california+history,canon5d,gold,gold+mine,gold+mining,hard+rock+mining,mine,mining,tourism","S2CellId":"86e5000000000000","result":7709,"accuracy":0.013749047,"title":"Rocks","description":"Hangtown%27s+Gold+Bug+Mine+Park+in+Placerville%2C+CA"}
{"id":6108350790,"url":"http://farm7.staticflickr.com/6088/6108350790_9cd146ff54.jpg","path":"ef2/3a2/ef23a2f10751a2be53b036b124e5.jpg","date":"2011-09-02","year":2011,"month":9,"lon":-120.08395,"lat":38.965813,"tags":"bask,better+than+a+picture,camping,freshwater,kayak,lake+tahoe,mountains,not+mine,on+the+beach,painting,sierras,talent,watercolor","S2CellId":"12afc00000000000","result":794,"accuracy":0.020712297,"title":"watercoloring","description":"not+mine.%0Apaddle+buddy+that+has+real+talent%0Acreated+in+about+40+minutes+while+sitting+on+a+beach%0Awith+materials+carried+in+a+kayak"}
{"id":9987923714,"url":"http://farm8.staticflickr.com/7407/9987923714_cc0356e54c.jpg","path":"b50/63c/b5063c7d7973d8428b6fe81564fdd9.jpg","date":"2013-09-28","year":2013,"month":9,"lon":-120.93055,"lat":38.63156,"tags":"28+september+2013,california,close-up,edited,fruit,garden,northern+california,persimmon,persimmon+tree,plants,ripening","S2CellId":"3d00000000000000","result":2580,"accuracy":0.065810494,"title":"Ripening+Persimmon","description":"Our+persimmon+on+our+small+persimmon+tree+is+starting+to+ripen%2C+going+by+the+color+it%27s+changing+into.+I+didn%27t+use+any+tonal+contrast+on+this+image+as+that+process+tends+to+make+smooth+gradients+not-so+smooth."}
{"id":5183883958,"url":"http://farm2.staticflickr.com/1001/5183883958_9baa577299.jpg","path":"7dd/b3b/7ddb3bdacd49349fde245dc0b5fdc072.jpg","date":"2009-08-08","year":2009,"month":8,"lon":-120.01091,"lat":38.66911,"tags":"backpacking,california,hiking,kirkwood,lakes,mikeonthetrail,mokelumne+wilderness+area,mountains,pacific+crest+trail,pct,tahoe+yosemite+trail,the+sisters,trail,tyt,united+states,usa","S2CellId":"8096400000000000","result":7093,"accuracy":0.13679956,"title":"TYT-PCT-J6_2009-08-08-130954","description":"Tahoe-Yosemite+Trail+%2F+Pacific+Crest+Trail+section+J6+North+loop++2009-08+%26+09.+Passing+The+Sisters+and+Round+Top+Lake"}
{"id":2467261082,"url":"http://farm3.staticflickr.com/2172/2467261082_52c57cd3d4.jpg","path":"bba/71a/bba71a66f7f30b8b13c13ebfe906c.jpg","date":"2008-04-15","year":2008,"month":4,"lon":-120.10089,"lat":38.961823,"tags":"california,travel,usa,vacation","S2CellId":"8099900000000000","result":7112,"accuracy":0.75062245,"title":"2008-04-14+++02+Emerald+Bay+-+31+Ethan+against+Lake+Tahoe+and+mountains"}
{"id":3667057746,"url":"http://farm4.staticflickr.com/3577/3667057746_83ba01d733.jpg","path":"6ee/df9/6eedf9fc7edb3f98daf086994b8d7db.jpg","date":"2009-06-27","year":2009,"month":6,"lon":-120.55183,"lat":38.078182,"tags":"close-up,design,details,flower,green,leaf,lily,macro,purple,red,stamen,white,yellow","S2CellId":"6d38b40000000000","result":6838,"accuracy":0.030905511,"title":"Beautiful+lily","description":"I+think+this+is+a+lily.++It+was+so+beautiful+and+I+am+glad+it+turned+out%21"}
{"id":8159397919,"url":"http://farm9.staticflickr.com/8199/8159397919_f487e7347d.jpg","path":"71b/2ad/71b2addf324ebaf96ba245f22b675b.jpg","date":"2012-07-29","year":2012,"month":7,"lon":-120.10203,"lat":38.935337,"tags":"lake%2Flake+tahoe,mountains%2Fsierra+nevada,plants%2Fforest,usa%2Fcalifornia%2Fcascade+lake","S2CellId":"8099900000000000","result":7112,"accuracy":0.7301316,"title":"Trees+above+Cascade+Lake+and+Lake+Tahoe%2C+California"}
{"id":6135224969,"url":"http://farm7.staticflickr.com/6172/6135224969_a9d733e660.jpg","path":"c6b/d84/c6bd84195c78d2f2383924edf8f4b9d.jpg","date":"2011-05-26","year":2011,"month":5,"lon":-120.09169,"lat":38.95823,"tags":"california,glacial,lake,nevada,snow,tahoe","S2CellId":"8099900000000000","result":7112,"accuracy":0.3334814,"title":"-","description":"Lake+Tahoe"}
{"id":4080475391,"url":"http://farm3.staticflickr.com/2750/4080475391_ab99578530.jpg","path":"649/218/649218c2728f35b550bde8025789.jpg","date":"2009-11-02","year":2009,"month":11,"lon":-120.92904,"lat":38.68381,"tags":"2009challenge,2009challenge314,fall,leaves","S2CellId":"4871740000000000","result":5039,"accuracy":0.023359267,"title":"Fall+Leaves","description":"Day+314+for+PhotoChallenge.org+subject%3A+Backlit."}
{"id":5185681022,"url":"http://farm5.staticflickr.com/4124/5185681022_a1a7efafba.jpg","path":"cfb/251/cfb2518a456e5481bd22da29b48e016.jpg","date":"2010-07-27","year":2010,"month":7,"lon":-120.0004,"lat":38.18959,"tags":"70-200mm+l,bird,blue,california,canon,jay,john+morgan,pinecrest,sierra,steller%27s+jay","S2CellId":"1950000000000000","result":1435,"accuracy":0.016834136,"title":"Steller%27s+Jay","description":"A+Steller%27s+Jay+sits+on+a+post+in+Pinecrest%2C+CA.+%0A%0ADetails%3A+Handheld%2C+crop"}
{"id":7677228046,"url":"http://farm8.staticflickr.com/7278/7677228046_f6065cd898.jpg","path":"c6f/9ca/c6f9ca1a57e555d7f3c7b758a3ce41e2.jpg","date":"2012-07-28","year":2012,"month":7,"lon":-120.031624,"lat":38.89628,"tags":"trees","S2CellId":"8096400000000000","result":7093,"accuracy":0.08217477,"title":"P1000698"}
{"id":3380448697,"url":"http://farm4.staticflickr.com/3658/3380448697_8cffda3bb5.jpg","path":"326/a2d/326a2d91abf163cb4cd27a60d59178e.jpg","date":"2009-03-23","year":2009,"month":3,"lon":-120.30283,"lat":38.280087,"tags":"arnold,big+trees,big+trees+state+park,calaveras+county,california,dogwood,north+grove,snow,winter","S2CellId":"89c258f100000000","result":8982,"accuracy":0.008848258,"title":"California+Dogwood+%28Cornus+californica%29+loaded+with+snow+over+a+creek+in+Big+Trees+State+Park%2C+California"}
{"id":5885024798,"url":"http://farm6.staticflickr.com/5149/5885024798_a948b57825.jpg","path":"cfa/4aa/cfa4aa9c116247297ca7237cb35dc.jpg","date":"2011-06-24","year":2011,"month":6,"lon":-120.76149,"lat":38.501488,"tags":"mitchell+family+reunion","S2CellId":"876c900000000000","result":7897,"accuracy":0.02329034,"title":"DSCN2859"}
{"id":5280616508,"url":"http://farm6.staticflickr.com/5167/5280616508_a2ee4ea927.jpg","path":"cca/5b5/cca5b5afde3dee1257a0c4d74b76162e.jpg","date":"2009-08-14","year":2009,"month":8,"lon":-120.05343,"lat":38.93574,"tags":"2009,california,lake+tahoe,taylor+creek","S2CellId":"80b4000000000000","result":7133,"accuracy":0.04545643,"title":"Drive+Lake+Tahoe+011"}
{"id":4035496805,"url":"http://farm3.staticflickr.com/2768/4035496805_a74194c859.jpg","path":"126/29b/12629b23e5343c6bb3b6bd24bced2ae6.jpg","date":"2009-09-10","year":2009,"month":9,"lon":-120.31541,"lat":38.98351,"tags":"backpacking,ca,camping,desolation-wilderness,hiking,outdoors,spot,stanford,trip-leading","S2CellId":"8769700000000000","result":7857,"accuracy":0.037480865,"title":"IMG_8625","description":"SPOT+2009%2C+Stanford+Pre-Orientation+Trips.+09%2F09%2F2009+-+09%2F14%2F2009.%0A%0AThe+first+day+of+backpacking%2C+in+Desolation+Wilderness+near+Lake+Tahoe."}
{"id":2833283158,"url":"http://farm4.staticflickr.com/3115/2833283158_40f58b0df3.jpg","path":"2e6/c65/2e6c658b7573ee278cf5379fec1c6d9.jpg","date":"2008-08-18","year":2008,"month":8,"lon":-120.11192,"lat":38.94444,"tags":"2008,august+2008,california,lake+tahoe,usa","S2CellId":"54c7000000000000","result":6307,"accuracy":0.3286126,"title":"IMG_0060"}
{"id":260515203,"url":"http://farm1.staticflickr.com/120/260515203_11b7efe903.jpg","path":"4cf/334/4cf33442851a614c26bbb2dc2f717e.jpg","date":"2006-10-04","year":2006,"month":10,"lon":-120.11553,"lat":38.89574,"tags":"burst,california,circle,clouds,diorama,gilbert,lake,minolta+5d,mountains,sierras,slr,sun,toddography","S2CellId":"5353000000000000","result":6037,"accuracy":0.17885353,"title":"Gilbert+Lake"}
{"id":2714623663,"url":"http://farm4.staticflickr.com/3122/2714623663_705a29effe.jpg","path":"117/44e/11744e89173a161c314542d7459fa92.jpg","date":"2008-07-23","year":2008,"month":7,"lon":-120.084045,"lat":38.97087,"tags":"d60,lake+tahoe,nikon","S2CellId":"8099900000000000","result":7112,"accuracy":0.18051657,"title":"DSC_0524","description":"2008+Lake+Tahoe+Vacation"}
{"id":6390378829,"url":"http://farm7.staticflickr.com/6227/6390378829_1df7ded673.jpg","path":"662/1cd/6621cddbadf9e8ddb55aef219b4a27ae.jpg","date":"2011-09-03","year":2011,"month":9,"lon":-120.02092,"lat":38.65955,"tags":"kirkwood","S2CellId":"3e8c000000000000","result":2626,"accuracy":0.14780578,"title":"Orobanche+corymbosa+%28flat+top+broom+rape%29","description":"Above+Fourth+of+July+Lake%2C+Carson+Wilderness%2C+Alpine+County%2C+California"}
{"id":716297867,"url":"http://farm2.staticflickr.com/1375/716297867_267237c2cb.jpg","path":"ac2/16c/ac216c5238773ca4ac68634eaf4c3.jpg","date":"2007-07-03","year":2007,"month":7,"lon":-120.06246,"lat":38.9412,"tags":"tahoe","S2CellId":"8099900000000000","result":7112,"accuracy":0.5755917,"title":"IMG_2217.JPG"}
{"id":988035979,"url":"http://farm2.staticflickr.com/1178/988035979_6296dd3f7a.jpg","path":"312/cea/312cea5edc1f4c38f15f5b4fa07f5e.jpg","date":"2007-07-28","year":2007,"month":7,"lon":-120.025444,"lat":38.85715,"tags":"bethany,simonelli,tahoe,toney,wedding","S2CellId":"876ac00000000000","result":7860,"accuracy":0.050141603,"title":"DSC_3952.JPG"}
{"id":6655088817,"url":"http://farm8.staticflickr.com/7018/6655088817_7025375dd9.jpg","path":"c5f/6f4/c5f6f46dbf7aa6bd3955ba2dec0effb.jpg","date":"2012-01-07","year":2012,"month":1,"lon":-120.54302,"lat":38.073532,"tags":"angels+camp,blue,christian,church,gold+rush,mother+lode,serbian","S2CellId":"6b2c000000000000","result":6729,"accuracy":0.0059363027,"title":"Serbian+Orthodox+Church","description":"Mark+Hall"}
{"id":2211863264,"url":"http://farm3.staticflickr.com/2102/2211863264_1ee7d4b7f5.jpg","path":"483/275/483275b6d15ad02271d4d578e55eae5d.jpg","date":"2008-01-03","year":2008,"month":1,"lon":-120.04,"lat":38.93833,"tags":"aac,camp+richardson,gigi4791,lake+tahoe","S2CellId":"8099700000000000","result":7111,"accuracy":0.049430076,"title":"Lake+Tahoe%2C+Camp+Richardson","description":"Lake+Tahoe%2C+Camp+Richardson"}
{"id":207650965,"url":"http://farm1.staticflickr.com/60/207650965_376f627397.jpg","path":"44e/fd2/44efd2fde6411503f838e579c232a88.jpg","date":"2006-08-04","year":2006,"month":8,"lon":-120.11015,"lat":38.954144,"tags":"2006,august,boat,california,emerald+bay,island,july,lake,lake+tahoe,small,tahoe,view,water","S2CellId":"8099900000000000","result":7112,"accuracy":0.6046767,"title":"IMG_3133"}
{"id":2696776166,"url":"http://farm4.staticflickr.com/3236/2696776166_91c29ca0da.jpg","path":"5ed/26e/5ed26e4110d6675f23d7dc6660d3efca.jpg","date":"2008-07-03","year":2008,"month":7,"lon":-120.05859,"lat":38.940166,"tags":"california,digital,james+marvin+phelps,jmp,lake,lake+tahoe,landscape,mandj98,mountain,mt+tallac,osprey,photography,prints,reflection,tahoe,tallac,taylor+creek,western,wilderness","S2CellId":"88d0a631cabb5071","result":8563,"accuracy":0.012427956,"title":"Osprey","description":"Perched+in+a+Jeffery+Pine.%0ASouth+Lake+Tahoe%2C+California"}
{"id":6995953113,"url":"http://farm8.staticflickr.com/7096/6995953113_8ff67fd605.jpg","path":"97e/43c/97e43c3a9a5c9f8a8961696aedd094.jpg","date":"2012-03-19","year":2012,"month":3,"lon":-120.14578,"lat":38.796684,"tags":"amaro,instagram+app,iphoneography,square,square+format","S2CellId":"80cf000000000000","result":7266,"accuracy":0.0067894273,"title":"Strawberry%2C+CA%3A+population+50."}
