{"id":3956558343,"url":"http://farm4.staticflickr.com/3434/3956558343_b4969de89c.jpg","path":"5f2/5f4/5f25f4aeeb3eae77447ce0b448c431ca.jpg","date":"2009-08-13","year":2009,"month":8,"lon":141.06413,"lat":38.369602,"tags":"japan,matsushima,monochrome,moon,shrine","S2CellId":"35f052f000000000","result":2371,"accuracy":0.11746233,"title":"edging"}
{"id":439179769,"url":"http://farm1.staticflickr.com/177/439179769_f24bea6a7d.jpg","path":"bfd/1ed/bfd1ed8824464f3dfa776d7b4723984.jpg","date":"2007-03-26","year":2007,"month":3,"lon":141.11835,"lat":38.331287,"tags":"boat,harbor,japan,matsushima,photo","S2CellId":"3551000000000000","result":2265,"accuracy":0.14980124,"title":"DSC01615","description":"Matsushima+Trip+with+the+Swedes%0D%0AMarch+26%2C+2007"}
{"id":6723534703,"url":"http://farm8.staticflickr.com/7003/6723534703_c207c81b50.jpg","path":"a62/f6d/a62f6dba0623cf518e7a61a2db6764.jpg","date":"2012-01-05","year":2012,"month":1,"lon":141.58441,"lat":38.913074,"tags":"%E5%AE%AE%E5%9F%8E%E7%9C%8C,%E6%B0%97%E4%BB%99%E6%B2%BC,3.11,japan,kesennuma,miyagi,tohoku,tsunami","S2CellId":"5f89000000000000","result":6360,"accuracy":0.13653909,"title":"kesennuma+-+10+months+on"}
{"id":1222420949,"url":"http://farm2.staticflickr.com/1246/1222420949_a7b7de609b.jpg","path":"d74/6f6/d746f62015a874c0a111ec1d14a0f.jpg","date":"2006-05-16","year":2006,"month":5,"lon":141.10497,"lat":38.385803,"tags":"sendai","S2CellId":"5490d00000000000","result":6226,"accuracy":0.0074029444,"title":"White+iris","description":"I%27d+really+appreciate+it+if+someone+could+tell+me+the+Japanese+name+of+this+flower..."}
{"id":3799740155,"url":"http://farm4.staticflickr.com/3543/3799740155_f3c7e88ccc.jpg","path":"b75/f89/b75f89c477db5a93821d18e96b1a182.jpg","date":"2009-07-19","year":2009,"month":7,"lon":141.3379,"lat":38.887424,"tags":"%E3%83%A2%E3%83%88%E3%82%AF%E3%83%AD%E3%82%B9,%E5%85%A8%E6%97%A5%E6%9C%AC,%E8%97%A4%E6%B2%A2%E3%82%B9%E3%83%9D%E3%83%BC%E3%83%84%E3%83%A9%E3%83%B3%E3%83%89,2009,all,all+japan+motocross,fmx,free+style+motocross,fujisawa,motocross,mx-vilus","S2CellId":"4724000000000000","result":3252,"accuracy":0.21338752,"title":"90719-148"}
{"id":7918057282,"url":"http://farm9.staticflickr.com/8313/7918057282_96fa4991ab.jpg","path":"e26/c62/e26c62b02f5c6d366f281de50cbe998.jpg","date":"2012-09-03","year":2012,"month":9,"lon":141.42749,"lat":38.29401,"tags":"hudson,instagram+app,iphoneography,square,square+format","S2CellId":"89c6300000000000","result":9136,"accuracy":0.0067965635,"title":"%E5%B7%A5%E4%BA%8B%E7%8F%BE%E5%A0%B4%E3%81%AB%E3%82%82%E3%81%AB%E3%82%83%E3%82%93%E3%81%93%E3%80%82+%23twtabi"}
{"id":7459570596,"url":"http://farm8.staticflickr.com/7140/7459570596_0e9c6baf06.jpg","path":"656/1dd/6561dd4185b9be51de73f0fdc83ed50.jpg","date":"2012-06-28","year":2012,"month":6,"lon":141.59409,"lat":38.399933,"tags":"%E5%A5%B3%E5%B7%9D,%E5%AE%AE%E5%9F%8E,%E6%B1%9F%E5%B3%B6,%E7%89%A1%E9%B9%BF%E9%83%A1,cat,japan,miyagi,onagawa,tidalwave,tsunami","S2CellId":"80deaa4000000000","result":7386,"accuracy":0.014550802,"title":"%E5%A5%B3%E5%B7%9D020"}
{"id":417117217,"url":"http://farm1.staticflickr.com/129/417117217_875739bd64.jpg","path":"568/ec1/568ec1bc7915edbbdcf25ceb79a344f.jpg","date":"2007-03-10","year":2007,"month":3,"lon":141.00917,"lat":38.308727,"tags":"japan,people,photo,shrine","S2CellId":"601fc00000000000","result":6559,"accuracy":0.25190598,"title":"DSC01055","description":"Shiogama+Jinja+Fire+Prevention+Festival-the+shrine-portable+shrine+ceremonies-taking+the+portable+shrine+DOWN+the+steep+steps+of+the+shrine%0D%0AMarch+10%2C+2007"}
{"id":8555350233,"url":"http://farm9.staticflickr.com/8095/8555350233_c3b4163844.jpg","path":"238/04e/23804ea8d7422537ae18aca0f18ca5.jpg","date":"2013-03-14","year":2013,"month":3,"lon":141.3017,"lat":38.420963,"tags":"instagram+app,iphoneography,square,square+format","S2CellId":"6022840000000000","result":6562,"accuracy":0.019612664,"title":"%E5%AE%9A%E7%82%B9%E8%A6%B3%E6%B8%AC%E3%80%82"}
{"id":3441174196,"url":"http://farm4.staticflickr.com/3353/3441174196_7cd9d13454.jpg","path":"4c9/f53/4c9f53d69a4acdc17dec051528ee015.jpg","date":"2009-02-14","year":2009,"month":2,"lon":141.09584,"lat":38.8416,"tags":"%E5%AE%AE%E5%9F%8E,%E6%97%A5%E6%9C%AC,%E6%9D%B1%E5%8C%97%E8%87%AA%E5%8B%95%E8%BB%8A%E9%81%93,%E6%9D%B1%E5%8C%97%E9%AB%98%E9%80%9F%E5%85%AC%E8%B7%AF,%E7%A7%8B%E7%94%B0,akita,japan,tohokuexpressway","S2CellId":"862c000000000000","result":7533,"accuracy":0.04393079,"title":"%E9%87%91%E6%88%90PA","description":"%E5%AE%9A%E4%BD%8D%E9%80%99%E5%80%8B%E4%BC%91%E6%81%AF%E7%AB%99%E7%9A%84%E6%99%82%E5%80%99%E7%99%BC%E7%94%9F%E5%BE%88%E5%A6%99%E7%9A%84%E4%BA%8B%0AGoogle+%E5%9C%B0%E7%90%83%E5%95%8F%E6%88%91%E8%A6%81%E5%AE%9A%E4%BD%8D%E4%B8%8A%E8%A1%8C%E7%9A%84%E4%BC%91%E6%81%AF%E7%AB%99%E9%82%84%E6%98%AF%E4%B8%8B%E8%A1%8C%EF%BC%8C%E6%88%91%E6%83%B3%EF%BC%8C%E5%BE%80%E5%8D%97%E8%B5%B0%E6%87%89%E8%A9%B2%E6%98%AF%E4%B8%8B%E8%A1%8C%E5%90%A7%0A%E7%B5%90%E6%9E%9C%E4%BB%96%E5%AE%9A%E4%BD%8D%E5%88%B0%E5%BE%80%E5%8C%97%E7%9A%84%EF%BC%8C%E5%8E%9F%E4%BE%86%E6%97%A5%E6%9C%AC%E4%BA%BA%E8%A6%81%E8%AA%AA%E5%8D%97%E4%B8%8A%E5%8C%97%E4%B8%8B%E5%96%94+XD"}
{"id":7704004024,"url":"http://farm8.staticflickr.com/7135/7704004024_8d3d8b7905.jpg","path":"131/850/1318507cc438face1bdd48753f13d169.jpg","date":"2012-08-01","year":2012,"month":8,"lon":141.31018,"lat":38.430965,"tags":"ishinomaki,japan,tsunami","S2CellId":"3551000000000000","result":2265,"accuracy":0.08228616,"title":"Ishinomaki+%2F+JP%2C+2012"}
{"id":8692913598,"url":"http://farm9.staticflickr.com/8258/8692913598_ebf7d2333b.jpg","path":"82b/983/82b983e12baa2120bf2032b958324acb.jpg","date":"2013-04-29","year":2013,"month":4,"lon":141.10724,"lat":38.988472,"tags":"photo+stream","S2CellId":"601f400000000000","result":6558,"accuracy":0.036025796,"title":"IMG_2690"}
{"id":12203327075,"url":"http://farm3.staticflickr.com/2807/12203327075_c7e8acdfdc.jpg","path":"d90/695/d906954a51b7664d1bde77eba7b9.jpg","date":"2014-01-29","year":2014,"month":1,"lon":141.02222,"lat":38.324577,"tags":"%E3%82%B4%E3%83%81%E3%83%9F%E3%83%AB,%E3%83%9D%E3%82%B1%E3%83%A2%E3%83%B3,%E3%83%9D%E3%82%B1%E3%83%A2%E3%83%B3%E3%82%AD%E3%83%83%E3%82%BA,%E5%93%A5%E5%BE%B7%E5%B0%8F%E7%AB%A5,%E5%A1%A9%E9%87%9C,%E5%AF%B5%E7%89%A9%E5%B0%8F%E7%B2%BE%E9%9D%88,%E7%A5%9E%E5%A5%87%E5%AF%B6%E8%B2%9D,%E9%B9%BD%E7%AB%88%E7%A5%9E%E7%A4%BE,%EA%B3%A0%EB%94%94%EB%B3%B4%EB%AF%B8,figure,gothorita,hypnomorba,mesm%C3%A9rella,pok%C3%A9mon,pokemon,pokemon+kids,shiogama,shiogama+shrine,toys","S2CellId":"6001094000000000","result":6403,"accuracy":0.12355793,"title":"Gothorita+in+Shiogama%2C+Miyagi+6+%28Shiogama+shrine%29"}
{"id":444740535,"url":"http://farm1.staticflickr.com/184/444740535_f0c18417e9.jpg","path":"bc9/364/bc9364531094124c94c6b96c60af15.jpg","date":"2007-03-26","year":2007,"month":3,"lon":141.11835,"lat":38.331287,"tags":"island,japan,photo","S2CellId":"4810100000000000","result":4787,"accuracy":0.19304149,"title":"DSC01781","description":"Matsushima+Trip+take+2+with+the+Swedes%0D%0AMarch+26%2C+2007"}
{"id":5746230981,"url":"http://farm6.staticflickr.com/5189/5746230981_304049193c.jpg","path":"863/c2d/863c2d7317f5c3813d9553121b1edb.jpg","date":"2011-05-22","year":2011,"month":5,"lon":141.58086,"lat":38.91539,"tags":"earthquake","S2CellId":"5f89000000000000","result":6360,"accuracy":0.9509993,"title":"CIMG0761.JPG"}
{"id":4270462548,"url":"http://farm3.staticflickr.com/2685/4270462548_c329a9da7c.jpg","path":"b19/b38/b19b38da721599f3af84e299cf2a3650.jpg","date":"2010-01-11","year":2010,"month":1,"lon":141.09467,"lat":38.374634,"tags":"bridge,honshu,matsushima,openmouth,thumbsup,travish","S2CellId":"463d400000000000","result":2781,"accuracy":0.04298772,"title":"IMG_6158"}
{"id":5758566173,"url":"http://farm4.staticflickr.com/3450/5758566173_29d4b1a662.jpg","path":"b36/a7b/b36a7b5f27c41816a1b7689f37d693ec.jpg","date":"2011-05-03","year":2011,"month":5,"lon":141.55533,"lat":38.717667,"tags":"%E6%9D%B1%E6%97%A5%E6%9C%AC%E5%A4%A7%E9%9C%87%E7%81%BD","S2CellId":"548ff00000000000","result":6177,"accuracy":0.04085116,"title":"IMG_4816"}
{"id":141803844,"url":"http://farm1.staticflickr.com/44/141803844_5bdc0b43bf.jpg","path":"65b/4d1/65b4d1da6cbeeb2232a05068faa5b91e.jpg","date":"2006-04-30","year":2006,"month":4,"lon":141.08453,"lat":38.375847,"tags":"japan,matsushima,miyagi,tohoku","S2CellId":"60013c0000000000","result":6413,"accuracy":0.13248996,"title":"Entsuin"}
{"id":2456116164,"url":"http://farm4.staticflickr.com/3048/2456116164_0ea96a8759.jpg","path":"df5/2c3/df52c3badac17372a8ade49cf35289.jpg","date":"2008-04-15","year":2008,"month":4,"lon":141.02995,"lat":38.350407,"tags":"canon+eos+20d,dslr,japan,matsushima,sakura","S2CellId":"5f89000000000000","result":6360,"accuracy":0.69681054,"title":"IMG_9353","description":"Saigyo+Modoshi+No+Matsu"}
{"id":417089676,"url":"http://farm1.staticflickr.com/174/417089676_627577ad28.jpg","path":"ccb/8bf/ccb8bf13a2cd28b7bd7896f867d693.jpg","date":"2007-03-10","year":2007,"month":3,"lon":141.00917,"lat":38.308727,"tags":"ceremony,japan,people,photo,shrine","S2CellId":"601fc00000000000","result":6559,"accuracy":0.21620405,"title":"DSC01016","description":"Shiogama+Jinja+Fire+Prevention+Festival-the+shrine-portable+shrine+ceremonies%0D%0AMarch+10%2C+2007"}
{"id":5756870337,"url":"http://farm4.staticflickr.com/3616/5756870337_6465a4b731.jpg","path":"526/22e/52622e327fe596e7c1939fa077d8a04b.jpg","date":"2011-05-23","year":2011,"month":5,"lon":141.45325,"lat":38.681637,"tags":"earthquake","S2CellId":"5f89000000000000","result":6360,"accuracy":0.9147175,"title":"CIMG0848.JPG"}
{"id":8225633495,"url":"http://farm9.staticflickr.com/8205/8225633495_ee5ac9fa4f.jpg","path":"c71/f6e/c71f6ee475894a9bad0ae5cc27d9693.jpg","date":"2012-11-24","year":2012,"month":11,"lon":141.07195,"lat":38.996174,"tags":"raw","S2CellId":"3468840000000000","result":2159,"accuracy":0.016348748,"title":"%E4%B8%AD%E5%B0%8A%E5%AF%BA%E5%89%8D"}
{"id":6058614753,"url":"http://farm7.staticflickr.com/6074/6058614753_2107504050.jpg","path":"aac/ed3/aaced3711885ab51f64fbbef4e92de3.jpg","date":"2011-08-18","year":2011,"month":8,"lon":141.3037,"lat":38.43424,"tags":"eye-fi","S2CellId":"808f7fd000000000","result":7036,"accuracy":0.016149482,"title":"CIMG1113.JPG","description":"%3Ca+href%3D%22http%3A%2F%2Fwww.eyefi.co.jp%22+rel%3D%22nofollow%22%3EEye-Fi%3C%2Fa%3E%E3%81%8B%E3%82%89%E3%82%A2%E3%83%83%E3%83%97%E3%83%AD%E3%83%BC%E3%83%89%E3%81%95%E3%82%8C%E3%81%BE%E3%81%97%E3%81%9F"}
{"id":5921356296,"url":"http://farm7.staticflickr.com/6018/5921356296_cd75931572.jpg","path":"e21/794/e2179491ff1976fd12d157e061a1767c.jpg","date":"2011-07-04","year":2011,"month":7,"lon":141.45996,"lat":38.35162,"tags":"disaster,ishinomaki,miyagi,peace+boat,tohoku,volunteer","S2CellId":"548ec00000000000","result":6159,"accuracy":0.029007962,"title":"7%2F4+Koami+Kurahama"}
{"id":4103473926,"url":"http://farm3.staticflickr.com/2665/4103473926_5c01fe863e.jpg","path":"3ce/471/3ce471f160ef23123c53254d801f9035.jpg","date":"2009-11-12","year":2009,"month":11,"lon":141.04735,"lat":38.944187,"tags":"%E5%8E%B3%E7%BE%8E%E6%B8%93,%E5%B2%A9%E6%89%8B,%E5%B9%B3%E6%B3%89,hiraizumi,iwate","S2CellId":"601fc00000000000","result":6559,"accuracy":0.01875315,"title":"P1020899"}
{"id":5333436036,"url":"http://farm6.staticflickr.com/5123/5333436036_260a381c21.jpg","path":"3d5/8f0/3d58f0ae7754f2cca2e05d9ce9f1cdc7.jpg","date":"2010-10-29","year":2010,"month":10,"lon":141.25037,"lat":38.989304,"tags":"%E7%8C%8A%E9%BC%BB%E6%BA%AA","S2CellId":"5361000000000000","result":6041,"accuracy":0.02584166,"title":"20101029_862"}
{"id":4101790421,"url":"http://farm3.staticflickr.com/2546/4101790421_ce1690a9e1.jpg","path":"545/e6a/545e6a66bc1f7b4f60c55ddf62d99afc.jpg","date":"2008-03-19","year":2008,"month":3,"lon":141.05748,"lat":38.3658,"tags":"%E5%AE%AE%E5%9F%8E,%E6%97%A5%E6%9C%AC,%E6%9D%BE%E5%B3%B6,18-200vr,d40,japan,matsushima,miyagi,nikon","S2CellId":"33ab000000000000","result":1941,"accuracy":0.0053764884,"title":"%E6%9D%BE%E5%B3%B6%E6%B5%B7%E5%B2%B8","description":"Matsushima%2C+Miyagi+Pref.%2C+Japan"}
{"id":2384242325,"url":"http://farm3.staticflickr.com/2122/2384242325_49d8c63d7f.jpg","path":"4c5/225/4c522599af183c40111994fdf398a3b.jpg","date":"2008-04-02","year":2008,"month":4,"lon":141.05586,"lat":38.356598,"tags":"%E6%89%87%E8%B0%B7%E5%B1%B1%E3%80%80%E5%B9%BD%E8%A6%B3,%E6%97%A5%E6%9C%AC%E3%80%80%E5%AE%AE%E5%9F%8E%E3%80%80%E6%9D%BE%E5%B3%B6,japan,matsushima,miyagi,ougidaniyama","S2CellId":"6001094000000000","result":6403,"accuracy":0.021485573,"title":"oogidaniyama080402_002"}
{"id":5333423934,"url":"http://farm6.staticflickr.com/5164/5333423934_238fc4378e.jpg","path":"a6b/184/a6b1849c76976a4162b41ac469424a3.jpg","date":"2010-10-29","year":2010,"month":10,"lon":141.25037,"lat":38.989304,"tags":"%E7%8C%8A%E9%BC%BB%E6%BA%AA","S2CellId":"3051c00000000000","result":1610,"accuracy":0.1408902,"title":"20101029_795"}
{"id":6693812113,"url":"http://farm8.staticflickr.com/7004/6693812113_75647d59be.jpg","path":"45f/390/45f39011e3a7ad55926d5d74e826b2b.jpg","date":"2011-08-22","year":2011,"month":8,"lon":141.58441,"lat":38.913074,"tags":"%E5%AE%AE%E5%9F%8E%E7%9C%8C,%E6%B0%97%E4%BB%99%E6%B2%BC,3.11,japan,kesennuma,miyagi,tohoku,tsunami","S2CellId":"6019900000000000","result":6547,"accuracy":0.03373215,"title":"kesennuma+-+5+months+on"}
{"id":7940796494,"url":"http://farm9.staticflickr.com/8437/7940796494_1647f5e0f2.jpg","path":"ca9/117/ca91178b782e68906f91a347526c2dbd.jpg","date":"2012-08-02","year":2012,"month":8,"lon":141.00804,"lat":38.274776,"tags":"%E4%BB%99%E5%8F%B0,%E5%A4%8F,adobe+lightroom,contemporary,landscape,leica+m9,m-hexanon+50mm+f2,rangefinder,raw,sendai,snapshot,summer,tohoku","S2CellId":"8811d00000000000","result":8177,"accuracy":0.060713854,"title":"1006406","description":"%E4%BB%99%E5%8F%B0%E6%B8%AF%0AM-Hexanon+50mm+F2"}
{"id":5333437374,"url":"http://farm6.staticflickr.com/5043/5333437374_58eb26b339.jpg","path":"325/289/325289c134bf162eea90c86399b431a.jpg","date":"2010-10-29","year":2010,"month":10,"lon":141.25037,"lat":38.989304,"tags":"%E7%8C%8A%E9%BC%BB%E6%BA%AA","S2CellId":"5f70000000000000","result":6358,"accuracy":0.012750274,"title":"20101029_869"}
{"id":5332826239,"url":"http://farm6.staticflickr.com/5050/5332826239_d4b6ca601a.jpg","path":"4e8/798/4e8798bbd9eedd81d72b50f4d42a1ee8.jpg","date":"2010-10-29","year":2010,"month":10,"lon":141.25037,"lat":38.989304,"tags":"%E7%8C%8A%E9%BC%BB%E6%BA%AA","S2CellId":"88d0a631cabb5071","result":8563,"accuracy":0.00460165,"title":"20101029_892"}
{"id":5332794409,"url":"http://farm6.staticflickr.com/5283/5332794409_ff3dbdb94f.jpg","path":"52c/1c5/52c1c59ba5963f9614acaf4e9383e23.jpg","date":"2010-10-29","year":2010,"month":10,"lon":141.25037,"lat":38.989304,"tags":"%E7%8C%8A%E9%BC%BB%E6%BA%AA","S2CellId":"6001ab0000000000","result":6419,"accuracy":0.0167062,"title":"20101029_718"}
{"id":6058618711,"url":"http://farm7.staticflickr.com/6185/6058618711_6ab1b7c5c1.jpg","path":"3d0/4ef/3d04ef3a4f36b6bd53f85d49afae33f.jpg","date":"2011-08-18","year":2011,"month":8,"lon":141.30397,"lat":38.434223,"tags":"eye-fi","S2CellId":"487e770000000000","result":5651,"accuracy":0.014823516,"title":"CIMG1115.JPG","description":"%3Ca+href%3D%22http%3A%2F%2Fwww.eyefi.co.jp%22+rel%3D%22nofollow%22%3EEye-Fi%3C%2Fa%3E%E3%81%8B%E3%82%89%E3%82%A2%E3%83%83%E3%83%97%E3%83%AD%E3%83%BC%E3%83%89%E3%81%95%E3%82%8C%E3%81%BE%E3%81%97%E3%81%9F"}
{"id":440685270,"url":"http://farm1.staticflickr.com/180/440685270_c683ed16dc.jpg","path":"947/6a9/9476a91c5343976a2dc39a04ad2ea.jpg","date":"2007-03-26","year":2007,"month":3,"lon":141.11835,"lat":38.331287,"tags":"bridge,japan,matsushima,photo","S2CellId":"4810100000000000","result":4787,"accuracy":0.029443586,"title":"DSC01737","description":"Matsushima+Trip+with+the+Swedes%0D%0AMarch+26%2C+2007"}
{"id":9240193702,"url":"http://farm4.staticflickr.com/3718/9240193702_cffb42bcb1.jpg","path":"396/2fb/3962fbb4a82a735a203b4fde8670bba5.jpg","date":"2013-07-06","year":2013,"month":7,"lon":141.10123,"lat":38.98949,"tags":"2013,d800,hiraizumi%E5%B9%B3%E6%B3%89,japan%E6%97%A5%E6%9C%AC,nikkor%E5%B0%BC%E5%85%8B%E5%B0%9424mm-70mmf2.8,nikon%E5%B0%BC%E5%BA%B7","S2CellId":"47e6d00000000000","result":4688,"accuracy":0.070061155,"title":"_DSC3823"}
{"id":300512885,"url":"http://farm1.staticflickr.com/111/300512885_34ea0269cd.jpg","path":"c16/602/c166020a0c4ec35a1d8d8bb6b7314c.jpg","date":"2006-11-12","year":2006,"month":11,"lon":141.11835,"lat":38.331287,"tags":"island,japan,matsushima,photo","S2CellId":"6d74000000000000","result":6855,"accuracy":0.22249882,"title":"IMG_7214","description":"Matsushima+Trip%0D%0ANovember+12%2C+2006"}
{"id":5758420467,"url":"http://farm4.staticflickr.com/3391/5758420467_003658ec51.jpg","path":"44e/d72/44ed72f266f6d4f95f34214a1ae850.jpg","date":"2011-04-16","year":2011,"month":4,"lon":141.32634,"lat":38.413334,"tags":"%E6%9D%B1%E6%97%A5%E6%9C%AC%E5%A4%A7%E9%9C%87%E7%81%BD","S2CellId":"5f89000000000000","result":6360,"accuracy":0.86410725,"title":"IMG_4523"}
{"id":439217012,"url":"http://farm1.staticflickr.com/180/439217012_1414a2dc6e.jpg","path":"e29/75f/e2975fe181ae76fdcacdbcde12e39d26.jpg","date":"2007-03-26","year":2007,"month":3,"lon":141.11835,"lat":38.331287,"tags":"bridge,harbor,japan,matsushima,photo","S2CellId":"5f89000000000000","result":6360,"accuracy":0.23824504,"title":"DSC01652","description":"Matsushima+Trip+with+the+Swedes%0D%0AMarch+26%2C+2007"}
{"id":3656942132,"url":"http://farm4.staticflickr.com/3395/3656942132_e2f224af49.jpg","path":"558/34d/55834d2bb66b4e5c26468e1914db7d6.jpg","date":"2009-06-09","year":2009,"month":6,"lon":141.05775,"lat":38.372078,"tags":"%E7%B7%91,%E9%AB%98%E7%94%BB%E8%B3%AA,%E9%AB%98%E7%B2%BE%E7%B4%B0,5d,green,hi,hi-res,high,leaf,mark+ii,res,resolution","S2CellId":"883cf00000000000","result":8371,"accuracy":0.0059157247,"title":"Green+%2F+%E7%B7%91%28%E3%81%BF%E3%81%A9%E3%82%8A%29","description":"Entsuu-in%28temple%29%2C+Miyagi-gun%28county%29+Miyagi-ken%28Prefecture%29%2C+Japan%0A%0A%3Ca+href%3D%22http%3A%2F%2Fwww.entuuin.or.jp%2F%22+rel%3D%22nofollow%22%3E%E5%AE%AE%E5%9F%8E%E7%9C%8C%E5%AE%AE%E5%9F%8E%E9%83%A1+%E5%86%86%E9%80%9A%E9%99%A2%28%E3%81%88%E3%82%93%E3%81%A4%E3%81%86%E3%81%84%E3%82%93%29%3C%2Fa%3E"}
{"id":6562025867,"url":"http://farm8.staticflickr.com/7017/6562025867_5019cbd1a4.jpg","path":"b41/613/b4161333495af0744686a3eeb58c5481.jpg","date":"2010-12-16","year":2010,"month":12,"lon":141.07613,"lat":38.72409,"tags":"izunuma,japan,miyagi","S2CellId":"4810100000000000","result":4787,"accuracy":0.02930574,"title":"morning+flight"}
{"id":5746950662,"url":"http://farm6.staticflickr.com/5305/5746950662_33b002f26a.jpg","path":"99d/c74/99dc7443fb3d7d66e97b299f80b61c74.jpg","date":"2011-05-22","year":2011,"month":5,"lon":141.58095,"lat":38.915592,"tags":"earthquake","S2CellId":"5f89000000000000","result":6360,"accuracy":0.7416381,"title":"CIMG0782.JPG"}
{"id":7002271259,"url":"http://farm8.staticflickr.com/7056/7002271259_93a9207f3c.jpg","path":"ff3/40d/ff340d71d3832d7c23dcda1831d0af.jpg","date":"2011-10-24","year":2011,"month":10,"lon":141.58066,"lat":38.91665,"tags":"earthquake","S2CellId":"5f89000000000000","result":6360,"accuracy":0.67433023,"title":"CIMG1275.JPG"}
{"id":9601563784,"url":"http://farm8.staticflickr.com/7295/9601563784_59ec062ce7.jpg","path":"33f/54b/33f54b34dd907c4ddb4d8cb72a1e743.jpg","date":"2013-08-26","year":2013,"month":8,"lon":141.44154,"lat":38.444355,"tags":"2013,green,hills,japan,japan+2013,nature,onagawa,plants,trees,woods","S2CellId":"5494c00000000000","result":6235,"accuracy":0.042275123,"title":"Forest+walk%2C+Onagawa%2C+Japan"}
{"id":4569392581,"url":"http://farm5.staticflickr.com/4002/4569392581_667afb62e7.jpg","path":"e58/a2e/e58a2e26428df74f3a39664aa918.jpg","date":"2010-04-10","year":2010,"month":4,"lon":141.07579,"lat":38.35432,"tags":"japan,matsushima,tohoku","S2CellId":"487f500000000000","result":5668,"accuracy":0.016670575,"title":"Seagulls+of+Matsushima+%E6%9D%BE%E5%B3%B6","description":"Seagulls+of+Matsushima+%E6%9D%BE%E5%B3%B6"}
{"id":4270463082,"url":"http://farm5.staticflickr.com/4063/4270463082_7701fa0be1.jpg","path":"7f6/293/7f6293296b4c4a450da3f02a76c4c.jpg","date":"2010-01-11","year":2010,"month":1,"lon":141.09467,"lat":38.374634,"tags":"honshu,matsushima,peace,pose,travish","S2CellId":"9615000000000000","result":9866,"accuracy":0.088664725,"title":"IMG_6176"}
{"id":1292919279,"url":"http://farm2.staticflickr.com/1137/1292919279_4b4476a95b.jpg","path":"cd9/d50/cd9d504d7234335320dc37df5e95d18.jpg","date":"2007-08-25","year":2007,"month":8,"lon":141.01244,"lat":38.311085,"tags":"d80,japan,nikon,sendai,shiogama,shrine,tohoku","S2CellId":"6018450000000000","result":6446,"accuracy":0.04199782,"title":"Shiogama+Shrine%2C+Japan","description":"If+you+know+what+these+are%2C+please+let+me+know."}
{"id":5536860669,"url":"http://farm6.staticflickr.com/5216/5536860669_a6d0d1aea0.jpg","path":"420/e82/420e82e6bcb55c3bca79d3a11f8bdc9.jpg","date":"2011-03-18","year":2011,"month":3,"lon":141.57428,"lat":38.89945,"tags":"20110311,earthquake,japan,tsunami","S2CellId":"487ad40000000000","result":5530,"accuracy":0.06714949,"title":"20110318+Kesennuma%2CMiyagi%2CJapan","description":"This+photo+is+taken+by+KiyomuTomita.%0ATwitter%3A+%40KiyomuTomita%0Atomphoto.dotera.net%2F%0A%0AOriginal+URL%3A+twitpic.com%2F4an8kx%0AUploaded+by+Koji+Naka+%28Twitter%3A+%40kojinaka%29"}
