{"id":11773179856,"url":"http://farm4.staticflickr.com/3667/11773179856_462c9f2fe6.jpg","path":"437/bcc/437bcc787a745cba47666b1d2e4e9abc.jpg","date":"2013-12-17","year":2013,"month":12,"lon":94.867584,"lat":21.170946,"tags":"%E2%80%9Cadventure,%E2%80%9Colympus,%E2%80%9Cpaul,2013,arps,arps%E2%80%9D,asia,azi%C3%AB,bagan,birma,buddhism,culture,cultuur,e-pl%E2%80%9D,flickr,myanmar,nature,natuur,pagodas,paularps,reizen,temples,travel,travel%E2%80%9D","S2CellId":"30b0000000000000","result":1619,"accuracy":0.8812374,"title":"Balloons+over+Bagan+%28Myanmar+2013%29","description":"OLYMPUS+DIGITAL+CAMERA"}
{"id":379724882,"url":"http://farm1.staticflickr.com/157/379724882_72fe821d7d.jpg","path":"ccd/6f8/ccd6f833adc3b3b2b48637956e4f651.jpg","date":"2006-12-27","year":2006,"month":12,"lon":94.88342,"lat":21.18057,"tags":"bagan,burma,myanmar,pagan","S2CellId":"30e2740000000000","result":1651,"accuracy":0.21153128,"title":"Small+Melvin","description":"View+from+above+-+On+top+of+one+of+the+payas+in+Bagan."}
{"id":8409904560,"url":"http://farm9.staticflickr.com/8232/8409904560_0b93b92435.jpg","path":"cd6/ef6/cd6ef6cb1eb8774a55599cdb7a87542a.jpg","date":"2013-01-06","year":2013,"month":1,"lon":94.85252,"lat":21.158958,"tags":"bagan,boat,buddhist,dusk,fisherman,hills,irrawaddy,peaceful,river,temple","S2CellId":"144c000000000000","result":1197,"accuracy":0.26682767,"title":"Temple+on+the+Irrawaddy"}
{"id":8974187927,"url":"http://farm4.staticflickr.com/3743/8974187927_d7636e05f6.jpg","path":"e7f/a9c/e7fa9cf95bc2ed425ac951ef79c3a942.jpg","date":"2012-08-26","year":2012,"month":8,"lon":94.88949,"lat":21.15793,"tags":"bagan,burma,myanmar","S2CellId":"30b0000000000000","result":1619,"accuracy":0.3721004,"title":"P1050453"}
{"id":8645580119,"url":"http://farm9.staticflickr.com/8391/8645580119_cfdeb14099.jpg","path":"8dc/335/8dc335e854a30ef976d4cfdbf1a7cc.jpg","date":"2013-02-13","year":2013,"month":2,"lon":94.893814,"lat":21.185736,"tags":"bagan,burma,gubyaukgyi+temple+%28wetkyi-in%29,myanmar,wetkyi-in+gubyaukgyi","S2CellId":"30e2740000000000","result":1651,"accuracy":0.13978526,"title":"Gubyaukgyi+Temple+%28Wetkyi-in%29"}
{"id":8401178801,"url":"http://farm9.staticflickr.com/8090/8401178801_e113a697cc.jpg","path":"df8/9b3/df89b39620de703eb9935cc338ee6b7.jpg","date":"2013-01-05","year":2013,"month":1,"lon":94.888054,"lat":21.189693,"tags":"bagan,buddhism,burmese,crouching,loongi,plains,shwesandaw+paya,temples,thinking","S2CellId":"398c000000000000","result":2482,"accuracy":0.109835394,"title":"Thinking+on+His+Haunches"}
{"id":8511533129,"url":"http://farm9.staticflickr.com/8392/8511533129_a068a67417.jpg","path":"424/df4/424df4edcd45212a877a1c7e287de3.jpg","date":"2013-02-18","year":2013,"month":2,"lon":94.881226,"lat":21.187292,"tags":"%E7%B7%AC%E7%94%B8,%E8%92%B2%E7%94%98,bagan,buddha,burma,hand,myanmar,pagan,temple+795","S2CellId":"3afc000000000000","result":2528,"accuracy":0.6655003,"title":"Hand+on+Hand"}
{"id":8411089156,"url":"http://farm9.staticflickr.com/8367/8411089156_ed0db44d68.jpg","path":"dd6/f23/dd6f2311f566ea5a43a355910d166c0.jpg","date":"2013-01-06","year":2013,"month":1,"lon":94.85252,"lat":21.158958,"tags":"bagan,beauty,irrawaddy,mc,river,sandy,sunset","S2CellId":"30cc000000000000","result":1621,"accuracy":0.106584884,"title":"On+the+Irrawaddy"}
{"id":12673402073,"url":"http://farm6.staticflickr.com/5508/12673402073_19e1e9107b.jpg","path":"83e/a8f/83ea8fccae885d71b023eb117762b6f.jpg","date":"2014-02-05","year":2014,"month":2,"lon":94.85329,"lat":21.150908,"tags":"mandalay,mmr,myanmar","S2CellId":"1453000000000000","result":1198,"accuracy":0.059267584,"title":"Bagan+Sunset"}
{"id":903238666,"url":"http://farm2.staticflickr.com/1151/903238666_8cff452599.jpg","path":"5f2/127/5f212754f314a5d2f72e2d63add5e9.jpg","date":"2007-07-26","year":2007,"month":7,"lon":94.88548,"lat":21.15992,"tags":"asia,bagan,buddhist,burma,myanmar,pagan,pagodas,temples","S2CellId":"132f61b700000000","result":1108,"accuracy":0.027541082,"title":"Windows","description":"Dhammayangyi+pagoda%2C+Bagan%2C+Myanmar"}
{"id":8973829009,"url":"http://farm6.staticflickr.com/5327/8973829009_4a99694fa6.jpg","path":"462/3cc/4623cc5d613758f66dcd133ef52893c0.jpg","date":"2012-08-25","year":2012,"month":8,"lon":94.86616,"lat":21.16386,"tags":"bagan,burma,myanmar","S2CellId":"30b0000000000000","result":1619,"accuracy":0.20524906,"title":"P1050336"}
{"id":8295917883,"url":"http://farm9.staticflickr.com/8351/8295917883_2b64e06c1f.jpg","path":"3b7/34d/3b734da5fafee96aba91cbefff5396a.jpg","date":"2012-12-22","year":2012,"month":12,"lon":94.90058,"lat":21.17355,"tags":"instagram+app,iphoneography,square,square+format","S2CellId":"30b0000000000000","result":1619,"accuracy":0.7799116,"title":"Stunning+sunset+over+the+temples+of+Bagan%2C+Myanmar%21"}
{"id":8594774932,"url":"http://farm9.staticflickr.com/8240/8594774932_52a08c936b.jpg","path":"798/610/798610296e4adbbc3213e0eaee9858a.jpg","date":"2013-03-12","year":2013,"month":3,"lon":94.8505,"lat":21.119894,"tags":"bagan+christopher+michel,christopher+michel,myanmar","S2CellId":"30b0000000000000","result":1619,"accuracy":0.1624702,"title":"Dream+of+Myanmar"}
{"id":8052953809,"url":"http://farm9.staticflickr.com/8318/8052953809_957e60fe2e.jpg","path":"613/8f4/6138f482867326e721669aa1ee78b32c.jpg","date":"2011-11-26","year":2011,"month":11,"lon":94.880775,"lat":21.177542,"tags":"alopyi+group,bagan,balloons+over+bagan,bob,burma,hot+air+balloon,mandalay,mmr,myanmar,pagan","S2CellId":"30b0000000000000","result":1619,"accuracy":0.29639205,"title":"Alopyi+group","description":"Alopyi+group"}
{"id":12583200964,"url":"http://farm6.staticflickr.com/5521/12583200964_f6bb9286cd.jpg","path":"8b9/faa/8b9faab94f29109cdb3ce607d6b88af.jpg","date":"2014-02-03","year":2014,"month":2,"lon":94.865974,"lat":21.163567,"tags":"mandalay,mmr,myanmar","S2CellId":"5371740000000000","result":6053,"accuracy":0.07313161,"title":"Bagan"}
{"id":12585276535,"url":"http://farm6.staticflickr.com/5546/12585276535_87fa2fdfb7.jpg","path":"e36/e5c/e36e5caca9b31a8a399b3792c5d50.jpg","date":"2014-02-04","year":2014,"month":2,"lon":94.85923,"lat":21.132483,"tags":"mandalay+region,myanmar+%28burma%29,new+bagan","S2CellId":"30b0000000000000","result":1619,"accuracy":0.96989304,"title":"Balloons+Over+Bagan"}
{"id":373737394,"url":"http://farm1.staticflickr.com/125/373737394_61795936d1.jpg","path":"385/31e/38531e7526947d44b93b812ce6cd30.jpg","date":"2007-01-07","year":2007,"month":1,"lon":94.88205,"lat":21.191935,"tags":"bagan,burma,myanmar","S2CellId":"14cab9bf00000000","result":1317,"accuracy":0.13939494,"title":"Bagan"}
{"id":6632883705,"url":"http://farm8.staticflickr.com/7169/6632883705_2ab2504fbc.jpg","path":"bbb/fa8/bbbfa8fd42e3ab1869c367b5e59d15.jpg","date":"2011-12-23","year":2011,"month":12,"lon":94.85155,"lat":21.175768,"tags":"2011_burma_trip,bagan,burma,december_2011,december_23_2011","S2CellId":"398c000000000000","result":2482,"accuracy":0.2527153,"title":"Commuters+on+the+Irrawaddy+River"}
{"id":13148381264,"url":"http://farm8.staticflickr.com/7317/13148381264_24725e698f.jpg","path":"a39/95f/a3995fcc87bffad7d303e5d90933c48.jpg","date":"2014-02-10","year":2014,"month":2,"lon":94.89372,"lat":21.189854,"tags":"burma,myanmar,travel","S2CellId":"80e8240000000000","result":7393,"accuracy":0.010134376}
{"id":9167245394,"url":"http://farm6.staticflickr.com/5488/9167245394_2ceff4f063.jpg","path":"9b1/9b5/9b19b5a4785f46d8f5845c5cde87b97.jpg","date":"2013-01-27","year":2013,"month":1,"lon":94.88237,"lat":21.18067,"tags":"2013,bagan,balloon,balloons+over+bagan,burma,my,myanmar,nan+myint+tower,shwe+leik+too,sunrise","S2CellId":"30b0000000000000","result":1619,"accuracy":0.1220114,"title":"Hotair+balloons+rising+at+sunrise+near+Nan+Myint+Tower","description":"The+Nan+Myint+Tower+is+a+modern+monstrosity+of+a+viewing+tower+that+is+a+blight+upon+Bagan."}
{"id":8626573512,"url":"http://farm9.staticflickr.com/8537/8626573512_103bc3a857.jpg","path":"7db/7e9/7db7e93bfbedc4ddc5c45f756fed6c98.jpg","date":"2013-04-07","year":2013,"month":4,"lon":94.90844,"lat":21.19883,"tags":"instagram+app,iphoneography,nashville,square,square+format","S2CellId":"1341000000000000","result":1158,"accuracy":0.004753175,"title":"%EA%B2%8C%EC%9C%BC%EB%A5%B8+%EC%97%AC%ED%96%89%EC%9E%90%EC%9D%98+%EB%A7%88%EC%A7%80%EB%A7%89+%EB%A7%8C%EC%B0%AC+%23Myanmar+%23NyaungU+%23Travel+%23Breakfast+%23Food"}
{"id":8511532801,"url":"http://farm9.staticflickr.com/8249/8511532801_e5c8e26db6.jpg","path":"59d/48b/59d48bca51d613bb606a81b682089b8.jpg","date":"2013-02-17","year":2013,"month":2,"lon":94.881226,"lat":21.187292,"tags":"%E7%B7%AC%E7%94%B8,%E8%92%B2%E7%94%98,bagan,burma,mingalar+zedi,myanmar,pagan,sunset","S2CellId":"30b0000000000000","result":1619,"accuracy":0.6157475,"title":"Good+View"}
{"id":12585984785,"url":"http://farm4.staticflickr.com/3693/12585984785_e69ef34528.jpg","path":"851/146/851146625f4fe432b2fe22f5e43b4f.jpg","date":"2014-02-04","year":2014,"month":2,"lon":94.88904,"lat":21.15829,"tags":"mandalay,mmr,myanmar","S2CellId":"30b0000000000000","result":1619,"accuracy":0.05277289,"title":"Bagan"}
{"id":8407451993,"url":"http://farm9.staticflickr.com/8081/8407451993_954607e336.jpg","path":"e48/4e4/e484e4ae66ebab4e1ab4ad16851e3a.jpg","date":"2013-01-06","year":2013,"month":1,"lon":94.86214,"lat":21.15864,"tags":"concrete,corner,dirt+road,dust,fence,new+bagan,sandy","S2CellId":"0ef0000000000000","result":641,"accuracy":0.06687992,"title":"Dusty+Corner"}
{"id":8645610567,"url":"http://farm9.staticflickr.com/8258/8645610567_515a4b2d06.jpg","path":"967/e06/967e067e536d0832fe818a55dbb2bad.jpg","date":"2013-02-13","year":2013,"month":2,"lon":94.85767,"lat":21.167498,"tags":"bagan,burma,myanmar","S2CellId":"3415000000000000","result":2020,"accuracy":0.08973981}
{"id":11772844664,"url":"http://farm3.staticflickr.com/2824/11772844664_a0de675e57.jpg","path":"75a/8cb/75a8cbf1eb421c9daa23ccb6c9051af.jpg","date":"2013-12-17","year":2013,"month":12,"lon":94.867584,"lat":21.170946,"tags":"%E2%80%9Cadventure,%E2%80%9Colympus,%E2%80%9Cpaul,2013,arps,arps%E2%80%9D,asia,azi%C3%AB,bagan,birma,buddhism,culture,cultuur,e-pl%E2%80%9D,flickr,myanmar,nature,natuur,pagodas,paularps,reizen,temples,travel,travel%E2%80%9D","S2CellId":"2b40000000000000","result":1520,"accuracy":0.046342053,"title":"Balloons+over+Bagan+%28Myanmar+2013%29","description":"OLYMPUS+DIGITAL+CAMERA"}
{"id":8596363662,"url":"http://farm9.staticflickr.com/8104/8596363662_01dc542ca5.jpg","path":"7f7/bf9/7f7bf994282233705ea251f560ca35aa.jpg","date":"2013-03-17","year":2013,"month":3,"lon":94.08848,"lat":21.366085,"tags":"burma+christopher+michel,christopher+michel,myanmar","S2CellId":"0ed0000000000000","result":640,"accuracy":0.040475424,"title":"Memories+of+Myanmar"}
{"id":8973568097,"url":"http://farm6.staticflickr.com/5457/8973568097_da57acb2fc.jpg","path":"8c2/bd8/8c2bd8544fc5ff1ec622ad7e6beb66a8.jpg","date":"2012-08-25","year":2012,"month":8,"lon":94.88209,"lat":21.184122,"tags":"bagan,burma,myanmar","S2CellId":"133bbc0000000000","result":1153,"accuracy":0.24792515,"title":"P1050265"}
{"id":860537666,"url":"http://farm2.staticflickr.com/1292/860537666_326d2f5977.jpg","path":"5b2/0ad/5b20addae47c9028c06674c92c66a7c2.jpg","date":"2007-07-21","year":2007,"month":7,"lon":94.88548,"lat":21.15992,"tags":"bagan,buddhist,burma,myanmar,pagan,pagoda,temple","S2CellId":"9240000000000000","result":9638,"accuracy":0.113431565,"title":"Ayeyarwady","description":"Boat+on+the+Irrawaddy%2C+Bagan%2C+Myanmar"}
{"id":8055091476,"url":"http://farm9.staticflickr.com/8452/8055091476_6b8582a249.jpg","path":"1b2/911/1b2911e58c85e8538d3cb8bde2204c36.jpg","date":"2011-11-28","year":2011,"month":11,"lon":94.85028,"lat":21.127245,"tags":"ayeyarwaddy+river,bagan,burma,irrawaddy+river,lawkananda+pagoda,mandalay,mmr,myanmar,pagan","S2CellId":"95b7000000000000","result":9827,"accuracy":0.04431083,"title":"Irrawadday+River","description":"Irrawadday+River+from+the+Lawkananda+Pagoda"}
{"id":7026217671,"url":"http://farm8.staticflickr.com/7235/7026217671_ab6bc183b1.jpg","path":"fbd/be5/fbdbe5fcf8f3623d929442d8380826b.jpg","date":"2012-03-09","year":2012,"month":3,"lon":94.90571,"lat":21.19991,"tags":"bagan,birmania,myanmar,sulamani","S2CellId":"30b0000000000000","result":1619,"accuracy":0.2919863,"title":"Sulamani"}
{"id":10293997846,"url":"http://farm3.staticflickr.com/2841/10293997846_00f31222c1.jpg","path":"134/6e9/1346e9d255aee474f3b960ed5aab942f.jpg","date":"2006-11-09","year":2006,"month":11,"lon":94.90265,"lat":21.182812,"tags":"asia20062,birmanie,myanmar","S2CellId":"8589400000000000","result":7437,"accuracy":0.3051684,"title":"Myanmar"}
{"id":8055054954,"url":"http://farm9.staticflickr.com/8180/8055054954_2bd790003f.jpg","path":"84f/2af/84f2af4ee1ad1533622dea852953c79.jpg","date":"2011-11-26","year":2011,"month":11,"lon":94.8825,"lat":21.180925,"tags":"bagan,burma,mandalay,mmr,myanmar,pagan,shwe+leik+too","S2CellId":"40bc000000000000","result":2689,"accuracy":0.01698473,"title":"Shwe+Leik+Too","description":"Shwe+Leik+Too"}
{"id":12673142275,"url":"http://farm3.staticflickr.com/2836/12673142275_50b4fa13a3.jpg","path":"683/5b9/6835b9c9ee70af51d785535a3ec9c66.jpg","date":"2014-02-05","year":2014,"month":2,"lon":94.85338,"lat":21.150621,"tags":"mandalay,mmr,myanmar","S2CellId":"1ed0000000000000","result":1478,"accuracy":0.035765108,"title":"Bagan"}
{"id":12584916415,"url":"http://farm4.staticflickr.com/3723/12584916415_3175833da0.jpg","path":"355/ab0/355ab033bb425a8e11952f0e0dde874.jpg","date":"2014-02-04","year":2014,"month":2,"lon":94.89638,"lat":21.195023,"tags":"mandalay,mmr,myanmar","S2CellId":"8722740000000000","result":7745,"accuracy":0.21946222,"title":"Balloons+Over+Bagan"}
{"id":11526239203,"url":"http://farm6.staticflickr.com/5500/11526239203_266f70dae7.jpg","path":"ce2/c41/ce2c41f60d166dc6115f17166c074.jpg","date":"2013-11-16","year":2013,"month":11,"lon":94.869514,"lat":21.176409,"tags":"bagan,burma,myanmar,panorama","S2CellId":"30cc000000000000","result":1621,"accuracy":0.052539006,"title":"Bagan+Panorama"}
{"id":12582790324,"url":"http://farm3.staticflickr.com/2884/12582790324_144d4d9808.jpg","path":"1c5/f44/1c5f4451e64c4ac2be622ca8f633a167.jpg","date":"2014-02-03","year":2014,"month":2,"lon":94.9069,"lat":21.202562,"tags":"mandalay,mmr,myanmar,nyaung-u","S2CellId":"91f0000000000000","result":9637,"accuracy":0.05428083,"title":"Bagan"}
