{"id":4339281124,"url":"http://farm3.staticflickr.com/2690/4339281124_95eac5117d.jpg","path":"493/da9/493da9acaa336952c4a2922dbb285e.jpg","date":"2009-03-28","year":2009,"month":3,"lon":-65.069275,"lat":45.56983,"tags":"2006,canada,new+brunswick,nova+scotia,prince+edward+island","S2CellId":"4c90000000000000","result":5830,"accuracy":0.6155708,"title":"Red+Cliffs+of+New+Brunswick+1"}
{"id":6176596770,"url":"http://farm7.staticflickr.com/6173/6176596770_3b4278c30b.jpg","path":"631/f5e/631f5e2caf81b54fbf265ce83737e16b.jpg","date":"2011-08-29","year":2011,"month":8,"lon":-65.88552,"lat":45.62004,"tags":"belleisle+bay,canada,hampton,hurricane+irene,new+brunswick","S2CellId":"52b7000000000000","result":5997,"accuracy":0.016986609,"title":"IMG_6184"}
{"id":4326131705,"url":"http://farm3.staticflickr.com/2680/4326131705_d776fa202d.jpg","path":"797/2c0/7972c07b6fdb73fe125e34ef212f793.jpg","date":"2009-09-30","year":2009,"month":9,"lon":-65.455574,"lat":45.38583,"tags":"day+5,road+trip","S2CellId":"89c2f3c000000000","result":9104,"accuracy":0.037466794,"title":"IMG_2493"}
{"id":4029746208,"url":"http://farm3.staticflickr.com/2737/4029746208_7f694a6df4.jpg","path":"76c/a3c/76ca3cf99f156b83af5b8ebbfe5fc9b4.jpg","date":"2009-09-23","year":2009,"month":9,"lon":-65.9078,"lat":45.61258,"tags":"belleisle+bay,belleisle+ferry,canada,long+point+ferry,new+brunswick","S2CellId":"89dfc00000000000","result":9287,"accuracy":0.12001756,"title":"Belleisle+Bay","description":"From+the+Long+Point+Ferry."}
{"id":10369783906,"url":"http://farm8.staticflickr.com/7430/10369783906_0c370c8b62.jpg","path":"19a/ed1/19aed1144da61b79557a545e744c2bd.jpg","date":"2013-10-19","year":2013,"month":10,"lon":-65.51755,"lat":45.363834,"tags":"lucas","S2CellId":"8838f00000000000","result":8333,"accuracy":0.03837306,"title":"lucasfirstbirthday+%2822%29"}
{"id":4028974791,"url":"http://farm3.staticflickr.com/2516/4028974791_9a569afb0c.jpg","path":"c3f/9ca/c3f9ca68e6149ed4c265a23c7a11a16.jpg","date":"2009-09-23","year":2009,"month":9,"lon":-65.88552,"lat":45.62004,"tags":"belleisle+bay,canada,new+brunswick,spider,spider+web","S2CellId":"07af000000000000","result":114,"accuracy":0.030195436,"title":"Big+spider+of+Belleisle+Bay"}
{"id":6178354033,"url":"http://farm7.staticflickr.com/6179/6178354033_7c718627be.jpg","path":"c7e/157/c7e157afef13a07de882ddf943c117c.jpg","date":"2011-08-31","year":2011,"month":8,"lon":-65.52306,"lat":45.355343,"tags":"canada,new+brunswick,st+martins","S2CellId":"4cad000000000000","result":5833,"accuracy":0.088161044,"title":"St+Martins"}
{"id":5826275966,"url":"http://farm3.staticflickr.com/2286/5826275966_6c8cd770c6.jpg","path":"239/4f6/2394f6eb22617966d58a228f4b99de7.jpg","date":"2011-06-11","year":2011,"month":6,"lon":-65.309944,"lat":45.729073,"tags":"bull+dozer,canada,nature,nbphoto,new+brunswick,trees,woodlot","S2CellId":"45d4000000000000","result":2755,"accuracy":0.1378078,"title":"My+John+Deere+450C"}
{"id":10109870996,"url":"http://farm8.staticflickr.com/7451/10109870996_bd5365de69.jpg","path":"574/27b/57427b747cee3b9191932cdc7aa0c24e.jpg","date":"2013-10-01","year":2013,"month":10,"lon":-65.533165,"lat":45.35865,"tags":"bay+of+fundy,d7000,new+brunswick,nikon,st+martins","S2CellId":"4cb29d0000000000","result":5845,"accuracy":0.24674772,"title":"St.+Martins%2C+NB","description":"The+tides+in+the+Bay+of+Fundy+can+vary+20+feet+%28about+6.1+meters%29+on+a+daily+basis."}
{"id":4039550599,"url":"http://farm3.staticflickr.com/2715/4039550599_ceaee9d8b6.jpg","path":"ce4/b63/ce4b6334c24a7f1480fa52fad1587.jpg","date":"2009-10-02","year":2009,"month":10,"lon":-65.83,"lat":45.525414,"tags":"canada,hampton,new+brunswick,railroad,railway,train,train+tracks","S2CellId":"4cc9c00000000000","result":5904,"accuracy":0.048126847,"title":"Railroad+tracks"}
{"id":8735920782,"url":"http://farm8.staticflickr.com/7300/8735920782_2d0f7371a3.jpg","path":"9d8/5a0/9d85a0962739ec8aa8633df83caa93d.jpg","date":"2013-05-11","year":2013,"month":5,"lon":-65.08661,"lat":45.767883,"tags":"elgin,new+brunswick,pollett+river","S2CellId":"5351f00000000000","result":6036,"accuracy":0.29669932,"title":"PR2_Panorama4","description":"Pollett+River"}
{"id":6176642662,"url":"http://farm7.staticflickr.com/6165/6176642662_edcb474ff6.jpg","path":"b22/fcf/b22fcfb41c1d2f960d72623be202eeb.jpg","date":"2011-08-30","year":2011,"month":8,"lon":-65.87231,"lat":45.536053,"tags":"canada,frost+mountain,hampton,lower+norton,new+brunswick","S2CellId":"4c90000000000000","result":5830,"accuracy":0.007580833,"title":"Testing+a+theory","description":"Ann+claims+that+if+you+let+a+mosquito+have+his+fill%2C+he+will+then+suck+out+the+anticoagulant+he+has+injected+you+with+before+flying+off+...+and+the+bite+will+not+itch.+I%27m+not+convinced%21"}
{"id":4710885548,"url":"http://farm5.staticflickr.com/4053/4710885548_fef556b2f6.jpg","path":"fe1/88b/fe188ba639da5efaed9a89e666841ea.jpg","date":"2010-06-13","year":2010,"month":6,"lon":-65.309944,"lat":45.729073,"tags":"flower,lady+slipper,nature,nbphoto,pink","S2CellId":"12a49d0000000000","result":704,"accuracy":0.16571562,"title":"Pink+Lady+Slippers"}
{"id":555062303,"url":"http://farm2.staticflickr.com/1401/555062303_27d1a71cce.jpg","path":"9af/8c7/9af8c79dcc852c8394bafb1ec3fce40.jpg","date":"2005-08-19","year":2005,"month":8,"lon":-65.549065,"lat":45.542427,"tags":"canada,new+brunswick","S2CellId":"4b70000000000000","result":5827,"accuracy":0.06204737,"title":"2005_Canada_0547.JPG","description":"Aug.+19+-+View+of+New+Brunswick+Countryside+%28Rte+111%29"}
{"id":2830110267,"url":"http://farm4.staticflickr.com/3069/2830110267_d7cf7483af.jpg","path":"5a6/d41/5a6d415ec083767fbadcb6fcd0a3cbb.jpg","date":"2008-08-01","year":2008,"month":8,"lon":-65.9782,"lat":45.334938,"tags":"acap,action,atlantic,bay+of+fundy,bog,canada,coastal,environment,fen,fish,marsh,new+brunswick,program,saint+john,swamp,wetlands","S2CellId":"4c90000000000000","result":5830,"accuracy":0.15144062,"title":"Kelly+Lake"}
{"id":3718247558,"url":"http://farm3.staticflickr.com/2454/3718247558_bd0d1399ff.jpg","path":"8be/6fd/8be6fd4ae5dddae6fb7c699a026746b.jpg","date":"2007-09-29","year":2007,"month":9,"lon":-65.84381,"lat":45.545597,"tags":"canada,lower+norton,new+brunswick,widgie","S2CellId":"883b500000000000","result":8352,"accuracy":0.15905267,"title":"Widgie","description":"Widgie+sure+took+comfortable+to+a+higher+level%21"}
{"id":8663268598,"url":"http://farm9.staticflickr.com/8250/8663268598_4b53ea2cef.jpg","path":"e4e/986/e4e986e693ee3a6de7604f1329123e84.jpg","date":"2013-04-15","year":2013,"month":4,"lon":-65.45792,"lat":45.375,"tags":"fundy+foot+path,new+brunswick","S2CellId":"4761000000000000","result":3310,"accuracy":0.014456106,"title":"Falls_Panorama1","description":"A+nice+little+creek+with+falls.+I+crossed+on+the+stones+to+get+access+to+Melvin+Beach.+There%27s+a+Kingfisher+in+there+somewhere."}
{"id":1240505734,"url":"http://farm2.staticflickr.com/1177/1240505734_f1f96a8df1.jpg","path":"d5e/8dd/d5e8dd829877e1bcebb9e41b93eccf54.jpg","date":"2007-08-14","year":2007,"month":8,"lon":-65.00748,"lat":45.554207,"tags":"bemep,nova,point,scotia,wolfe","S2CellId":"5495f00000000000","result":6276,"accuracy":0.10797619,"title":"Rays+In+The+Forest","description":"Morning+mist+from+the+Bay+of+Fundy.%0APicture+taken+by+Mike+Kisin%0AP1000465"}
{"id":6123019974,"url":"http://farm7.staticflickr.com/6198/6123019974_8f8371b586.jpg","path":"1bc/d5a/1bcd5aead9813f2b774327f574d2b43.jpg","date":"2011-08-30","year":2011,"month":8,"lon":-65.01327,"lat":45.550903,"tags":"fundy,point-wolfe","S2CellId":"89d0c00000000000","result":9222,"accuracy":0.06368011,"title":"DSC01765"}
{"id":3324571036,"url":"http://farm4.staticflickr.com/3319/3324571036_9301d7a672.jpg","path":"3b8/136/3b8136dd70e85b5334f5542759816e.jpg","date":"2007-09-01","year":2007,"month":9,"lon":-65.37265,"lat":45.682083,"tags":"canada,canadian+covered+bridge,covered+bridge,historic+bridge,kings+county,moores+mills+bridge,new+brunswick,trout+creek","S2CellId":"46ed000000000000","result":3093,"accuracy":0.013906994,"title":"Moores+Mills+Covered+Bridge","description":"Moores+Mills+Covered+Bridge+over+Trout+Creek+in+Kings+County%2C+New+Brunswick"}
{"id":6029823171,"url":"http://farm7.staticflickr.com/6074/6029823171_0c39510a06.jpg","path":"678/c96/678c963fdc277c204a9bfce81f648063.jpg","date":"2011-08-10","year":2011,"month":8,"lon":-65.53327,"lat":45.35926,"tags":"raw","S2CellId":"488e900000000000","result":5769,"accuracy":0.1125204}
{"id":4020842470,"url":"http://farm3.staticflickr.com/2527/4020842470_d06a9ef2be.jpg","path":"857/186/857186aa3a8f4a34dc3867f6e1ff41b.jpg","date":"2009-09-24","year":2009,"month":9,"lon":-65.84357,"lat":45.54719,"tags":"canada,fern,freeze%27s+mountain,hampton,lower+norton,new+brunswick,shadow","S2CellId":"5495f00000000000","result":6276,"accuracy":0.017975857,"title":"Fern+shadows"}
{"id":6178846763,"url":"http://farm7.staticflickr.com/6154/6178846763_569a35d8a8.jpg","path":"7e5/a19/7e5a19cbec3cd4ce3d6a74441296f.jpg","date":"2011-08-31","year":2011,"month":8,"lon":-65.41711,"lat":45.43904,"tags":"canada,fundy+trail,hearst+lodge,new+brunswick,st+martins,the+hike+back","S2CellId":"89b4400000000000","result":8820,"accuracy":0.08166779,"title":"Tree+trunks"}
{"id":6179356518,"url":"http://farm7.staticflickr.com/6166/6179356518_9b4c475efe.jpg","path":"ffe/336/ffe3369bd8882fdc12cd421704f59ed.jpg","date":"2011-08-31","year":2011,"month":8,"lon":-65.41711,"lat":45.43904,"tags":"canada,fundy+trail,hearst+lodge,new+brunswick,st+martins,the+hike+back","S2CellId":"8edc000000000000","result":9506,"accuracy":0.05400382,"title":"Woodland+shadow"}
