{"id":6197403126,"url":"http://farm7.staticflickr.com/6154/6197403126_92581aecd9.jpg","path":"8ba/24f/8ba24fa0ce122fe241568cf04950e310.jpg","date":"2011-05-23","year":2011,"month":5,"lon":12.391226,"lat":43.10706,"tags":"cittadinanza+attiva,collaborazione,coltivare,donne,eleonora+mariotti,fiori,giardino,giardino+d%27istinto,giordano+bruno,impegno+civile,istinto,italia,madre+natura,madre+terra,pace,perugia,piazza+giordano+bruno,popolazione+attiva,sentimento,turismo,visitare+perugia,volontariato","S2CellId":"475a640000000000","result":3301,"accuracy":0.073814206,"title":"Lavorare+sorridendo","description":"Alek%2C+Eli%2C+Francesco+al+lavoro.%0A%28file%3A+2011052318136%29"}
{"id":8100193362,"url":"http://farm9.staticflickr.com/8475/8100193362_cbbdd91cff.jpg","path":"1cd/9db/1cd9db76a8a714a458ec1609b21c790.jpg","date":"2012-08-27","year":2012,"month":8,"lon":12.729206,"lat":43.81569,"tags":"%E2%80%9Cmallmixstaraward%E2%80%9D,1001nights,allmemorieswelcome,arte,artofimages,colorphotoaward,eventidafotografare,italia,italy,lefotopi%C3%B9belledelmondo,lombardia,lumixdmctz8,marche,milano,musei,palazzo+ducale,scultore,scultura,theperfectphotographer,thesuperbmasterpiece,urbini","S2CellId":"808fac0000000000","result":7052,"accuracy":0.017522307,"title":"Colline+davanti+a+Colbordolo","description":"Urbino+dall+11+alle+14"}
{"id":465294468,"url":"http://farm1.staticflickr.com/183/465294468_8f5e094eca.jpg","path":"854/47c/85447c3ad55fa13011d6fd656ecee87e.jpg","date":"2005-10-29","year":2005,"month":10,"lon":12.681484,"lat":43.959892,"tags":"2005,festival,italy,mini,misano,united","S2CellId":"88f5047400000000","result":8718,"accuracy":0.063802235,"title":"MINI_United_2005_Festival_247"}
{"id":358697267,"url":"http://farm1.staticflickr.com/144/358697267_380bb6ff05.jpg","path":"2e5/a4f/2e5a4f34874d1ea0bfc93eec87d5ef8e.jpg","date":"2005-02-12","year":2005,"month":2,"lon":12.216796,"lat":43.197166,"tags":"fa,freeassociation,italia,italy,prociss%C3%A3o,projeto,religious,sicilia,sicily","S2CellId":"1313f00000000000","result":967,"accuracy":0.036770847,"title":"prociss%C3%A3o","description":"Sicilia%2FItalia"}
{"id":3356921202,"url":"http://farm4.staticflickr.com/3438/3356921202_83aff96aae.jpg","path":"76d/8e2/76d8e2413db423bf50b8a06a4ae96d35.jpg","date":"2009-03-15","year":2009,"month":3,"lon":12.578766,"lat":43.353325,"tags":"gubbio,italia,italy,umbria","S2CellId":"132e900000000000","result":1057,"accuracy":0.033945188,"title":"Gubbio+-+Palazzo+dei+Consoli"}
{"id":6090775876,"url":"http://farm7.staticflickr.com/6198/6090775876_78e89f9c1f.jpg","path":"b0f/bca/b0fbcae56c33f9d5b26fd672101d8b8a.jpg","date":"2011-08-12","year":2011,"month":8,"lon":12.625064,"lat":43.06707,"tags":"assisi,farm,farmhouse,field,italia,italy,landscape,terracotta","S2CellId":"132dc00000000000","result":1055,"accuracy":0.040578347,"title":"Lower+Assisi"}
{"id":7393289116,"url":"http://farm6.staticflickr.com/5348/7393289116_562507de3b.jpg","path":"4e7/5c3/4e75c32b44c5b7dc52ec66c2e7762054.jpg","date":"2012-06-11","year":2012,"month":6,"lon":12.617519,"lat":43.070168,"tags":"assisi,asy%C5%BC,clouds,italia,italy,panorama,roof,sky,umbria,view,w%C5%82ochy","S2CellId":"132e900000000000","result":1057,"accuracy":0.25339794,"title":"Assisi"}
{"id":2856871351,"url":"http://farm4.staticflickr.com/3250/2856871351_810f8ea010.jpg","path":"96a/8ef/96a8ef01aa3caad892fa5468d1a575.jpg","date":"2008-08-13","year":2008,"month":8,"lon":12.523727,"lat":43.666756,"tags":"marche,riflessi,urbania","S2CellId":"5140000000000000","result":5964,"accuracy":0.0110744685,"title":"nobili+riflessi...","description":"palazzo+ducale+di+urbania"}
{"id":9201062671,"url":"http://farm4.staticflickr.com/3773/9201062671_7d5e61c649.jpg","path":"115/228/1152283d2116f7da9e16b9676cdfe36b.jpg","date":"2013-06-29","year":2013,"month":6,"lon":12.475705,"lat":43.97035,"tags":"coppa+comen,mediterranean+cup,nuoto,rep.+san+marino,swimming","S2CellId":"12a4a27400000000","result":715,"accuracy":0.7627673,"title":"DSC_2632","description":"Coppa+Comen+con+vaporidicloro+%28ph.Felix%29"}
{"id":2809204192,"url":"http://farm4.staticflickr.com/3206/2809204192_aa748d0efe.jpg","path":"5f5/2bb/5f52bb2a8411485b827552e7fa1e5e1b.jpg","date":"2008-08-23","year":2008,"month":8,"lon":12.736415,"lat":43.965763,"tags":"birnardo,bombo+e+tosky,cattolica,digitalcameraclub,emilia+romagna,fiori,italia,mare,vacanze","S2CellId":"4cc91d0000000000","result":5899,"accuracy":0.034541603,"title":"Cattolica"}
{"id":5810964202,"url":"http://farm4.staticflickr.com/3012/5810964202_549ca1a446.jpg","path":"db3/795/db37951b93ed67b2a2b9c996d4c8a2e.jpg","date":"2011-06-05","year":2011,"month":6,"lon":12.930639,"lat":43.89306,"tags":"2011,camminando,camminare,giugno,pesaro,walking","S2CellId":"0d3e400000000000","result":330,"accuracy":0.050192792,"title":"Pesaro+5+giugno+2011"}
{"id":2996554275,"url":"http://farm4.staticflickr.com/3205/2996554275_4c6e9597fb.jpg","path":"e17/6d3/e176d306ee632efded67cadc4977813.jpg","date":"2008-08-06","year":2008,"month":8,"lon":12.621188,"lat":43.066788,"tags":"abitalia,anconetani,arena,assisi,b,calcio,campionato,catania,football,foto,fotografia,garibaldi,giacomo,joma,limonta,mascara,nettare,photo,photographer,photography,pisa,plasmati,romeo,serie,soccer,sportiva,stadio,stadium,tim,ultras,umbria,vaiani,zenga","S2CellId":"476daf4000000000","result":3371,"accuracy":0.2936873,"title":"Pisa+-+Catania+%2855%29","description":"Giampiero+Ventura"}
{"id":10394590246,"url":"http://farm8.staticflickr.com/7318/10394590246_a7e57aedc4.jpg","path":"82a/d8c/82ad8c521cb8b49eef9a965a673569.jpg","date":"2013-10-20","year":2013,"month":10,"lon":12.661875,"lat":43.663902,"tags":"driver,fermignano,gare,motocross,mx,piloti,race,regional,regionale","S2CellId":"132c400000000000","result":1049,"accuracy":0.9651226,"title":"1107-_DSC0045-003"}
{"id":4654069338,"url":"http://farm5.staticflickr.com/4003/4654069338_3a36445ff1.jpg","path":"bc3/8c1/bc38c15636f497345a1b6f118c63969e.jpg","date":"2010-05-30","year":2010,"month":5,"lon":12.141205,"lat":43.57027,"tags":"borgo,borgo+in+fiore,hipstamatic,iphone,italy,sansepolcro,toscana,tuscany","S2CellId":"47fb000000000000","result":4734,"accuracy":0.018046804,"title":"agrumi"}
{"id":9007249182,"url":"http://farm8.staticflickr.com/7342/9007249182_5f849078b9.jpg","path":"dba/e7d/dbae7d310543c658157d43e7e81cf48.jpg","date":"2013-06-10","year":2013,"month":6,"lon":12.389616,"lat":43.11268,"tags":"clear,day,perugia","S2CellId":"132a2c0000000000","result":1011,"accuracy":0.2684242,"title":"Perugia","description":"Centro+storico"}
{"id":5152438892,"url":"http://farm5.staticflickr.com/4111/5152438892_1a3006e764.jpg","path":"0fa/39f/0fa39f23de3ab443b54443fb253c8cb.jpg","date":"2010-10-18","year":2010,"month":10,"lon":12.616542,"lat":43.06996,"tags":"assisi,black+and+white,europe,francis,horizon,italia,italy,saint,umbria,valley,view","S2CellId":"132e900000000000","result":1057,"accuracy":0.3507244,"title":"view+from+st.+clare"}
{"id":10289488913,"url":"http://farm4.staticflickr.com/3792/10289488913_840aabc7b3.jpg","path":"b0d/5b6/b0d5b6811003afa7b72fee93dec7a80.jpg","date":"2013-10-12","year":2013,"month":10,"lon":12.751865,"lat":43.399124,"tags":"cavalieri,festa,pascelupo,templari,umbria","S2CellId":"132dc00000000000","result":1055,"accuracy":0.13419898,"title":"DSC_1326.jpg","description":"Nei+giorni+9+e+10+ottobre+il+comune+di+Scheggia+%28frazione+Pascelupo%29+%C3%A8+stato+teatro+di+congressi%2C+incontri%2C+rievocazioni+storiche%2C+feste+medioevali+ed+escursioni%2C+con+un+unico+filo+conduttore%3A+la+commemorazione+del+settecentesimo+anniversario+del+processo+ai+Templari+del+Monte+Cucco.%0AIl+programma+fa+parte++delle+Giornate+nazionali+dell%27Archeologia+ritrovata%3B+promosse+dai+Gruppi+archeologici+d%27Italia.%0ASabato+12+%2C+dalle+ore+15+si+%C3%A8+svolta+la+%E2%80%9CFesta+Templare+al+Castello+di+Pascelupo%E2%80%9D%3A+apertura+del+%E2%80%9CRitorno+al+Medioevo%E2%80%9D+con+spettacoli+medievali+per+tutto+il+pomeriggio%2C+con+botteghe+e+mercatino+medievale.+A+seguire%2C+dalle+ore+19%2C+la+%E2%80%9CNotte+dei+Templari%E2%80%9D%2C+con+il+ritrovo+dei+figuranti+presso+la+Pieve+di+San+Michele+Arcangelo+a+Coldipeccio%2C+da+dove+%C3%A8+partito+il+corteo+storico+medievale+con+fiaccolata+fino+al+Castello+di+Pascelupo%2C+all%27interno+del+quale%2C+per+tutta+la+serata%2C+ci+sano+state+danze%2C+canti+e+musiche."}
{"id":10394637536,"url":"http://farm6.staticflickr.com/5524/10394637536_2c38c37a07.jpg","path":"8f4/921/8f49213e155adc6ad85da58db591873.jpg","date":"2013-10-20","year":2013,"month":10,"lon":12.661875,"lat":43.663902,"tags":"driver,fermignano,gare,motocross,mx,piloti,race,regional,regionale","S2CellId":"132c400000000000","result":1049,"accuracy":0.87481725,"title":"1131-_DSC0070-003"}
{"id":10395384496,"url":"http://farm4.staticflickr.com/3828/10395384496_3634126b6c.jpg","path":"60b/903/60b9030b9e4646c2ae38b332418927e.jpg","date":"2013-10-20","year":2013,"month":10,"lon":12.661875,"lat":43.663902,"tags":"driver,fermignano,gare,motocross,mx,piloti,race,regional,regionale","S2CellId":"4782700000000000","result":3543,"accuracy":0.5424302,"title":"1503-DSCF0342"}
{"id":10394072575,"url":"http://farm8.staticflickr.com/7378/10394072575_d9cb5c153e.jpg","path":"466/85a/46685a75cba342444d2c7053902ecc14.jpg","date":"2013-10-20","year":2013,"month":10,"lon":12.661875,"lat":43.663902,"tags":"driver,fermignano,gare,motocross,mx,piloti,race,regional,regionale","S2CellId":"132c400000000000","result":1049,"accuracy":0.8990318,"title":"0886-_DSC0143-002"}
{"id":59304086,"url":"http://farm1.staticflickr.com/27/59304086_2f50cd014c.jpg","path":"719/bc8/719bc854df96fedb9d6359dfda8e865.jpg","date":"2004-06-22","year":2004,"month":6,"lon":12.713166,"lat":43.937885,"tags":"festa+delle+streghe,outside,s.giovanni+marignano,urban","S2CellId":"865c590000000000","result":7661,"accuracy":0.025386872,"title":"0244"}
{"id":2244944498,"url":"http://farm3.staticflickr.com/2140/2244944498_59f9e0718e.jpg","path":"133/118/133118547392e9ebdfcbb669f60.jpg","date":"2008-01-19","year":2008,"month":1,"lon":12.747026,"lat":43.940388,"tags":"abandoned,bricks,broken,creepy,dark,darkness,decay,entrance,fanano,fornace,gradara,hole,italia,italy,kiln,marche","S2CellId":"95a3340000000000","result":9818,"accuracy":0.0036285068,"title":"hades%2C+one+way"}
{"id":2566627603,"url":"http://farm4.staticflickr.com/3098/2566627603_7121247a6e.jpg","path":"72e/2af/72e2af28702cc8992f432ec954e0a3.jpg","date":"2008-06-08","year":2008,"month":6,"lon":12.971608,"lat":43.61206,"tags":"blog,castelleonedisuasa,cesano,fiume,ponte","S2CellId":"36f4000000000000","result":2416,"accuracy":0.049906813,"title":"Salto+di+fondo","description":"il+ponte+di+Castelleone+di+Suasa+sul+fiume+Cesano"}
{"id":2799869961,"url":"http://farm4.staticflickr.com/3180/2799869961_e06b1d442a.jpg","path":"182/655/182655dc7627bf2212aa04885d1dbd0.jpg","date":"2008-08-26","year":2008,"month":8,"lon":12.383458,"lat":43.982956,"tags":"fish-eye,italia,landscape,montefeltro,nikon,panorama,rimini,romagna,torriana","S2CellId":"132cf00000000000","result":1053,"accuracy":0.27432182,"title":"Tutto+il+Montefeltro+in+una+foto","description":"Torriana+%28Rn%29+-+10+agosto+2008"}
{"id":2766741112,"url":"http://farm4.staticflickr.com/3258/2766741112_4e824b090f.jpg","path":"987/0fe/9870fe38bddb0821d7487e3309b9598.jpg","date":"2008-08-14","year":2008,"month":8,"lon":12.26336,"lat":43.034073,"tags":"400d,animal,animali,animals,beautiful,buffi,cane,cani,canine,canon,chien,chiens,cute,dog,dogs,dolci,funny,furry,hund,hunde,perro,perros,tender,teneri","S2CellId":"132dc00000000000","result":1055,"accuracy":0.028624808,"title":"Animals"}
{"id":10393674016,"url":"http://farm8.staticflickr.com/7373/10393674016_6544d469f0.jpg","path":"3fd/8b8/3fd8b8156e5e06123b2d4fda35f8f87.jpg","date":"2013-10-20","year":2013,"month":10,"lon":12.661875,"lat":43.663902,"tags":"driver,fermignano,gare,motocross,mx,piloti,race,regional,regionale","S2CellId":"132c400000000000","result":1049,"accuracy":0.68597245,"title":"0666-_DSC0350"}
{"id":10393682473,"url":"http://farm6.staticflickr.com/5545/10393682473_efd15e2d50.jpg","path":"b47/381/b4738132d4c8ef5f8d3bd58d7b88995b.jpg","date":"2013-10-20","year":2013,"month":10,"lon":12.661875,"lat":43.663902,"tags":"driver,fermignano,gare,motocross,mx,piloti,race,regional,regionale","S2CellId":"132c400000000000","result":1049,"accuracy":0.726775,"title":"0590-_DSC0271-001"}
{"id":3428826375,"url":"http://farm4.staticflickr.com/3349/3428826375_9e8df8b7ac.jpg","path":"b8b/677/b8b6778b5afcfa32852b9ddd62659be.jpg","date":"2009-04-03","year":2009,"month":4,"lon":12.672686,"lat":43.61753,"tags":"acqualagna,appartamenti,appennini,campagna,candigliano,fiume,marche,pesaro,residenze,tartufo","S2CellId":"479ec00000000000","result":3862,"accuracy":0.015181192,"title":"090406+011"}
{"id":5772295331,"url":"http://farm6.staticflickr.com/5225/5772295331_cccfbbd50a.jpg","path":"f3b/89e/f3b89e3d716ba4817fe3f867dfcbacc.jpg","date":"2011-05-28","year":2011,"month":5,"lon":12.673287,"lat":43.853905,"tags":"flower,italy,mondaino,natura,nature,orange,spring+nature","S2CellId":"479a900000000000","result":3797,"accuracy":0.0066335397,"title":"P1040461"}
{"id":6178374023,"url":"http://farm7.staticflickr.com/6179/6178374023_d9e9c0d4af.jpg","path":"2fc/274/2fc274db4695168dba30c18dc5225bfb.jpg","date":"2011-09-11","year":2011,"month":9,"lon":12.644995,"lat":43.987087,"tags":"delfini,oltremare,week","S2CellId":"892c000000000000","result":8771,"accuracy":0.020063723,"title":"IMG_3737"}
{"id":2307797657,"url":"http://farm4.staticflickr.com/3095/2307797657_0c9f77b170.jpg","path":"fbc/14e/fbc14e1ed9187157c7b41c1dd8a7375.jpg","date":"2006-04-23","year":2006,"month":4,"lon":12.163238,"lat":43.091457,"tags":"italia","S2CellId":"0d604b0000000000","result":511,"accuracy":0.060005076,"title":"Lago+Trasimeno"}
{"id":196138011,"url":"http://farm1.staticflickr.com/68/196138011_2e6b0e3fa6.jpg","path":"6b8/b81/6b8b81ea8d4329dba21e6fc55cafed73.jpg","date":"2006-07-03","year":2006,"month":7,"lon":12.588272,"lat":43.094463,"tags":"eremo+di+san+francesco","S2CellId":"132a4c0000000000","result":1015,"accuracy":0.09353979}
{"id":2694829035,"url":"http://farm4.staticflickr.com/3212/2694829035_df6027a67e.jpg","path":"ccc/9cd/ccc9cde7cf371baed0cfd6606731f9a2.jpg","date":"2008-07-19","year":2008,"month":7,"lon":12.684102,"lat":43.96156,"tags":"19luglio08,6+ore+di+misano,endurance,etcs,misano,nettamente,promotor,racing,touringcars","S2CellId":"47a8514000000000","result":3920,"accuracy":0.11209674,"title":"DSC_0183"}
{"id":2766746196,"url":"http://farm4.staticflickr.com/3059/2766746196_c32f5710d8.jpg","path":"e0d/64b/e0d64be4137c6d97611e368649d23e5.jpg","date":"2008-08-14","year":2008,"month":8,"lon":12.26336,"lat":43.034073,"tags":"animali,cat,chat,chats,cute,funny,gato,gatos,gatti,italy,katze,katzen,pet,petit,pets,shire,summer,tender,umbria","S2CellId":"1357000000000000","result":1180,"accuracy":0.0063096313,"title":"Animals"}
{"id":6012845926,"url":"http://farm7.staticflickr.com/6015/6012845926_e8b4afc307.jpg","path":"9ec/398/9ec398597eefab3dc51eaab65fda5e8f.jpg","date":"2011-08-05","year":2011,"month":8,"lon":12.636208,"lat":43.726578,"tags":"2011,holiday,italie,italy,summer,urbino,zomervakantie","S2CellId":"47d8db0000000000","result":4461,"accuracy":0.018500892,"title":"Hi","description":"I%27m+Jaap%2C+nice+to+meet+you."}
{"id":10392462936,"url":"http://farm6.staticflickr.com/5478/10392462936_51409ffcc8.jpg","path":"84c/570/84c570e4bdfd50f3e1b7ed626f1fc251.jpg","date":"2013-10-20","year":2013,"month":10,"lon":12.661875,"lat":43.663902,"tags":"driver,fermignano,gare,motocross,mx,piloti,race,regional,regionale","S2CellId":"132c400000000000","result":1049,"accuracy":0.9333938,"title":"0059-_DSC0062"}
{"id":2996526521,"url":"http://farm4.staticflickr.com/3022/2996526521_87a0856e9b.jpg","path":"b82/9d8/b829d86baecf9f2a44d877fded129ea1.jpg","date":"2008-08-06","year":2008,"month":8,"lon":12.621188,"lat":43.066788,"tags":"abitalia,anconetani,arena,assisi,b,calcio,campionato,catania,football,foto,fotografia,garibaldi,giacomo,joma,limonta,mascara,nettare,photo,photographer,photography,pisa,plasmati,romeo,serie,soccer,sportiva,stadio,stadium,tim,ultras,umbria,vaiani,zenga","S2CellId":"4707000000000000","result":3128,"accuracy":0.2827245,"title":"Pisa+-+Catania+%282%29","description":"Giuseppe+Greco"}
{"id":4148115349,"url":"http://farm3.staticflickr.com/2522/4148115349_971ff89954.jpg","path":"c9e/cc1/c9ecc12018354a3fb1c46061aea20cf.jpg","date":"2009-11-30","year":2009,"month":11,"lon":12.388259,"lat":43.111763,"tags":"holga,italia,medio+formato,perugia","S2CellId":"477eb1b000000000","result":3470,"accuracy":0.01863164,"title":"Perugia"}
{"id":5007722679,"url":"http://farm5.staticflickr.com/4150/5007722679_f47c2959cc.jpg","path":"8ac/8f7/8ac8f7ea284d333af11f21251d985b.jpg","date":"2010-07-16","year":2010,"month":7,"lon":12.390749,"lat":43.112244,"tags":"daniel+zezelj,jessica+lurie,marjan+stanic","S2CellId":"12a4a2f6d0000000","result":734,"accuracy":0.018072134,"title":"21"}
{"id":6713746303,"url":"http://farm8.staticflickr.com/7165/6713746303_a20521679a.jpg","path":"105/a94/105a94cfbeee53b4fa656584f2ccb.jpg","date":"2012-01-01","year":2012,"month":1,"lon":12.309408,"lat":43.911774,"tags":"italy,marecchia,montefeltro,rocca,valmarecchia","S2CellId":"536c000000000000","result":6045,"accuracy":0.054001696,"title":"La+rocca","description":"%3Ca+href%3D%22http%3A%2F%2Fwww.flickr.com%2Fphotos%2Fgiusibarbiani%2F6713746303%2Fin%2Fphotostream%2Flightbox%2F%22%3ESee+in+large+view%3C%2Fa%3E"}
{"id":6788022647,"url":"http://farm8.staticflickr.com/7015/6788022647_ee73cb7af0.jpg","path":"e0e/021/e0e021884d44ea7637442b72732e1b.jpg","date":"2004-09-19","year":2004,"month":9,"lon":12.571985,"lat":43.250328,"tags":"field,italy,low,morning,sardinian,sheep,sun,umbria","S2CellId":"89c9900000000000","result":9208,"accuracy":0.11426079,"title":"Sheep+In+Morning+Sunlight","description":"Sardinian+sheep+in+the+early+morning+sunlight+-+low+again+like+the+evening.+Difficult+to+get+them+all+looking+at+me+-+it+was+an+instant+shot+as+soon+as+I+arrived+on+the+scene.++Too+much+thinking+and+I+would+have+missed+it+as+they+became+disinterested+in+me+and+carried+on+munching+the+grass."}
{"id":3439418916,"url":"http://farm4.staticflickr.com/3575/3439418916_9f42f9b6fa.jpg","path":"653/3f3/6533f3411a83ccbbdf1d73c14214eb9c.jpg","date":"2009-04-13","year":2009,"month":4,"lon":12.387771,"lat":43.113,"tags":"centro+storico,perugia,umbria","S2CellId":"132a2c0000000000","result":1011,"accuracy":0.2394604,"title":"P4130057"}
{"id":5155062380,"url":"http://farm2.staticflickr.com/1097/5155062380_2764fcb1e5.jpg","path":"499/4f5/4994f5b17ac72280886568554f74bc1b.jpg","date":"2010-02-21","year":2010,"month":2,"lon":12.510354,"lat":43.092583,"tags":"aeroporto,aeroporto+perugia,aeroporto+umbria,airport,perugia,sant%27egidio","S2CellId":"6d318a3000000000","result":6816,"accuracy":0.11315185,"title":"Aeroporto+di+Perugia+Sant%27Egidio"}
{"id":385472151,"url":"http://farm1.staticflickr.com/143/385472151_2dd4b7128e.jpg","path":"495/b61/495b6197c537967a7d43f73dd0d79a51.jpg","date":"2007-02-10","year":2007,"month":2,"lon":12.619171,"lat":43.070644,"tags":"%C3%A9glise,assise,italie,ombrie,rosace","S2CellId":"47f4ebc000000000","result":4722,"accuracy":0.056335952,"title":"ASSISE++Italie","description":"Basilique+Saint+Francois+d%27Assise"}
{"id":465273116,"url":"http://farm1.staticflickr.com/230/465273116_4dbd4b7f8c.jpg","path":"822/f8c/822f8cfb74b3d7f7c87c4b1407bb8b5.jpg","date":"2005-10-28","year":2005,"month":10,"lon":12.681484,"lat":43.959892,"tags":"2005,festival,italy,mini,misano,united","S2CellId":"4870940000000000","result":4988,"accuracy":0.20309155,"title":"MINI_United_2005_Festival_013"}
{"id":4967403198,"url":"http://farm5.staticflickr.com/4125/4967403198_65cf4b0920.jpg","path":"899/0be/8990bebe487d984c443b1110f071afa.jpg","date":"2010-07-13","year":2010,"month":7,"lon":12.606988,"lat":43.06125,"tags":"2010,assisi,canoneos7d,deu,deutschland,italien,wolfenbuettel","S2CellId":"132a3c0000000000","result":1013,"accuracy":0.2620794,"title":"2010-07-13T10_50_22.JPG","description":"Assisi+-+Italien%2FItaly%2FItalia"}
{"id":5869249532,"url":"http://farm7.staticflickr.com/6053/5869249532_675ddaffe3.jpg","path":"941/a98/941a984859bc8a1546f66cae82ee1b5.jpg","date":"2011-06-24","year":2011,"month":6,"lon":12.283744,"lat":43.84369,"tags":"cane,dog,muso,muzzle,pet,sweet","S2CellId":"3650000000000000","result":2395,"accuracy":0.011729306,"title":"0021"}
{"id":10395405805,"url":"http://farm4.staticflickr.com/3743/10395405805_fcc43b5ec2.jpg","path":"cd3/8ef/cd38ef5042a810d5724ba51d6136d87.jpg","date":"2013-10-20","year":2013,"month":10,"lon":12.661875,"lat":43.663902,"tags":"driver,fermignano,gare,motocross,mx,piloti,race,regional,regionale","S2CellId":"132c400000000000","result":1049,"accuracy":0.59712595,"title":"1529-DSCF0379"}
{"id":27361418,"url":"http://farm1.staticflickr.com/21/27361418_9fe399d7df.jpg","path":"a02/759/a02759d88caf9392e868d5b5feb4bb.jpg","date":"2005-07-20","year":2005,"month":7,"lon":12.616424,"lat":43.071144,"tags":"assise,assisi,italie,italy","S2CellId":"12a7c00000000000","result":769,"accuracy":0.1340167,"title":"DSC01107"}
{"id":10394819264,"url":"http://farm8.staticflickr.com/7290/10394819264_b48c3b28d7.jpg","path":"812/2fc/8122fc52ee0ee245da62fab9ff8dd64.jpg","date":"2013-10-20","year":2013,"month":10,"lon":12.661875,"lat":43.663902,"tags":"driver,fermignano,gare,motocross,mx,piloti,race,regional,regionale","S2CellId":"132c400000000000","result":1049,"accuracy":0.88267016,"title":"1249-DSCF0036"}
{"id":4193700906,"url":"http://farm3.staticflickr.com/2675/4193700906_1f9bf2532b.jpg","path":"9f4/49b/9f449be6c157fa92f0dfc01aedc06454.jpg","date":"2009-12-05","year":2009,"month":12,"lon":12.051143,"lat":43.131058,"tags":"castiglione+del+lago,lago+deltrasimeno,trasimeno","S2CellId":"4cca400000000000","result":5905,"accuracy":0.09093809,"title":"Ombre+sul+Trasimeno","description":"Lago+di+Trasimeno%2C+Castiglione+del+Lago+%28Perugia%29"}
{"id":126481646,"url":"http://farm1.staticflickr.com/52/126481646_def7a6f5c4.jpg","path":"f8f/772/f8f772ff1055bd1bdaa939f765c8d5.jpg","date":"2006-04-06","year":2006,"month":4,"lon":12.16615,"lat":43.09085,"tags":"trasimeno,umbrien","S2CellId":"132c400000000000","result":1049,"accuracy":0.022455836,"title":"IMG_0304"}
{"id":320582170,"url":"http://farm1.staticflickr.com/130/320582170_151a658438.jpg","path":"ff4/fac/ff4facddda403b6d4f4d801b5f7826b.jpg","date":"2006-12-10","year":2006,"month":12,"lon":12.091333,"lat":43.176876,"tags":"acqua,albero,erba,grass,hdr,isola,italia,italy,lago,maggiore,photomatix,tgree,trasimeno,trasimeno2006,umbria,water","S2CellId":"488b000000000000","result":5763,"accuracy":0.062246513,"title":"Albero+sul+lago","description":"Isola+Maggiore"}
{"id":4966841099,"url":"http://farm5.staticflickr.com/4131/4966841099_1b9c8ca532.jpg","path":"b91/fa2/b91fa251bd24edc436467d4ed4f24c5.jpg","date":"2010-07-13","year":2010,"month":7,"lon":12.612122,"lat":43.071392,"tags":"2010,assisi,canoneos7d,deu,deutschland,italien,wolfenbuettel","S2CellId":"477cc00000000000","result":3450,"accuracy":0.13952756,"title":"2010-07-13T11_55_23.JPG","description":"Assisi+-+Italien%2FItaly%2FItalia"}
{"id":4998279788,"url":"http://farm5.staticflickr.com/4113/4998279788_e5cd0dc5f3.jpg","path":"909/021/909021d0cc2f92cded7d3ce9f5ebf1.jpg","date":"2010-08-17","year":2010,"month":8,"lon":12.625179,"lat":43.067257,"tags":"assisi,italia,italy","S2CellId":"132e900000000000","result":1057,"accuracy":0.4812931,"title":"Assisi%2C+Italy"}
{"id":10394595443,"url":"http://farm4.staticflickr.com/3732/10394595443_24228ac577.jpg","path":"501/f24/501f24192cab8b3f9f6a8b0f37566dc.jpg","date":"2013-10-20","year":2013,"month":10,"lon":12.661875,"lat":43.663902,"tags":"driver,fermignano,gare,motocross,mx,piloti,race,regional,regionale","S2CellId":"132c400000000000","result":1049,"accuracy":0.8160415,"title":"1071-_DSC0007-003"}
{"id":6888712168,"url":"http://farm8.staticflickr.com/7123/6888712168_fd38e38e8d.jpg","path":"672/1f4/6721f48e7d2a767b5ac30549b9b2232.jpg","date":"2012-03-31","year":2012,"month":3,"lon":12.557222,"lat":43.06811,"tags":"b2%2Ff,bastia,bastia+umbra,edilizia,edilizia+passeri,italia,pallavolo,passeri,serie,serie+b2%2Ff,umbra,umbria,volley","S2CellId":"89c2b00000000000","result":9096,"accuracy":0.05944822,"title":"Bastia-Ascoli_53+%5B_MB85733_31.03.12%5D.jpg","description":"Edilizia+Passeri+Bastia+-+Libero+Volley+Ascoli+-+22a+giornata+regular+season+campionato+italiano+Volley+B2F%2FF"}
{"id":10394296983,"url":"http://farm8.staticflickr.com/7295/10394296983_67235ef7f5.jpg","path":"364/19f/36419f989cab606ef8f7e767ff8c2b6.jpg","date":"2013-10-20","year":2013,"month":10,"lon":12.661875,"lat":43.663902,"tags":"driver,fermignano,gare,motocross,mx,piloti,race,regional,regionale","S2CellId":"132c400000000000","result":1049,"accuracy":0.96815956,"title":"0914-_DSC0175-002"}
{"id":8195213255,"url":"http://farm9.staticflickr.com/8345/8195213255_4dab029437.jpg","path":"70d/5f2/70d5f2d91272f1c57becb28ce4948f.jpg","date":"2012-11-18","year":2012,"month":11,"lon":12.616048,"lat":43.082676,"tags":"instagram+app,iphoneography,square,square+format,x-pro+ii","S2CellId":"4797c40000000000","result":3769,"accuracy":0.024899954,"title":"Al+bosco+di+San+Francesco"}
{"id":633711368,"url":"http://farm2.staticflickr.com/1390/633711368_b4e9de8179.jpg","path":"596/9e6/5969e6d98b4538a36f34f3764b6a977.jpg","date":"2007-06-17","year":2007,"month":6,"lon":12.579045,"lat":43.05752,"tags":"%E2%80%9Cbenedetto,2007,assisi,associazione+fotografica+posa-b,b%26w,benedetto,bianco+e+nero,bianconero,black+%26+white,giampiero+mariottini,giugno,papa,photojournalism,pope,reportage,s.m.angeli,umbria,xvi%E2%80%9D","S2CellId":"883b700000000000","result":8353,"accuracy":0.08116218,"title":"papa+boys","description":"Pope+Benedetto+XVI+in+Assisi+%28Umbria%29+17%2F06%2F2007"}
{"id":2857499647,"url":"http://farm4.staticflickr.com/3216/2857499647_ab84bb3476.jpg","path":"4de/74e/4de74e6b2715f79c6fdf70308fe1ea33.jpg","date":"2008-09-06","year":2008,"month":9,"lon":12.435021,"lat":43.049232,"tags":"agriturismi,italia,italy,olive,sforza,torgiano,umbria,vacation,villa","S2CellId":"1502d00000000000","result":1353,"accuracy":0.0233772,"title":"Stella%2C+Damiana%2C+Rocks+and+Coffee"}
{"id":4789498095,"url":"http://farm5.staticflickr.com/4073/4789498095_1b71e72ddc.jpg","path":"f02/4f1/f024f15675ca07a1b87a48a6f1e561.jpg","date":"2010-07-04","year":2010,"month":7,"lon":12.712039,"lat":43.48338,"tags":"catria,monte","S2CellId":"5495f00000000000","result":6276,"accuracy":0.030042382,"title":"Monte+Catria%3A+natura+viva+con+fiori+e+farfalla"}
{"id":6212397926,"url":"http://farm7.staticflickr.com/6039/6212397926_c9d2ca207e.jpg","path":"375/2f3/3752f34a9c8b635cdcf6f1021275938.jpg","date":"2011-08-10","year":2011,"month":8,"lon":12.81126,"lat":43.297134,"tags":"aquilone,estate,pale+eoliche","S2CellId":"4749000000000000","result":3293,"accuracy":0.10366646,"title":"IMG_5847.jpg"}
{"id":2774980272,"url":"http://farm4.staticflickr.com/3192/2774980272_dc27825959.jpg","path":"36a/3b4/36a3b4689be2f5e460e52096b12b6d16.jpg","date":"2007-09-03","year":2007,"month":9,"lon":12.686548,"lat":43.96306,"tags":"aprilia,derbi,ducati,gilera,honda,italy,kawasaki,misano,moto+gp,piaggio,riccione,rimini,san+marino,suzuki,valentino+rossi,world+champion,yamaha","S2CellId":"80c8f00000000000","result":7255,"accuracy":0.16390732,"title":"MOTO+GP+in+Misano+2008","description":"Fans+enjoy+the+Sunshine+on+the+Sunday+before+the+racing+started"}
{"id":4803878983,"url":"http://farm5.staticflickr.com/4137/4803878983_312d016232.jpg","path":"66f/dee/66fdeed3be4f466a9a7ae16e5de33.jpg","date":"2010-07-04","year":2010,"month":7,"lon":12.603721,"lat":43.069893,"tags":"assisi,grain,landscape,sun","S2CellId":"132e900000000000","result":1057,"accuracy":0.15707168,"title":"Assisi","description":"The+landscape+that+sorrounds+Assisi."}
{"id":4992055441,"url":"http://farm5.staticflickr.com/4092/4992055441_f063ecb651.jpg","path":"876/8b1/8768b1841dab7ec38c5c9b25db37c4e9.jpg","date":"2010-09-14","year":2010,"month":9,"lon":12.521967,"lat":43.667824,"tags":"casteldurante,marche,stemma,urbania","S2CellId":"12aebd0000000000","result":789,"accuracy":0.040800866,"title":"Urbania"}
{"id":671923826,"url":"http://farm2.staticflickr.com/1053/671923826_3376f869a7.jpg","path":"448/3f5/4483f5ef23b79b44321d0747d70ae.jpg","date":"2005-11-20","year":2005,"month":11,"lon":12.178516,"lat":43.64266,"tags":"morta,natura,sansepolcro","S2CellId":"465a400000000000","result":2886,"accuracy":0.0038900177,"title":"natura+morta"}
{"id":951799735,"url":"http://farm2.staticflickr.com/1230/951799735_2236409fc6.jpg","path":"1ce/68e/1ce68e17a83e2de64b49a99fa518a86.jpg","date":"2007-07-30","year":2007,"month":7,"lon":12.572994,"lat":43.353893,"tags":"italie,italy","S2CellId":"47e671e300000000","result":4661,"accuracy":0.021578789,"title":"Itali%C3%AB%2C+Gubbio"}
{"id":3264228952,"url":"http://farm1.staticflickr.com/245/3264228952_1710200a6f.jpg","path":"1b0/d2c/1b0d2cf3e7c55e7e431289e8fff6fe.jpg","date":"2008-11-12","year":2008,"month":11,"lon":12.909378,"lat":43.894302,"tags":"aria92,baffi,cat,cats,gatti,gatto,kitty,kyo,male,maschio,mici,micio,mustache,pesaro","S2CellId":"88d0a631cabb5071","result":8563,"accuracy":0.0063693663,"title":"Kyo"}
{"id":4942219301,"url":"http://farm5.staticflickr.com/4116/4942219301_4fe487085c.jpg","path":"b62/c63/b62c6353ac4b853d04bb21e22e5e0be.jpg","date":"2010-08-26","year":2010,"month":8,"lon":12.757644,"lat":43.874325,"tags":"arte,estate,fortezza,gradara,marche,nikon+d40","S2CellId":"132dc00000000000","result":1055,"accuracy":0.29097703,"title":"Il+falco","description":"...+e+mentre+scatti+il+falco+si+alza+in+volo+...."}
{"id":2305767044,"url":"http://farm4.staticflickr.com/3057/2305767044_0f07688b6b.jpg","path":"241/928/241928ae3a1e746d743b7f71c5eefec.jpg","date":"2008-03-02","year":2008,"month":3,"lon":12.245217,"lat":43.841515,"tags":"borgo,borgo+medioevale,campane,campanile,chiesa,guidi,italia,italy,marche,medioevo,montefeltro,petrella,petrella+guidi,romagna","S2CellId":"0d30c00000000000","result":303,"accuracy":0.1258089,"title":"Il+piccolo+campanile","description":"Petrella+Guidi"}
{"id":2905710622,"url":"http://farm4.staticflickr.com/3053/2905710622_5ec8bbe334.jpg","path":"c55/d86/c55d86dc5b2ea777db4d998be7c5d.jpg","date":"2008-10-01","year":2008,"month":10,"lon":12.63594,"lat":43.72676,"tags":"2008,conversazionidalbasso,lwc,uwic","S2CellId":"477e500000000000","result":3454,"accuracy":0.091453485,"title":"Connettiti+a+Urbino+WiFi+%234","description":"Questo+%C3%A8+come+noi+vediamo+la+prossima+WiFi+di+Urbino....+%0AE+tu%3F+Come+la+vedi%3F"}
{"id":2175385916,"url":"http://farm3.staticflickr.com/2313/2175385916_41ce17cdef.jpg","path":"b33/c7d/b33c7db8d12b3141b4edb1d4bd963c3.jpg","date":"2007-12-31","year":2007,"month":12,"lon":12.998027,"lat":43.44195,"tags":"countryhouse,montemurano,serrasanquirico","S2CellId":"1330400000000000","result":1119,"accuracy":0.080341734,"title":"Country+House"}
{"id":9200790321,"url":"http://farm4.staticflickr.com/3755/9200790321_c857331516.jpg","path":"d29/73d/d2973d88dc7cad046e814c9149ec29c.jpg","date":"2013-06-29","year":2013,"month":6,"lon":12.475705,"lat":43.97035,"tags":"coppa+comen,mediterranean+cup,nuoto,rep.+san+marino,swimming","S2CellId":"94ce100000000000","result":9697,"accuracy":0.09357114,"title":"DSC_2822","description":"Coppa+Comen+con+vaporidicloro+%28ph.Felix%29"}
{"id":5186221379,"url":"http://farm5.staticflickr.com/4133/5186221379_d0f368e9d4.jpg","path":"b5f/07a/b5f07a5168169b3f5e28cde552fce5ff.jpg","date":"2010-08-12","year":2010,"month":8,"lon":12.569046,"lat":43.358635,"tags":"gubbio,holidays,italy,umbria","S2CellId":"132e900000000000","result":1057,"accuracy":0.07096845,"title":"Gubbio"}
{"id":2754869273,"url":"http://farm4.staticflickr.com/3020/2754869273_c977c98364.jpg","path":"497/63a/49763a30af6a628639365d54751fc4d.jpg","date":"2008-07-31","year":2008,"month":7,"lon":12.571449,"lat":43.355232,"tags":"ccw,childrens+chorus+of+washington,gubbio","S2CellId":"132e900000000000","result":1057,"accuracy":0.6017811,"title":"DSC_7087"}
{"id":6178861502,"url":"http://farm7.staticflickr.com/6160/6178861502_d96448f428.jpg","path":"e9c/0e1/e9c0e134f2ebb917dd5442768c73a7b.jpg","date":"2011-09-09","year":2011,"month":9,"lon":12.644995,"lat":43.987087,"tags":"acquario,cattolica,oltremare,week","S2CellId":"34e4c00000000000","result":2245,"accuracy":0.14522542,"title":"IMG_3240"}
{"id":196119746,"url":"http://farm1.staticflickr.com/70/196119746_b8da68efc0.jpg","path":"ce2/673/ce26731f484577a0b4f2bbbd49224c.jpg","date":"2006-07-03","year":2006,"month":7,"lon":12.588272,"lat":43.094463,"tags":"eremo+di+san+francesco","S2CellId":"487eb00000000000","result":5660,"accuracy":0.01195514}
{"id":10394940084,"url":"http://farm8.staticflickr.com/7453/10394940084_824418dcab.jpg","path":"ad5/8a5/ad58a56a1657ac4a41647d46645218.jpg","date":"2013-10-20","year":2013,"month":10,"lon":12.661875,"lat":43.663902,"tags":"driver,fermignano,gare,motocross,mx,piloti,race,regional,regionale","S2CellId":"488ed00000000000","result":5771,"accuracy":0.14043388,"title":"1306-DSCF0106"}
{"id":2319853896,"url":"http://farm3.staticflickr.com/2142/2319853896_340b078048.jpg","path":"696/845/6968451ec2b59c22b35a986350e071.jpg","date":"2008-03-08","year":2008,"month":3,"lon":12.53923,"lat":43.960888,"tags":"canon,canon30d,cat,cats,gatti,gatto,kitty","S2CellId":"89d4d40000000000","result":9260,"accuracy":0.07584213,"title":"Gatto+impaurito+2"}
{"id":3365103621,"url":"http://farm4.staticflickr.com/3621/3365103621_222ac0d903.jpg","path":"1a7/36a/1a736a88a38514e1bb832ef66ff1d420.jpg","date":"2007-06-29","year":2007,"month":6,"lon":12.614509,"lat":43.071247,"tags":"%D0%B0%D1%81%D1%81%D0%B8%D0%B7%D0%B8,%D1%83%D0%BC%D0%B1%D1%80%D0%B8%D1%8F,%D7%90%D7%95%D7%9E%D7%91%D7%A8%D7%99%D7%94,%D8%A3%D8%B3%D9%8A%D8%B2%D9%8A,%D8%A3%D9%88%D9%85%D8%A8%D8%B1%D9%8A%D8%A7,%E3%82%A2%E3%83%83%E3%82%B7%E3%82%B8,%E3%82%A6%E3%83%B3%E3%83%96%E3%83%AA%E3%82%A2%E5%B7%9E,2007,assisi,church+of+santa+maria+sopra+minerva,column,corinthian,corinthian+order,eu,europe,gneus+cesius,italia,italy,minerva,roman,temple,temple+of+minerva,titus+cesius+priscus,travel,umbria,unesco,world+heritage+site","S2CellId":"132e900000000000","result":1057,"accuracy":0.44391605,"title":"IT07+0098+Church+of+Santa+Maria+Sopra+Minerva%2C+Temple+of+Minerva%2C+Assisi"}
{"id":4562910402,"url":"http://farm4.staticflickr.com/3443/4562910402_dbe64a9da4.jpg","path":"a8c/341/a8c341ef695b53379ae0c88b3ebdae83.jpg","date":"2009-07-30","year":2009,"month":7,"lon":12.326299,"lat":43.05297,"tags":"bambini,crescere,infanzia,mamma,stefano+intintoli","S2CellId":"46ac000000000000","result":3044,"accuracy":0.17948553,"title":"Ci+sono+io"}
{"id":10395113726,"url":"http://farm8.staticflickr.com/7386/10395113726_87072331bc.jpg","path":"ab5/950/ab59506fadf0ab31ec6eefd194c3caeb.jpg","date":"2013-10-20","year":2013,"month":10,"lon":12.661875,"lat":43.663902,"tags":"driver,fermignano,gare,motocross,mx,piloti,race,regional,regionale","S2CellId":"132c400000000000","result":1049,"accuracy":0.9276352,"title":"1376-DSCF0192"}
{"id":2299008180,"url":"http://farm4.staticflickr.com/3208/2299008180_a3dd37888d.jpg","path":"cea/7bb/cea7bb7035f4ceceb5d070ecef5329f0.jpg","date":"2008-02-28","year":2008,"month":2,"lon":12.451629,"lat":43.94803,"tags":"italia,san+marino","S2CellId":"130fc00000000000","result":960,"accuracy":0.022553856,"title":"San+Marino12"}
{"id":2047740069,"url":"http://farm3.staticflickr.com/2375/2047740069_d9c5eb18ae.jpg","path":"1a2/b79/1a2b7991a2dbed49f6efb6a7894e451.jpg","date":"2007-11-19","year":2007,"month":11,"lon":12.298036,"lat":43.22114,"tags":"italy,tomba+del+faggeto","S2CellId":"0d3b000000000000","result":328,"accuracy":0.020942023,"title":"European+Tour+2945"}
{"id":10393650424,"url":"http://farm8.staticflickr.com/7395/10393650424_77f053384b.jpg","path":"6f6/646/6f664624509602eb6cf78f44965942d.jpg","date":"2013-10-20","year":2013,"month":10,"lon":12.661875,"lat":43.663902,"tags":"driver,fermignano,gare,motocross,mx,piloti,race,regional,regionale","S2CellId":"132c400000000000","result":1049,"accuracy":0.768606,"title":"0671-_DSC0355"}
{"id":220970381,"url":"http://farm1.staticflickr.com/78/220970381_97ed67b719.jpg","path":"782/a87/782a875a8f4b4c84612f7176943a382.jpg","date":"2006-08-18","year":2006,"month":8,"lon":12.972922,"lat":43.538914,"tags":"ancona,arcevia,darkmavis,italia,italy,jazz,music,musica,musician,musicisti,night,night+shot,piticchio","S2CellId":"0d379c0000000000","result":323,"accuracy":0.21518497,"title":"Sax"}
{"id":9261599153,"url":"http://farm4.staticflickr.com/3682/9261599153_11d0026b26.jpg","path":"3eb/eb5/3ebeb515469ec2d3699a30669cb63a4c.jpg","date":"2013-06-30","year":2013,"month":6,"lon":12.475705,"lat":43.97035,"tags":"coppa+comen,mediterranean+cup,nuoto,rep.+san+marino,swimming","S2CellId":"3e5f42c000000000","result":2610,"accuracy":0.008324109,"title":"DSC_3498","description":"Coppa+Comen+%28domenica%29+con+vaporidicloro+%28ph.Felix%29"}
{"id":3359821297,"url":"http://farm4.staticflickr.com/3642/3359821297_670234daa1.jpg","path":"a7d/eec/a7deec41d4427e2a9e6f1835577c592.jpg","date":"2007-06-29","year":2007,"month":6,"lon":12.614509,"lat":43.071247,"tags":"%D0%B0%D1%81%D1%81%D0%B8%D0%B7%D0%B8,%D1%83%D0%BC%D0%B1%D1%80%D0%B8%D1%8F,%D7%90%D7%95%D7%9E%D7%91%D7%A8%D7%99%D7%94,%D8%A3%D8%B3%D9%8A%D8%B2%D9%8A,%D8%A3%D9%88%D9%85%D8%A8%D8%B1%D9%8A%D8%A7,%E3%82%A2%E3%83%83%E3%82%B7%E3%82%B8,%E3%82%A6%E3%83%B3%E3%83%96%E3%83%AA%E3%82%A2%E5%B7%9E,2007,assisi,chapel,church+of+santa+maria+sopra+minerva,column,corinthian,corinthian+order,eu,europe,figure,gneus+cesius,italia,italy,minerva,mother+mary,roman,sculpture,temple,temple+of+minerva,titus+cesius+priscus,travel,umbria,unesco,virgin+mary,world+heritage+site","S2CellId":"85cfd00000000000","result":7456,"accuracy":0.21640848,"title":"IT07+2619+Church+of+Santa+Maria+Sopra+Minerva%2C+Assisi"}
{"id":5595149498,"url":"http://farm6.staticflickr.com/5179/5595149498_a27725b97b.jpg","path":"7d9/9a9/7d99a9bbcc9e434d5c8f4a63b6f594e.jpg","date":"2011-03-18","year":2011,"month":3,"lon":12.348804,"lat":43.073746,"tags":"hidden+dream,urban","S2CellId":"009bdc0000000000","result":43,"accuracy":0.02426331}
{"id":10392836625,"url":"http://farm6.staticflickr.com/5527/10392836625_7de4a28405.jpg","path":"5de/4dd/5de4ddb5f8ec73483e9485173875c2.jpg","date":"2013-10-20","year":2013,"month":10,"lon":12.661875,"lat":43.663902,"tags":"driver,fermignano,gare,motocross,mx,piloti,race,regional,regionale","S2CellId":"132c400000000000","result":1049,"accuracy":0.9181236,"title":"0270-_DSC0279"}
{"id":6888759196,"url":"http://farm8.staticflickr.com/7238/6888759196_09ac7f7780.jpg","path":"84a/313/84a313f68e11e1b922a1e76043a336aa.jpg","date":"2012-03-31","year":2012,"month":3,"lon":12.372475,"lat":43.113865,"tags":"bomber,calciatore,calcio,italia,perugia,umbria","S2CellId":"89c2f61000000000","result":9109,"accuracy":0.098737106,"title":"Il+Bomber_08+%5B_MB85433_31.03.12%5D.jpg"}
{"id":83100401,"url":"http://farm1.staticflickr.com/39/83100401_fc30a70fe9.jpg","path":"c6d/f8c/c6df8c95ab57c464c376b9bdd8425f.jpg","date":"2005-04-03","year":2005,"month":4,"lon":12.698789,"lat":43.81318,"tags":"bricks,door,expression,face,horror,italy,marche,montefabbri,scream,terror,walls,windows","S2CellId":"1333000000000000","result":1123,"accuracy":0.1420574,"title":"terrorized"}
{"id":2694935007,"url":"http://farm4.staticflickr.com/3231/2694935007_a3bb7438fc.jpg","path":"7ec/ff4/7ecff4ec31765d8fea6c15b22609d23.jpg","date":"2008-07-19","year":2008,"month":7,"lon":12.684102,"lat":43.96156,"tags":"19luglio08,endurance,etcs,misano,promotor,racing,touringcars","S2CellId":"808f7e3c00000000","result":7029,"accuracy":0.008233468,"title":"DSC_0035","description":"Se+mi+si+rompa+a+me+il+semiasse%2C+ci+mettono+pi%C3%B9+tempo+a+sostituirlo%21+Scommettiamo%3F+%3A-%29"}
{"id":10393448315,"url":"http://farm3.staticflickr.com/2854/10393448315_6dc886f291.jpg","path":"2a4/c2d/2a4c2df1922a9f6a07cccf480e69d27.jpg","date":"2013-10-20","year":2013,"month":10,"lon":12.661875,"lat":43.663902,"tags":"driver,fermignano,gare,motocross,mx,piloti,race,regional,regionale","S2CellId":"132c400000000000","result":1049,"accuracy":0.89465106,"title":"0565-_DSC0246-001"}
{"id":2823778821,"url":"http://farm4.staticflickr.com/3136/2823778821_4a360de193.jpg","path":"669/9fc/6699fcafa8fed6521d4af9662a813b9.jpg","date":"2008-08-30","year":2008,"month":8,"lon":12.612991,"lat":43.072525,"tags":"arch,archi,arco,italia,italy,umbria","S2CellId":"132e900000000000","result":1057,"accuracy":0.22682622,"title":"L%27arco+da+sotto"}
{"id":2765915007,"url":"http://farm4.staticflickr.com/3091/2765915007_1669c70304.jpg","path":"684/fe1/684fe166e946cbc92a62747deaee122.jpg","date":"2008-08-14","year":2008,"month":8,"lon":12.26336,"lat":43.034073,"tags":"400d,animal,animali,animals,beautiful,buffi,cane,cani,canine,canon,cat,chat,chats,chien,chiens,cute,dog,dogs,dolci,funny,furry,gato,gatos,gatti,hund,hunde,italy,katze,katzen,perro,perros,pet,petit,pets,shire,summer,tender,teneri,umbria","S2CellId":"60013c0000000000","result":6413,"accuracy":0.03945118,"title":"Animals"}
{"id":2780520878,"url":"http://farm4.staticflickr.com/3040/2780520878_81c0fc6e85.jpg","path":"761/ad2/761ad24024a3da8f97787f57e3d4069.jpg","date":"2008-07-31","year":2008,"month":7,"lon":12.709947,"lat":43.357105,"tags":"ccw,childrens+chorus+of+washington,comune+di+costacciaro,costacciaro,costaciarro,perugia","S2CellId":"12ca100000000000","result":863,"accuracy":0.044725046,"title":"DSC_7203"}
{"id":3542534922,"url":"http://farm4.staticflickr.com/3566/3542534922_b6ee714d49.jpg","path":"cc8/4a4/cc84a427d89ae3a96293b766a1586123.jpg","date":"2009-05-15","year":2009,"month":5,"lon":12.620887,"lat":43.066917,"tags":"arezzo,assisi,florence,italy,montone,rome,rsu","S2CellId":"47e0c00000000000","result":4528,"accuracy":0.064703435,"title":"Assisi"}
{"id":126483154,"url":"http://farm1.staticflickr.com/48/126483154_9c1604c8cc.jpg","path":"1c3/12e/1c312e65de16b4539638f5c11dc7d67.jpg","date":"2006-04-06","year":2006,"month":4,"lon":12.16615,"lat":43.09085,"tags":"trasimeno,umbrien","S2CellId":"8099900000000000","result":7112,"accuracy":0.066871956,"title":"IMG_0305"}
{"id":408143641,"url":"http://farm1.staticflickr.com/182/408143641_98829e25e4.jpg","path":"582/a93/582a9379e5f23513cab7c4d6f0bd4bfe.jpg","date":"2007-02-05","year":2007,"month":2,"lon":12.380733,"lat":43.115646,"tags":"buildings,italia,italy,perugia,umbria","S2CellId":"132a2c0000000000","result":1011,"accuracy":0.051221766,"title":"IMG_1178","description":"Perugia%2C+Umbria%2C+Italy"}
{"id":9121371793,"url":"http://farm3.staticflickr.com/2855/9121371793_5cdb82d533.jpg","path":"549/7f5/5497f586782ce10ac811450553cc63a.jpg","date":"2013-03-23","year":2013,"month":3,"lon":12.143,"lat":43.571167,"tags":"2013,aboca,arezzo,italia,museo,museum,sansepolcro","S2CellId":"883f400000000000","result":8376,"accuracy":0.040720757,"title":"Aboca"}
{"id":8229517409,"url":"http://farm9.staticflickr.com/8202/8229517409_53190a6f84.jpg","path":"d49/421/d49421be99689ed6a94163742bfccfc.jpg","date":"2012-11-29","year":2012,"month":11,"lon":12.988808,"lat":43.84083,"tags":"nintendo,u,unboxing,wii,wiiu","S2CellId":"808fb74000000000","result":7058,"accuracy":0.00628699,"title":"2012-11-29+14.49.50","description":"Wii+U+unboxing"}
{"id":5008331962,"url":"http://farm5.staticflickr.com/4085/5008331962_24ef5cbee2.jpg","path":"819/965/819965905d282bccc0a3946c34a79c5e.jpg","date":"2010-07-10","year":2010,"month":7,"lon":12.390749,"lat":43.112244,"tags":"daniel+zezelj,jessica+lurie,marjan+stanic","S2CellId":"89c258fb00000000","result":8987,"accuracy":0.1468651,"title":"mostra9"}
{"id":5851497573,"url":"http://farm3.staticflickr.com/2552/5851497573_e884666198.jpg","path":"b6d/3f2/b6d3f28254986d6278c47b8d27ef26c.jpg","date":"2011-05-31","year":2011,"month":5,"lon":12.645613,"lat":43.04682,"tags":"assisi,spello","S2CellId":"864e640000000000","result":7620,"accuracy":0.059595153,"title":"20110531_Assisi_to_Spello_006-1","description":"walking+from+Assisi+to+Spello"}
{"id":9323646357,"url":"http://farm4.staticflickr.com/3696/9323646357_a882fe7293.jpg","path":"97d/bb5/97dbb5379b6c2271d6ab454c63ba35.jpg","date":"2013-07-19","year":2013,"month":7,"lon":12.7745,"lat":43.942665,"tags":"festival,gradara,italia,italien","S2CellId":"0d1ecb0000000000","result":244,"accuracy":0.08164217,"title":"Gradara"}
{"id":3049787067,"url":"http://farm4.staticflickr.com/3047/3049787067_cbb08ac904.jpg","path":"455/fc5/455fc5d53fa35845e963709f704327de.jpg","date":"2008-11-22","year":2008,"month":11,"lon":12.621188,"lat":43.06688,"tags":"2003,400+iso,ds,ilford,olympus+om10,pace,perugia+assisi,politics,sinistra+giovanile","S2CellId":"94cc400000000000","result":9693,"accuracy":0.06395659,"title":"peace+walking"}
{"id":4653814803,"url":"http://farm5.staticflickr.com/4003/4653814803_af8d6d41b6.jpg","path":"694/331/694331d98991ad5d9db1caddb6b2bcbe.jpg","date":"2010-05-30","year":2010,"month":5,"lon":12.567994,"lat":43.350056,"tags":"1906,2010,alma,barbetti,blogspot,blu,c,c2,calcio,ceri,corsa,dei,divisione,fano,football,forza,forzaalma,gigi,granata,gubbio,italia,juventus,lega,mancini,mauro,off,offs,perugia,pietro,play,playoff,playoffs,pro,ritorno,rosso,rossoblu,sandreani,seconda,semifinale,semifinali,serie,simoni,stadio,torrente,umbria,vincenzo","S2CellId":"0d4f900000000000","result":425,"accuracy":0.18040618,"title":"Gubbio+-+Fano%3A+2+-+1","description":"%3Ca+href%3D%22http%3A%2F%2Fforzaalma.blogspot.com%22+rel%3D%22nofollow%22%3Eforzaalma.blogspot.com%3C%2Fa%3E%0A%3Ca+href%3D%22http%3A%2F%2Fflickr.com%2Fphotos%2Fforzaalma%22%3Eflickr.com%2Fphotos%2Fforzaalma%3C%2Fa%3E%0A%3Ca+href%3D%22http%3A%2F%2Fit.youtube.com%2Fforzaalmawebtv%22+rel%3D%22nofollow%22%3Eit.youtube.com%2Fforzaalmawebtv%3C%2Fa%3E%0A%3Ca+href%3D%22http%3A%2F%2Fwww.facebook.com%2Fforzaalma%22+rel%3D%22nofollow%22%3Ewww.facebook.com%2Fforzaalma%3C%2Fa%3E%0A%3Ca+href%3D%22http%3A%2F%2Ftwitter.com%2Fforzaalma%22+rel%3D%22nofollow%22%3Etwitter.com%2Fforzaalma%3C%2Fa%3E%0A%3Ca+href%3D%22http%3A%2F%2Ffriendfeed.com%2Fforzaalma%22+rel%3D%22nofollow%22%3Efriendfeed.com%2Fforzaalma%3C%2Fa%3E"}
{"id":5020834208,"url":"http://farm5.staticflickr.com/4130/5020834208_f6c32b8efd.jpg","path":"32a/250/32a2501fec2153188ee1b9b3c994c71.jpg","date":"2010-09-24","year":2010,"month":9,"lon":12.387342,"lat":43.109253,"tags":"europe,friends,italy,perugia","S2CellId":"132cf00000000000","result":1053,"accuracy":0.086927205,"title":"Perugia"}
{"id":10393144966,"url":"http://farm3.staticflickr.com/2870/10393144966_baed55c9ac.jpg","path":"499/53d/49953d25ea40ae4f8caed44d537da2da.jpg","date":"2013-10-20","year":2013,"month":10,"lon":12.661875,"lat":43.663902,"tags":"driver,fermignano,gare,motocross,mx,piloti,race,regional,regionale","S2CellId":"132c400000000000","result":1049,"accuracy":0.9691827,"title":"0401-_DSC0075-001"}
{"id":7053207381,"url":"http://farm8.staticflickr.com/7079/7053207381_549e429024.jpg","path":"824/adf/824adfe063121782456b14d9fddc2d8.jpg","date":"2012-04-07","year":2012,"month":4,"lon":12.978222,"lat":43.545734,"tags":"country,countryside,field,grass,italy,landscape,morning,nature,spring,sunrise","S2CellId":"47edc00000000000","result":4703,"accuracy":0.05137705,"title":"Early+in+the+morning","description":"On+my+blog+%3Ca+href%3D%22http%3A%2F%2Fmusicphotographer.eu%2Fblog%2F818%2Fqualche-scatto-dallitalia.html%22+rel%3D%22nofollow%22%3Emusicphotographer.eu%2Fblog%2F818%2Fqualche-scatto-dallitalia.html%3C%2Fa%3E"}
{"id":6026665179,"url":"http://farm7.staticflickr.com/6072/6026665179_5c5fd409f2.jpg","path":"244/12f/24412fc585b62a73916aff8abfb4ab83.jpg","date":"2011-08-09","year":2011,"month":8,"lon":12.456495,"lat":43.54258,"tags":"2011,apecchio,holiday,italie,italy,marche,summer,zomervakantie","S2CellId":"4742c00000000000","result":3285,"accuracy":0.019103643,"title":"The+BBQ+Guru"}
{"id":1350163903,"url":"http://farm2.staticflickr.com/1005/1350163903_9f5d229496.jpg","path":"dc5/41e/dc541e931cf029a746a4db219ba989.jpg","date":"2006-10-06","year":2006,"month":10,"lon":12.389571,"lat":43.10798,"tags":"aiap,loveleft,perugia","S2CellId":"47e61d1d00000000","result":4562,"accuracy":0.016314587,"title":"varie+066.jpg"}
{"id":3905023414,"url":"http://farm3.staticflickr.com/2548/3905023414_6b9f6b0770.jpg","path":"53f/236/53f236b73efede382f3d3585487761.jpg","date":"2009-07-13","year":2009,"month":7,"lon":12.650424,"lat":43.063675,"tags":"assisi,carceri,eremo+delle+carceri","S2CellId":"4716440000000000","result":3207,"accuracy":0.045384027,"title":"20090713_Eremo+delle+Carceri_041"}
{"id":5115582751,"url":"http://farm2.staticflickr.com/1356/5115582751_cc668f3f4f.jpg","path":"8bf/583/8bf5836d716f50997727b88d3616251e.jpg","date":"2010-10-24","year":2010,"month":10,"lon":12.7116,"lat":43.938713,"tags":"2010,flea+market,italia,italy,mercatino,october,san+giovanni+in+marignano","S2CellId":"48718ec000000000","result":5061,"accuracy":0.03451825,"title":"watch+repairing+tools"}
{"id":2024056381,"url":"http://farm3.staticflickr.com/2249/2024056381_19d355c2cc.jpg","path":"a47/f45/a47f45052154c550ea3590826b698.jpg","date":"2007-11-13","year":2007,"month":11,"lon":12.904676,"lat":43.92319,"tags":"artificial,car,decay,eyes,face,handle,light,night,rust,screw,shadow,smile,smiley,yellow","S2CellId":"80c8c34000000000","result":7230,"accuracy":0.0025925161,"title":"puzzled+alien"}
{"id":2664542352,"url":"http://farm4.staticflickr.com/3196/2664542352_78a932372c.jpg","path":"cfc/89f/cfc89f44a19d797c193183bb2fe3066.jpg","date":"2008-07-05","year":2008,"month":7,"lon":12.687444,"lat":43.68508,"tags":"cloud,gold,grass,idyll,italy,le+marche,light,sunset,urbino,wheat","S2CellId":"4871500000000000","result":5036,"accuracy":0.005668288,"title":"lazy+days","description":"I%27m+just+back+from+a+couple+of+weeks+holiday+in+Italy.+Loads+of+photos+to+come%2C+but+here%27s+one+that+I+particularly+like."}
{"id":4973007941,"url":"http://farm5.staticflickr.com/4090/4973007941_d4d75836d9.jpg","path":"64c/edd/64ceddd3215097ef17a0519943756c99.jpg","date":"2010-07-13","year":2010,"month":7,"lon":12.606225,"lat":43.074703,"tags":"2010,art,assisi,bildhauerei,canoneos7d,deu,deutschland,italien,kirche,kunst,sculpture,skulptur,wolfenbuettel","S2CellId":"132e900000000000","result":1057,"accuracy":0.22825935,"title":"2010-07-13T17_14_37.JPG","description":"Assisi+-+Italien%2FItaly%2FItalia%0ABasilika%2FBasilica+di+S.+Francesco"}
{"id":8212834098,"url":"http://farm9.staticflickr.com/8349/8212834098_5688e089f4.jpg","path":"c29/391/c293914c55ff3c4ab9601c37a932a.jpg","date":"2011-08-21","year":2011,"month":8,"lon":12.138347,"lat":43.574173,"tags":"art,arte,italia,italy,renaissance,rinascimento,sansepolcro,strada,street,toscana,tuscany,vicolo","S2CellId":"132a2c0000000000","result":1011,"accuracy":0.12404885,"title":"Sansepolcro+7","description":"OLYMPUS+DIGITAL+CAMERA"}
{"id":281620090,"url":"http://farm1.staticflickr.com/118/281620090_29d06cd83f.jpg","path":"549/e40/549e4078c9bdf09a6adcbd9abf1b60f5.jpg","date":"2006-08-31","year":2006,"month":8,"lon":12.568359,"lat":43.358635,"tags":"2006,gubbio,italia,italie,italien,italy,umbria","S2CellId":"12d5840000000000","result":920,"accuracy":0.2951823,"title":"Gubbio","description":"Gubbio%2C+settembre+2006"}
{"id":4682397516,"url":"http://farm5.staticflickr.com/4006/4682397516_1d58269db1.jpg","path":"e1f/ef6/e1fef6e1f63827cbbd92c6f4f2b3f3f.jpg","date":"2010-04-14","year":2010,"month":4,"lon":12.614021,"lat":43.073902,"tags":"assisi,bettona,bevagna,broveran,chiese,europa,foligno,gualdotadino,gubbio,italia,monasteri,montefalco,montesubasio,perugia,spello,spoleto,terrevicine,trevi,umbria,vagabondiamo,viaggi","S2CellId":"46524c0000000000","result":2849,"accuracy":0.04514704,"title":"Assisi","description":"San+Damiano"}
{"id":278106609,"url":"http://farm1.staticflickr.com/114/278106609_b88ed6915d.jpg","path":"64e/2a8/64e2a87c26e68961e3cc5b1e5a940c9.jpg","date":"2006-10-24","year":2006,"month":10,"lon":12.620887,"lat":43.06713,"tags":"2006,italia,italie,italien,italy,umbria","S2CellId":"0d5914f000000000","result":486,"accuracy":0.122957684,"title":"Assisi","description":"Assisi%2C+settembre+2006"}
{"id":442579791,"url":"http://farm1.staticflickr.com/170/442579791_b85b79ebdb.jpg","path":"4db/4e6/4db4e64a9e7883e1b67f4c7dd422762.jpg","date":"2006-07-15","year":2006,"month":7,"lon":12.385303,"lat":43.119835,"tags":"2006,altare,chiesa,coppia,ferieumbria,giorno,interno,italy,matrimonio,monumento,noknownpeople,paolo_cst,perugia,sanmichelearcangelo,umbria,vacanze","S2CellId":"1319ec0000000000","result":982,"accuracy":0.054722458,"title":"13+Interno+tempio+di+S.+Michele+con+matrimonio+-+Perugia","description":"Siamo+capitati+per+caso+nel+bel+mezzo+di+un+matrimonio%21"}
{"id":2823774259,"url":"http://farm4.staticflickr.com/3258/2823774259_02345e84bb.jpg","path":"235/7d8/2357d89bc7e5cc692a25c9b090481b29.jpg","date":"2008-08-30","year":2008,"month":8,"lon":12.612991,"lat":43.072525,"tags":"italia,italy,umbria","S2CellId":"12a6f00000000000","result":767,"accuracy":0.045086686,"title":"geometrie"}
{"id":8545776884,"url":"http://farm9.staticflickr.com/8225/8545776884_60697fef8f.jpg","path":"ade/553/ade553506497142a2fa2e3d1651c66f.jpg","date":"2013-02-17","year":2013,"month":2,"lon":12.621746,"lat":43.074043,"tags":"drumsara+italy+assisi","S2CellId":"132e900000000000","result":1057,"accuracy":0.80681413,"title":"Assisi+Italy+-+38","description":"Looking+back+at+Assisi"}
{"id":2381784444,"url":"http://farm3.staticflickr.com/2024/2381784444_501067a527.jpg","path":"547/2c3/5472c3e57cb2ccf57921c7e41961c45.jpg","date":"2005-09-07","year":2005,"month":9,"lon":12.613806,"lat":43.074207,"tags":"assisi,italia,italian,italy,landscape,sky,umbria,umbrian","S2CellId":"132e900000000000","result":1057,"accuracy":0.2648046,"title":"Assisi%2C+Umbria"}
{"id":4553870463,"url":"http://farm4.staticflickr.com/3110/4553870463_7a155fec61.jpg","path":"1f2/382/1f238289cb7971b22d3e62dee799998.jpg","date":"2010-04-23","year":2010,"month":4,"lon":12.630372,"lat":43.735817,"tags":"comenius,course,grundtvig,ist,llp,taccle,urbino","S2CellId":"808e440000000000","result":7005,"accuracy":0.14600693,"title":"IMG_0893","description":"Finnish+choclates"}
{"id":2510456199,"url":"http://farm3.staticflickr.com/2223/2510456199_b934d72fd4.jpg","path":"4a8/ca6/4a8ca698bd9f4f4b0e2bbe5721283d.jpg","date":"2008-05-19","year":2008,"month":5,"lon":12.905158,"lat":43.913353,"tags":"2008,agrion,friends,hiro,pesaro","S2CellId":"12b6ac0000000000","result":818,"accuracy":0.008755651,"title":"_MG_0386"}
{"id":5186817652,"url":"http://farm2.staticflickr.com/1037/5186817652_8b494685ed.jpg","path":"415/154/415154e1c7266739ff95b19049812023.jpg","date":"2010-08-12","year":2010,"month":8,"lon":12.569046,"lat":43.358635,"tags":"gubbio,holidays,italy,umbria","S2CellId":"479cf00000000000","result":3816,"accuracy":0.053431187,"title":"Gubbio"}
{"id":2765453291,"url":"http://farm4.staticflickr.com/3169/2765453291_92f98ba810.jpg","path":"651/cce/651cce9d3ac6703f491ed37c48945f4.jpg","date":"2008-07-30","year":2008,"month":7,"lon":12.457122,"lat":43.938946,"tags":"august,europe,san+marino,summer","S2CellId":"477fd4b000000000","result":3517,"accuracy":0.11184095,"title":"Modern+sculptures+2"}
{"id":324399602,"url":"http://farm1.staticflickr.com/130/324399602_0d70d537fe.jpg","path":"dc9/23d/dc923dfaaf528466a641aad7f434a.jpg","date":"2006-11-25","year":2006,"month":11,"lon":12.693672,"lat":43.70654,"tags":"antonio+scaramuzzino,autumn,autunnale,autunno,buccia,buccie,chopping+block,fall,forchetta,fork,fruit,fruits,frutta,legna,legno,light,lightning,lights,luce,luci,ombra,ombre,peel,radente,shadow,shadows,silverware,skin,tagliere,wood","S2CellId":"80d94c0000000000","result":7276,"accuracy":0.006101102,"title":"Avanzi"}
{"id":3382781957,"url":"http://farm4.staticflickr.com/3476/3382781957_382731be6a.jpg","path":"2fc/e0d/2fce0dcdaf4f7629e91e263e658376.jpg","date":"2009-03-22","year":2009,"month":3,"lon":12.905158,"lat":43.913353,"tags":"2009,vittoria","S2CellId":"5485500000000000","result":6101,"accuracy":0.38980922,"title":"_MG_0335"}
{"id":198143463,"url":"http://farm1.staticflickr.com/57/198143463_5a67752669.jpg","path":"91e/4e2/91e4e23e9f8fbaef664b1f14d1751ec9.jpg","date":"2006-07-25","year":2006,"month":7,"lon":12.606811,"lat":43.070393,"tags":"santa+maria+degli+angeli","S2CellId":"132e900000000000","result":1057,"accuracy":0.11355713}
{"id":416838486,"url":"http://farm1.staticflickr.com/133/416838486_a5a58faa9e.jpg","path":"611/e95/611e95a2ea64637a9b67a50da3b8b.jpg","date":"2005-10-02","year":2005,"month":10,"lon":12.482056,"lat":43.23432,"tags":"al,associazione+fotografica+posa-b,b%26w,bianco+e+nero,caccia,cinghiale,giampiero+mariottini,italia,italy,umbria","S2CellId":"89c2599900000000","result":9021,"accuracy":0.019913299,"title":"Celebrare"}
{"id":3442641130,"url":"http://farm4.staticflickr.com/3356/3442641130_7895f378fb.jpg","path":"a0e/422/a0e422dd7057317c11e19f9944bdfdb9.jpg","date":"2009-03-15","year":2009,"month":3,"lon":12.594408,"lat":43.93912,"tags":"coriano,marino,rimini,san,savino","S2CellId":"12d2c00000000000","result":896,"accuracy":0.12866181,"title":"0903_San+Savino+e+Valliano_04","description":"San+Marino+nella+foschia+visto+da+San+Savino+%28RN%29"}
{"id":10393734285,"url":"http://farm3.staticflickr.com/2843/10393734285_a7c1b921c4.jpg","path":"bcc/94e/bcc94ea6455eb3d8cd4b56449e650c3.jpg","date":"2013-10-20","year":2013,"month":10,"lon":12.661875,"lat":43.663902,"tags":"driver,fermignano,gare,motocross,mx,piloti,race,regional,regionale","S2CellId":"132c400000000000","result":1049,"accuracy":0.8471104,"title":"0712-_DSC0396"}
{"id":5841090495,"url":"http://farm3.staticflickr.com/2735/5841090495_35c9bc016b.jpg","path":"6d5/f7f/6d5f7f82c84b17de55db249e1b6a1f16.jpg","date":"2011-05-21","year":2011,"month":5,"lon":12.580488,"lat":43.343937,"tags":"assisi,chiesa,della,francis,gubbio,vittorina,wolf","S2CellId":"12d2c00000000000","result":896,"accuracy":0.02434698,"title":"20110521_Gubbio_Chiesa_della_Vittorina_004-1","description":"Gubbio-+Chiesa+della+Vittorina"}
{"id":517638955,"url":"http://farm1.staticflickr.com/244/517638955_124fcb6d94.jpg","path":"21b/96c/21b96c584f4b81fd17d9be8ed8c72bb6.jpg","date":"2007-05-27","year":2007,"month":5,"lon":12.250056,"lat":43.46759,"tags":"athlete,atleta,citt%C3%A0+di+castello+2007,dive,nuoto,partenza,start,swimming,tuffo","S2CellId":"47c5dc0000000000","result":4292,"accuracy":0.06838758,"title":"Bec+50+Stile"}
{"id":5588592003,"url":"http://farm6.staticflickr.com/5264/5588592003_c438e865d3.jpg","path":"2a9/14b/2a914ba41c9a63e7f8f97bb22350ca3a.jpg","date":"2011-04-02","year":2011,"month":4,"lon":12.04374,"lat":43.12379,"tags":"fuoristrada,lc8.org,moto,nonna+raid+2011,viaggi","S2CellId":"12c9100000000000","result":838,"accuracy":0.110301554,"title":"eh%2C+dura+la+vita+senza+la+carota","description":"I+cinghialotti+%28non+ancora%29+nel+fango%0ANonna+Raid+2011%0A%0A%28gugle%29"}
{"id":198137573,"url":"http://farm1.staticflickr.com/77/198137573_2926480716.jpg","path":"17e/6fd/17e6fd14941278d05d3d3b36e1732a25.jpg","date":"2006-07-05","year":2006,"month":7,"lon":12.606811,"lat":43.070393,"tags":"santa+maria+degli+angeli","S2CellId":"132dc00000000000","result":1055,"accuracy":0.06324406}
{"id":3273643809,"url":"http://farm4.staticflickr.com/3453/3273643809_155c9a1d81.jpg","path":"31c/38b/31c38bcdb3c7a1d6b13486be32f4e923.jpg","date":"2009-02-12","year":2009,"month":2,"lon":12.517,"lat":43.38728,"tags":"gubbio","S2CellId":"4cb3c00000000000","result":5851,"accuracy":0.067851715,"title":"monte"}
{"id":8365984516,"url":"http://farm9.staticflickr.com/8516/8365984516_6200941356.jpg","path":"715/db5/715db561c37c83a11de27f6613a1382.jpg","date":"2012-12-24","year":2012,"month":12,"lon":12.387278,"lat":43.108284,"tags":"b%2Fw,perugia,roberto+taddeo,street","S2CellId":"35f0510000000000","result":2366,"accuracy":0.0075010173,"title":"Quello+che+stai+cercando","description":"Francesco+De+Gregori%0A%3Ca+href%3D%22http%3A%2F%2Fwww.youtube.com%2Fwatch%3Fv%3DjE7A4c66DtE%22+rel%3D%22nofollow%22%3Ewww.youtube.com%2Fwatch%3Fv%3DjE7A4c66DtE%3C%2Fa%3E"}
{"id":159390875,"url":"http://farm1.staticflickr.com/51/159390875_200b9d3fda.jpg","path":"7af/19c/7af19c7b79c6e79448461291a876bb5.jpg","date":"2006-05-01","year":2006,"month":5,"lon":12.925586,"lat":43.906487,"tags":"advertising,banner,decay,falling,gentile+da+fabriano,gothic,italy,pesaro,placard,poster,unglued","S2CellId":"9689f00000000000","result":9911,"accuracy":0.0066813636,"title":"%28signs+of+the+times%29+mary%2C+losing+grip"}
{"id":440610465,"url":"http://farm1.staticflickr.com/207/440610465_e20e38bf34.jpg","path":"21a/cd2/21acd2a0c65c1b56834ba2115d53070.jpg","date":"2006-07-13","year":2006,"month":7,"lon":12.392116,"lat":43.112873,"tags":"2006,affresco,altare,cappella,collage,ferieumbria,giorno,interno,iscrizione,italy,latrinit%C3%A0%26isanti,monumento,noknownpeople,nopeople,paolo_cst,perugia,perugino,raffaello,sansevero,umbria,vacanze","S2CellId":"132a540700000000","result":1024,"accuracy":0.044256713,"title":"045+-+Affresco+di+Raffaello+e+del+Perugino"}
{"id":670759231,"url":"http://farm2.staticflickr.com/1315/670759231_9cef3358c7.jpg","path":"43e/51d/43e51d73cc5f19f8ceead96a92329fe7.jpg","date":"2005-11-20","year":2005,"month":11,"lon":12.178516,"lat":43.64266,"tags":"cardco,sansepolcro","S2CellId":"87f9000000000000","result":8063,"accuracy":0.007872079,"title":"Cardo"}
{"id":8178072680,"url":"http://farm9.staticflickr.com/8350/8178072680_63fdbcc620.jpg","path":"673/dec/673dec93f0c3f7dad341c48f38714072.jpg","date":"2012-10-29","year":2012,"month":10,"lon":12.240657,"lat":43.456097,"tags":"aat,cath%C3%A9drale,citta+di+castello,crypte,duomo,italia,italie,lightroom,ombrie,toussaint+2012,umbria","S2CellId":"470b954000000000","result":3172,"accuracy":0.05388172,"title":"L%27%C3%A9trange+crypte"}
{"id":2770981688,"url":"http://farm4.staticflickr.com/3048/2770981688_72b2ff9fb5.jpg","path":"bee/c16/beec16ca85ecd1fa1a32e2ee5048fc.jpg","date":"2008-08-14","year":2008,"month":8,"lon":12.142961,"lat":43.56984,"tags":"italy","S2CellId":"479e758b00000000","result":3846,"accuracy":0.03210546,"title":"20080814494"}
{"id":4669785982,"url":"http://farm5.staticflickr.com/4067/4669785982_d0a1f80f7e.jpg","path":"c74/a58/c74a589f82dd44a1ba51da73a3ea42c7.jpg","date":"2010-04-12","year":2010,"month":4,"lon":12.614021,"lat":43.073902,"tags":"assisi,bettona,bevagna,broveran,chiese,eremo,europa,foligno,gualdotadino,gubbio,italia,monasteri,montefalco,montesubasio,perugia,spello,spoleto,terrevicine,trevi,umbria,vagabondiamo,viaggi","S2CellId":"47e66e26c0000000","result":4607,"accuracy":0.07645186,"title":"Assisi"}
{"id":2855611101,"url":"http://farm4.staticflickr.com/3291/2855611101_a9a27df32b.jpg","path":"4ab/6f4/4ab6f4ae38e024fa7c3b534a74d89a.jpg","date":"2007-09-18","year":2007,"month":9,"lon":12.165813,"lat":43.122036,"tags":"andrea,barche,boats,hdr,italia,italy,lago,lake,nikon,p5000,pano,panoramic,panoramica,san+feliciano,spettacolopuro,umbria","S2CellId":"478e100000000000","result":3675,"accuracy":0.05321805,"title":"abandoned+colors","description":"San+Feliciano%2C+Umbria%2C+Italy%0A%0ASEP+07%0A%0ANikon+P5000"}
{"id":5415776675,"url":"http://farm5.staticflickr.com/4152/5415776675_d236df54a5.jpg","path":"dc1/4b8/dc14b83c0a9f99964ec0cb25258539.jpg","date":"2005-07-09","year":2005,"month":7,"lon":12.195167,"lat":43.16772,"tags":"castle+il+borgia,europe,italy,perugia","S2CellId":"0d42100000000000","result":347,"accuracy":0.082838036,"title":"IMG_1795+Castle+Il+Borgia+driveway"}
{"id":11167815975,"url":"http://farm6.staticflickr.com/5476/11167815975_498a37d6c0.jpg","path":"7cf/89d/7cf89df8f4aaf1b9d53d233a06d598e.jpg","date":"2013-12-02","year":2013,"month":12,"lon":12.007713,"lat":43.96507,"tags":"instagram+app,iphoneography,square,square+format","S2CellId":"0716c00000000000","result":92,"accuracy":0.021872707,"title":"Tema%3A+%C3%A8+dicembre.+%7C+%23gruppovacanzeappennino"}
{"id":6492988293,"url":"http://farm8.staticflickr.com/7158/6492988293_66917e82fa.jpg","path":"6f9/e67/6f9e6777a523865a1a5e6f7836ef18e.jpg","date":"2010-05-22","year":2010,"month":5,"lon":12.804876,"lat":43.68906,"tags":"arch,architecture,church,dark,distortion,double,fossombrone,windows","S2CellId":"132cf00000000000","result":1053,"accuracy":0.10208677,"title":"one+more+here"}
{"id":13902437651,"url":"http://farm8.staticflickr.com/7112/13902437651_511b680ebc.jpg","path":"bc9/d99/bc9d99b5fe31fd07fb3f93dc8a20.jpg","date":"2014-04-18","year":2014,"month":4,"lon":12.573419,"lat":43.352943,"tags":"hipstamatic,lente+watts,pellicole+w40","S2CellId":"950c000000000000","result":9776,"accuracy":0.023706684,"title":"Ape+in+meditazione+%23Gubbio+%23Umbria+%23italy+%23car+%23instalike+%23instapic+%23instamood+%23instagallery+%23travel+%23spring"}
{"id":7175075352,"url":"http://farm8.staticflickr.com/7238/7175075352_96a87d54a8.jpg","path":"ed7/39f/ed739f439fd442c7916583bc5099a0.jpg","date":"2012-04-29","year":2012,"month":4,"lon":12.619194,"lat":43.071316,"tags":"assisi,events,italien,toskana+2012,umbria,umbrien,urlaub","S2CellId":"132e900000000000","result":1057,"accuracy":0.17837515,"title":"Assisi","description":"Toskana+Urlaub+2012"}
{"id":10395270463,"url":"http://farm8.staticflickr.com/7320/10395270463_dd155f8f76.jpg","path":"c52/b79/c52b79a99c73492d6c4d9aa8fab340c.jpg","date":"2013-10-20","year":2013,"month":10,"lon":12.661875,"lat":43.663902,"tags":"driver,fermignano,gare,motocross,mx,piloti,race,regional,regionale","S2CellId":"132c400000000000","result":1049,"accuracy":0.9266499,"title":"1382-DSCF0198"}
{"id":1351046956,"url":"http://farm2.staticflickr.com/1379/1351046956_8b8a4a708d.jpg","path":"adb/0d2/adb0d2861b574f9cb1c461146c851fd.jpg","date":"2006-10-06","year":2006,"month":10,"lon":12.389571,"lat":43.10798,"tags":"aiap,loveleft,perugia","S2CellId":"477eae3000000000","result":3462,"accuracy":0.0046842988,"title":"varie+064.jpg"}
{"id":5192389018,"url":"http://farm5.staticflickr.com/4153/5192389018_b1a6b31d18.jpg","path":"bea/321/bea3210bc97e270b021d25adab54d2b.jpg","date":"2010-08-17","year":2010,"month":8,"lon":12.612047,"lat":43.070312,"tags":"assisi,italy,restaurant,umbria","S2CellId":"132e900000000000","result":1057,"accuracy":0.29638115,"title":"Restaurant+Assisi"}
{"id":10392553496,"url":"http://farm3.staticflickr.com/2864/10392553496_3651047f61.jpg","path":"7c1/015/7c10150f45ff9ff289f31a14bb57a1.jpg","date":"2013-10-20","year":2013,"month":10,"lon":12.661875,"lat":43.663902,"tags":"driver,fermignano,gare,motocross,mx,piloti,race,regional,regionale","S2CellId":"132c400000000000","result":1049,"accuracy":0.9427091,"title":"0104-_DSC0108"}
{"id":2860982786,"url":"http://farm4.staticflickr.com/3058/2860982786_1b818d2d5b.jpg","path":"bdf/a65/bdfa65448a1a6734597ee13e1cda9cd.jpg","date":"2008-09-11","year":2008,"month":9,"lon":12.043762,"lat":43.13165,"tags":"cortona,cortona+2008,pd,summer+school,summer+school+pd","S2CellId":"87c5000000000000","result":7979,"accuracy":0.014690856,"title":"IMG_2695"}
{"id":4805269752,"url":"http://farm5.staticflickr.com/4076/4805269752_96182b5583.jpg","path":"a73/4e7/a734e71966d74b184cab73c948fedf5d.jpg","date":"2010-07-11","year":2010,"month":7,"lon":12.146469,"lat":43.4751,"tags":"2010,alexanor,celle,di,italia,italie,koninginnenpage,la,papilio,torre,umbria,umbrie,zuidelijke","S2CellId":"88d0a631cabb5071","result":8563,"accuracy":0.016099606,"title":"Alexanor"}
{"id":5381290481,"url":"http://farm6.staticflickr.com/5044/5381290481_07bfb47e71.jpg","path":"30e/c43/30ec437074f42a5f649a8941e6c3d63.jpg","date":"2011-01-23","year":2011,"month":1,"lon":12.349233,"lat":43.07359,"tags":"quintorigo,urban","S2CellId":"89e3775000000000","result":9330,"accuracy":0.22508422,"title":"23012011-DSC_0127"}
{"id":8586113320,"url":"http://farm9.staticflickr.com/8512/8586113320_f2c1d06d84.jpg","path":"f48/964/f48964cc80823a9e8e3a6edb53a1a91.jpg","date":"2013-03-22","year":2013,"month":3,"lon":12.439055,"lat":43.93851,"tags":"city+of+san+marino,monte+titano","S2CellId":"0d36100000000000","result":308,"accuracy":0.21132459,"title":"View+from+Monte+Titano%2C+City+of+San+Marino","description":"You+are+free+to+use+this+image+under+a+Creative+Commons+license+on+condition+you+include+a+link+to+%3Ca+href%3D%22http%3A%2F%2Fwww.bbmexplorer.com%22+rel%3D%22nofollow%22%3Ewww.bbmexplorer.com%3C%2Fa%3E"}
{"id":229954080,"url":"http://farm1.staticflickr.com/84/229954080_7e01e91422.jpg","path":"ee9/b3e/ee9b3ebc96f01c5cafd237432fab417.jpg","date":"2006-08-19","year":2006,"month":8,"lon":12.833747,"lat":43.898758,"tags":"antonio+scaramuzzino,autostrada,casello,color,colori,hue,mirror,mirrors,pesaro,reflex,riflessi,specchi,specchio","S2CellId":"8620a5c000000000","result":7508,"accuracy":0.011395846}
{"id":6852114715,"url":"http://farm8.staticflickr.com/7171/6852114715_62b0b52112.jpg","path":"491/e27/491e27d11672dba8282d3f97ad64bf5.jpg","date":"2012-02-10","year":2012,"month":2,"lon":12.401247,"lat":43.05644,"tags":"garden,giardino,neve,riccio,snow","S2CellId":"4cb8910000000000","result":5863,"accuracy":0.040594857,"title":"Ogni+riccio+un+capriccio"}
{"id":12203289855,"url":"http://farm4.staticflickr.com/3702/12203289855_4cd77404e9.jpg","path":"e5c/2bd/e5c2bd9fa88161e55e6547662f205feb.jpg","date":"2014-01-28","year":2014,"month":1,"lon":12.988594,"lat":43.840538,"tags":"4,playstation,playstation4,ps4,sony,unboxing","S2CellId":"6018894000000000","result":6464,"accuracy":0.0052326107,"title":"IMG_20140128_190732","description":"ps4+unboxing+2%2F27"}
{"id":5439906600,"url":"http://farm6.staticflickr.com/5060/5439906600_8a2bae9cc0.jpg","path":"d3d/b10/d3db10dcf52cca41fe6c4c7d8720f2d.jpg","date":"2011-02-11","year":2011,"month":2,"lon":12.584873,"lat":43.35352,"tags":"benessere+in+umbria,park+hotel+ai+cappuccini,vacanze+in+umbria","S2CellId":"132e900000000000","result":1057,"accuracy":0.19364472,"title":"Park+Hotel+ai+Cappuccini+-+Monastero+restaurato","description":"%3Ca+href%3D%22http%3A%2F%2Fwww.centribenessereinumbria.com%2F%22+rel%3D%22nofollow%22%3EScopri+il+benessere+in+Umbria%3C%2Fa%3E"}
{"id":5457170946,"url":"http://farm6.staticflickr.com/5259/5457170946_7383e77264.jpg","path":"e1a/d26/e1ad267e2da8a5c473703342d3c0d351.jpg","date":"2011-02-10","year":2011,"month":2,"lon":12.41043,"lat":43.00063,"tags":"deruta%2Cil+parco,italy,perugia,sheeva","S2CellId":"8620a4c000000000","result":7506,"accuracy":0.17158592,"title":"Sheeva+DSCF4229"}
{"id":6814035027,"url":"http://farm8.staticflickr.com/7006/6814035027_bdc8791dee.jpg","path":"66c/83b/66c83b03e53b2b5c6fdfc445a04f41.jpg","date":"2011-10-15","year":2011,"month":10,"lon":12.634255,"lat":43.72573,"tags":"italy,marche,palazzo+ducale,urbino","S2CellId":"89b7b82c00000000","result":8884,"accuracy":0.11646512,"title":"FE+DVX"}
{"id":3265604733,"url":"http://farm4.staticflickr.com/3460/3265604733_fdd3dfeb51.jpg","path":"6f8/ba8/6f8ba8aa1073917283a8a9b9d1ed5744.jpg","date":"2009-02-07","year":2009,"month":2,"lon":12.35,"lat":43.9,"tags":"italy,panorama,san_leo,travel","S2CellId":"132cf00000000000","result":1053,"accuracy":0.09579374}
{"id":5816137520,"url":"http://farm3.staticflickr.com/2314/5816137520_b78935696a.jpg","path":"99d/9fe/99d9fe18b33786b03be3132d7ae0d0b.jpg","date":"2011-06-06","year":2011,"month":6,"lon":12.908763,"lat":43.338593,"tags":"fabriano,taverna+da+ivo","S2CellId":"87cf400000000000","result":7989,"accuracy":0.015150345,"title":"Visit+to+Indesit+HQ+and+Service+Contact+Centre"}
{"id":10394655546,"url":"http://farm6.staticflickr.com/5515/10394655546_cd62df1a6b.jpg","path":"91e/cea/91ecea1eec5acd75d54c9d451f55025.jpg","date":"2013-10-20","year":2013,"month":10,"lon":12.661875,"lat":43.663902,"tags":"driver,fermignano,gare,motocross,mx,piloti,race,regional,regionale","S2CellId":"132c400000000000","result":1049,"accuracy":0.8507576,"title":"1142-_DSC0082-003"}
{"id":2766741602,"url":"http://farm4.staticflickr.com/3132/2766741602_4960e13e4d.jpg","path":"f1c/59e/f1c59ef51db38785b3c66fdf14ea6b8.jpg","date":"2008-08-14","year":2008,"month":8,"lon":12.26336,"lat":43.034073,"tags":"400d,animal,animali,animals,beautiful,buffi,cane,cani,canine,canon,cat,chat,chats,chien,chiens,cute,dog,dogs,dolci,funny,furry,gato,gatos,gatti,hund,hunde,italy,katze,katzen,perro,perros,pet,petit,pets,shire,summer,tender,teneri,umbria","S2CellId":"132dc00000000000","result":1055,"accuracy":0.03711039,"title":"Animals"}
{"id":8444790030,"url":"http://farm9.staticflickr.com/8362/8444790030_98911cb573.jpg","path":"f39/fcc/f39fcc1bebd88d4c26f1560687050cf.jpg","date":"2013-02-03","year":2013,"month":2,"lon":12.657166,"lat":43.98733,"tags":"02%2F02%2F2013,alex+neri,dj+philip,luckyassembler,luckyattitude,titilla,vj","S2CellId":"809f000000000000","result":7130,"accuracy":0.017127195,"title":"L%40Titilla+02%2F02%2F2013","description":"02%2F02%2F2013+Titilla%3A+Alex+Neri+%2F%2F+Philip+%0A%3Ca+href%3D%22http%3A%2F%2Fwww.luckyassembler.com%22+rel%3D%22nofollow%22%3Ewww.luckyassembler.com%3C%2Fa%3E"}
{"id":10393739714,"url":"http://farm3.staticflickr.com/2862/10393739714_f9c9c80a42.jpg","path":"a2a/815/a2a8153ecd3d243880f22c431d2c1a0.jpg","date":"2013-10-20","year":2013,"month":10,"lon":12.661875,"lat":43.663902,"tags":"driver,fermignano,gare,motocross,mx,piloti,race,regional,regionale","S2CellId":"132c400000000000","result":1049,"accuracy":0.9830524,"title":"0715-_DSC0399"}
{"id":2691167746,"url":"http://farm4.staticflickr.com/3019/2691167746_906e655dde.jpg","path":"972/7c0/9727c0133ed13fb4a8d93014e789b9f5.jpg","date":"2008-07-19","year":2008,"month":7,"lon":12.684102,"lat":43.96156,"tags":"19luglio08,6+ore+di+misano,endurance,etcs,misano,pista,racing","S2CellId":"865b4c0000000000","result":7652,"accuracy":0.03516273,"title":"DSC_0193","description":"No%2C+proprio+non+lo+%C3%A8..."}
{"id":905192178,"url":"http://farm2.staticflickr.com/1186/905192178_41a1ca6c73.jpg","path":"903/5a4/9035a4ed9d50804994d65df043ca9023.jpg","date":"2005-01-14","year":2005,"month":1,"lon":12.565741,"lat":43.94502,"tags":"acqua,aracnide,insetto,ragno,rugiada,spider,tela,umidit%C3%A0,web","S2CellId":"4719000000000000","result":3230,"accuracy":0.002243322,"title":"ragnatela%2C+spider+web","description":"classica+tenda+di+ragnatela+imperlata+di+rugiada"}
{"id":10393728203,"url":"http://farm8.staticflickr.com/7379/10393728203_5a620d6c3f.jpg","path":"4d5/c44/4d5c449586696f4227c989524e61ed91.jpg","date":"2013-10-20","year":2013,"month":10,"lon":12.661875,"lat":43.663902,"tags":"driver,fermignano,gare,motocross,mx,piloti,race,regional,regionale","S2CellId":"132c400000000000","result":1049,"accuracy":0.9764649,"title":"0612-_DSC0293-001"}
{"id":7055081729,"url":"http://farm8.staticflickr.com/7110/7055081729_f87b3d81b5.jpg","path":"6ed/12c/6ed12c356e9942cae08be9a25f5ef25.jpg","date":"2011-09-02","year":2011,"month":9,"lon":12.686548,"lat":43.96306,"tags":"gp+de+san+marino,italy,misano,motogp,nicky+hayden,sean+rowe,valentino+rossi,world+championships","S2CellId":"12a4b90000000000","result":749,"accuracy":0.30214667,"title":"MotoGP%2C+Misano%2C+2011","description":"Pictures+taken+over+the+motogp+weekend+in+Misano%2CItaly+in++September+2011"}
{"id":2507355746,"url":"http://farm3.staticflickr.com/2179/2507355746_75a66d847e.jpg","path":"6f4/c6c/6f4c6c5022ad4d76390f78bdc435836.jpg","date":"2008-05-18","year":2008,"month":5,"lon":12.057843,"lat":43.12623,"tags":"castiglione,darsena,del,la,lago,live,music,perugia","S2CellId":"48670e8400000000","result":4889,"accuracy":0.011503843}
{"id":10393237895,"url":"http://farm4.staticflickr.com/3767/10393237895_6a3c081231.jpg","path":"f22/ded/f22ded33e65a435fa1327eee49738eaa.jpg","date":"2013-10-20","year":2013,"month":10,"lon":12.661875,"lat":43.663902,"tags":"driver,fermignano,gare,motocross,mx,piloti,race,regional,regionale","S2CellId":"132c400000000000","result":1049,"accuracy":0.61871755,"title":"0460-_DSC0137-001"}
{"id":2765777537,"url":"http://farm4.staticflickr.com/3098/2765777537_1100ca7b39.jpg","path":"379/895/379895c8bfd1fcbccbb3c216fb5dd2bb.jpg","date":"2008-08-15","year":2008,"month":8,"lon":12.574324,"lat":43.353737,"tags":"medioevo,panorami","S2CellId":"132e900000000000","result":1057,"accuracy":0.10770007,"title":"Gubbio","description":"Panorami+da+Colle+Eletto"}
{"id":2235526952,"url":"http://farm3.staticflickr.com/2193/2235526952_3872f6cfa5.jpg","path":"53b/6a1/53b6a1eb9655cadbf347832caad18ae.jpg","date":"2008-01-20","year":2008,"month":1,"lon":12.578251,"lat":43.05746,"tags":"animali,assisi,benedizione,cane,festa,patrono,piatto+di+sant%27antonio,santa+maria+degli+angeli","S2CellId":"4888469000000000","result":5738,"accuracy":0.013462703,"title":"Piatto2008-14.jpg"}
{"id":3382649563,"url":"http://farm4.staticflickr.com/3652/3382649563_61e15a2782.jpg","path":"faf/ae7/fafae7dd7bb352bf388a34329cf47b46.jpg","date":"2009-03-21","year":2009,"month":3,"lon":12.905158,"lat":43.913353,"tags":"2009,vittoria","S2CellId":"89c6c30000000000","result":9145,"accuracy":0.025869157,"title":"_MG_0255"}
{"id":11467234775,"url":"http://farm6.staticflickr.com/5522/11467234775_037777e0f6.jpg","path":"b07/6a8/b076a82cad4dbfca8edac27623c44.jpg","date":"2013-12-15","year":2013,"month":12,"lon":12.821583,"lat":43.486305,"tags":"volti+di+pietra+b%26b","S2CellId":"3724000000000000","result":2419,"accuracy":0.006567481,"title":"Natale+a+Volti+di+Pietra+%3B%29","description":"2013"}
{"id":3542534932,"url":"http://farm3.staticflickr.com/2088/3542534932_70272bda6f.jpg","path":"a3d/2de/a3d2de5f8f6791e5f29d91ff40a0dbda.jpg","date":"2009-05-15","year":2009,"month":5,"lon":12.620887,"lat":43.066917,"tags":"arezzo,assisi,florence,italy,montone,rome,rsu","S2CellId":"12a4a2ff00000000","result":741,"accuracy":0.17852457,"title":"Assisi"}
{"id":6976540598,"url":"http://farm9.staticflickr.com/8165/6976540598_15dcf8a216.jpg","path":"cb4/aa7/cb4aa71f23b3bc8edbb1fba976f3c81.jpg","date":"2012-04-28","year":2012,"month":4,"lon":12.557222,"lat":43.06811,"tags":"b2,b2%2Ff,bastia,bastia+umbra,edilizia,edilizia+passeri,pallavolo,passeri,serie,serie+b2,serie+b2%2Ff,umbra,volley","S2CellId":"4703000000000000","result":3126,"accuracy":0.16502067,"title":"EdPasseriBASTIA-Pagliare_02+%5B_MB86921_28.04.12%5D.jpg","description":"Edilizia+Passeri+Bastia+-+Onsen+Pagliare+-+25a+giornata+regular+season+campionato+italiano+Volley+B2F%2FF"}
{"id":1495564264,"url":"http://farm3.staticflickr.com/2007/1495564264_8d49349ed5.jpg","path":"16b/f25/16bf254ca0373a5ff247fac97716dfb.jpg","date":"2006-10-07","year":2006,"month":10,"lon":12.389571,"lat":43.10798,"tags":"aiap,loveleft,minimetro,perugia","S2CellId":"548ff00000000000","result":6177,"accuracy":0.004336042,"title":"Minimetro"}
{"id":10393815385,"url":"http://farm4.staticflickr.com/3701/10393815385_fd42af45ff.jpg","path":"f6e/36c/f6e36cd3cea0d2f8232cb63b6add9.jpg","date":"2013-10-20","year":2013,"month":10,"lon":12.661875,"lat":43.663902,"tags":"driver,fermignano,gare,motocross,mx,piloti,race,regional,regionale","S2CellId":"132c400000000000","result":1049,"accuracy":0.34110305,"title":"0757-_DSC0011-002"}
{"id":9261911295,"url":"http://farm8.staticflickr.com/7305/9261911295_0de0e54a12.jpg","path":"855/739/85573972e3381edbca81a0b2bdcc7b.jpg","date":"2013-06-30","year":2013,"month":6,"lon":12.475705,"lat":43.97035,"tags":"coppa+comen,mediterranean+cup,nuoto,rep.+san+marino,swimming","S2CellId":"12a4a27400000000","result":715,"accuracy":0.16039014,"title":"DSC_3510","description":"Coppa+Comen+%28domenica%29+con+vaporidicloro++%28ph.Felix%29"}
{"id":5152042336,"url":"http://farm2.staticflickr.com/1432/5152042336_733f222ebf.jpg","path":"f98/aec/f98aec4efbce14696ae268c0e39d9e.jpg","date":"2010-10-31","year":2010,"month":10,"lon":12.205939,"lat":43.14244,"tags":"%E3%83%9E%E3%82%B8%E3%83%A7%E3%83%BC%E3%83%8D,%E3%83%AD%E3%83%BC%E3%82%BF%E3%82%B9%E3%83%BB%E3%82%A8%E3%83%AA%E3%83%BC%E3%82%BC,autodromo+dell+umbria,canon+10+22+f%2F3.5+-+4.5+ums,elise,grantuking+photo,lotus,lotus+dirvers+trophy,magione","S2CellId":"4781700000000000","result":3532,"accuracy":0.06380967,"title":"Lotus+Drivers+Trophy","description":"Grantuking+for+%3Ca+href%3D%22http%3A%2F%2Fwww.lotus-drivers.it%2Fcontent.php%22+rel%3D%22nofollow%22%3E+Lotus+Drivers%3C%2Fa%3E"}
{"id":2766758838,"url":"http://farm4.staticflickr.com/3060/2766758838_3b42505c00.jpg","path":"e28/50a/e2850acc6f45796914b38c5e01cc845.jpg","date":"2008-08-14","year":2008,"month":8,"lon":12.26336,"lat":43.034073,"tags":"animali,cat,chat,chats,cute,funny,gato,gatos,gatti,italy,katze,katzen,pet,petit,pets,shire,summer,tender,umbria","S2CellId":"5490d00000000000","result":6226,"accuracy":0.10130362,"title":"Animals"}
{"id":8491103811,"url":"http://farm9.staticflickr.com/8368/8491103811_348a688e87.jpg","path":"5a9/aa7/5a9aa718e899283c16a42c6bc50c8.jpg","date":"2013-02-20","year":2013,"month":2,"lon":12.384349,"lat":43.11119,"tags":"lonely,stone,walk","S2CellId":"4651000000000000","result":2842,"accuracy":0.0025207885,"title":"Sitting+stone"}
{"id":9873576094,"url":"http://farm3.staticflickr.com/2809/9873576094_98aaefd699.jpg","path":"898/386/89838665608249255aead799a33cd3.jpg","date":"2013-03-08","year":2013,"month":3,"lon":12.821583,"lat":43.486305,"tags":"campagna,marche,sassoferrato,volti+di+pietra+b%26b,voltidipietra","S2CellId":"89b4400000000000","result":8820,"accuracy":0.112719856,"title":"I+lavori+del+wannaberural"}
{"id":10393617244,"url":"http://farm3.staticflickr.com/2842/10393617244_be11a162f0.jpg","path":"77a/c54/77ac54bbf7f91796707d4a77847ef4.jpg","date":"2013-10-20","year":2013,"month":10,"lon":12.661875,"lat":43.663902,"tags":"driver,fermignano,gare,motocross,mx,piloti,race,regional,regionale","S2CellId":"132c400000000000","result":1049,"accuracy":0.6787337,"title":"0653-_DSC0337-001"}
{"id":2465223225,"url":"http://farm4.staticflickr.com/3124/2465223225_fe92e16d42.jpg","path":"752/1b8/7521b8e045b0d8a14d4c5c7652636752.jpg","date":"2008-05-01","year":2008,"month":5,"lon":12.872886,"lat":43.29832,"tags":"marche,monte,puro","S2CellId":"46f9000000000000","result":3115,"accuracy":0.022580469,"title":"Monte+Puro%3A+fior+bianco"}
{"id":6394725971,"url":"http://farm8.staticflickr.com/7152/6394725971_5bd009bfb2.jpg","path":"d1d/6f6/d1d6f6661c30c83db4301a2bbbc8b4ca.jpg","date":"2011-06-18","year":2011,"month":6,"lon":12.920265,"lat":43.2892,"tags":"%C3%A9t%C3%A9,amarillo,ancona,azul,berge,bl%C3%A4tter,bleu,blue,blume,celeste,cian,ciel,cielo,clouds,colinas,colline,collines,cyan,estate,feuilles,fiore,fleur,flor,flower,foglie,garden,gelb,giallo,giardino,girasol,girasole,gr%C3%BCn,green,hills,hojas,insect,insectes,insectos,insetto,jard%C3%ADn,jardin,jaune,leaves,nuages,nubes,nuvole,p%C3%A9tale,p%C3%A9talo,paterno,petal,petalo,pflanze,pflanzen,pianta,piantagione,plant,planta,plantaci%C3%B3n,plantation,plante,planting,primavera,printemps,sky,sonnenblume,spring,summer,sunflower,tournesol,verano,verde,vert,yellow","S2CellId":"132dc00000000000","result":1055,"accuracy":0.12305553,"title":"Standing+tall+Sunflower.+-+Paterno+-+Ancona+-+Italy","description":"%C2%A9+This+picture+is+licensed+for+NON+COMMERCIAL+USE+and+may+only+be+used+in+on-line+websites%2C++but+never+by+any+means+printed%2C%0A%E2%80%9C%E2%80%98NonCommercial%E2%80%99+as+defined+in+this+license+specifically+excludes+any+sale+of+this+work+or+any+portion+thereof+for+money%2C+even+if+the+sale+does+not+result+in+a+profit+by+the+seller.%0AYou+may+not+alter+or+transform+this+work%2C+or+use+it+to+create+another.%0AThis+License+is+contingent+upon+Licensee%E2%80%99s+placement+of+the+photo+credit%3A+%E2%80%98Copyright+%3Ca+href%3D%22http%3A%2F%2Fwww.flickr.com%2Fphotos%2Fcastgen%2F6394725971%2Fin%2Fphotostream%2F%22%3Ewww.flickr.com%2Fphotos%2Fcastgen%2F6394725971%2Fin%2Fphotostream%2F%3C%2Fa%3E+%E2%80%9D+adjacent+to+the+Photograph.%0A%0A%C2%A9+LICENZA%3A+Questa+foto+pu%C3%B2+essere+utilizzata+per+uso+NON+COMMERCIALE+e+utilizzata+solo+in+siti+web+on-line%2C+NON+AUTORIZZO+la+stampa+della+foto%2C+%0ANon+puoi+alterare+o+trasformare+quest%27opera%2C+ne%27+usarla+per+crearne+un%27altra.+%22NON+COMMERCIALE+%27+come+definito+nella+presente+licenza+esclude+tutte+le+vendite+di+questo+lavoro+o+parte+di+esso+a+fine+di+lucro%2C+anche+se+la+vendita+non+comporta+un+profitto+diretto+al+venditore.+Questa+licenza+%C3%A8+subordinata+al+collocamento+della+seguente+dicitura%3A++%0APhoto+Credit%3A+%27+Copyright+%3Ca+href%3D%22http%3A%2F%2Fwww.flickr.com%2Fphotos%2Fcastgen%2F6394725971%2Fin%2Fphotostream%2F%22%3Ewww.flickr.com%2Fphotos%2Fcastgen%2F6394725971%2Fin%2Fphotostream%2F%3C%2Fa%3E+%22adiacente+alla+fotografia%E2%80%9D%0A%0A*********************************************************************"}
{"id":11055748195,"url":"http://farm8.staticflickr.com/7333/11055748195_00d746c603.jpg","path":"68e/b79/68eb79c436c17d2d97b18ccb8d9603b.jpg","date":"2011-08-10","year":2011,"month":8,"lon":12.580322,"lat":43.351162,"tags":"gubbio,ita,italy,umbria","S2CellId":"12d5840000000000","result":920,"accuracy":0.45374495,"title":"Nuvole"}
{"id":3744381173,"url":"http://farm3.staticflickr.com/2589/3744381173_5c768a765e.jpg","path":"526/e3f/526e3f6c732df04c4a4658479272f4ed.jpg","date":"2009-07-09","year":2009,"month":7,"lon":12.620973,"lat":43.06707,"tags":"assisi,basilica,francis,italy,pax,st,tau","S2CellId":"1329700000000000","result":1007,"accuracy":0.15633437,"title":"Assisi_0004b"}
{"id":5181368432,"url":"http://farm5.staticflickr.com/4087/5181368432_b069c7776e.jpg","path":"345/9b7/3459b751fe40329d940849e09361ea.jpg","date":"2010-08-07","year":2010,"month":8,"lon":12.239499,"lat":43.458714,"tags":"citta+di+castillla,italy,umbria","S2CellId":"12a3fc0000000000","result":685,"accuracy":0.029919406,"title":"Citta+Di+Castilla","description":"Saturday+Market"}
{"id":5846891460,"url":"http://farm4.staticflickr.com/3373/5846891460_48cf329ec8.jpg","path":"b75/5f1/b755f18b3e99ead7f9c906c1a362891.jpg","date":"2011-05-14","year":2011,"month":5,"lon":12.320591,"lat":43.88711,"tags":"calanchi,calanco,san+leo","S2CellId":"5496c00000000000","result":6278,"accuracy":0.016961658,"title":"2011-05-14.102046","description":"Calanchi+e+Rocca+di+San+Leo+sullo+sfondo"}
{"id":2298211007,"url":"http://farm4.staticflickr.com/3081/2298211007_cc10b42ca7.jpg","path":"3a4/4c3/3a44c311de6d48426dd767fa6685fa.jpg","date":"2008-02-28","year":2008,"month":2,"lon":12.451629,"lat":43.94803,"tags":"italia,san+marino","S2CellId":"132f606500000000","result":1089,"accuracy":0.02663009,"title":"San+Marino06"}
{"id":5496604991,"url":"http://farm6.staticflickr.com/5300/5496604991_ecd2849d6a.jpg","path":"273/9f3/2739f3bc10ae70d8162eb6029a9673b.jpg","date":"2011-03-04","year":2011,"month":3,"lon":12.349233,"lat":43.07359,"tags":"prophilax,urban","S2CellId":"12a4a2f6d0000000","result":734,"accuracy":0.0585939,"title":"04032011-DSC_0245"}
{"id":5847933106,"url":"http://farm4.staticflickr.com/3223/5847933106_d1b401b05c.jpg","path":"556/4bd/5564bdc9f43d97a39b2c21b6ec9ccd3.jpg","date":"2011-05-21","year":2011,"month":5,"lon":12.580605,"lat":43.3522,"tags":"gubbio","S2CellId":"12d5840000000000","result":920,"accuracy":0.22227529,"title":"20110521_Gubbio_views_018","description":"Gubbio"}
{"id":9717129402,"url":"http://farm4.staticflickr.com/3749/9717129402_e604db70c6.jpg","path":"1fd/a05/1fda05118c94fc4f97cbb2f59b7140.jpg","date":"2013-08-07","year":2013,"month":8,"lon":12.821583,"lat":43.486305,"tags":"bedandbreakfast,estate,italy,marche,sassoferrato,summer,travel,viaggi,volti+di+pietra+b%26b,voltidipietra","S2CellId":"0d50400000000000","result":429,"accuracy":0.11566468,"title":"Estate+a+Volti+di+Pietra","description":"2013"}
{"id":360334448,"url":"http://farm1.staticflickr.com/152/360334448_2f6661e732.jpg","path":"5cb/d24/5cbd24e33fd4693862f0adad2e1373.jpg","date":"2006-10-14","year":2006,"month":10,"lon":12.382621,"lat":43.111008,"tags":"+2006,+buildings,+cioccolato,+edifici,+eurochocolate,+gags,+having+fun,+italia,+paesaggio,+street,+umbria,+vicoli,baci,perugia,perugina,stand","S2CellId":"132e900000000000","result":1057,"accuracy":0.08291647,"title":"dolci+Baci+da+Perugia","description":"Eurochocolate+2006%2C%0APerugia+%28PG%29%2C%0AUmbria%2C%0AItaly%0A%5B14.10.2006%5D"}
{"id":3354917399,"url":"http://farm4.staticflickr.com/3292/3354917399_013af90e43.jpg","path":"e35/b45/e35b458cac10645c348638b46919dc88.jpg","date":"2007-06-29","year":2007,"month":6,"lon":12.614509,"lat":43.071247,"tags":"%D0%B0%D1%81%D1%81%D0%B8%D0%B7%D0%B8,%D1%83%D0%BC%D0%B1%D1%80%D0%B8%D1%8F,%D7%90%D7%95%D7%9E%D7%91%D7%A8%D7%99%D7%94,%D8%A3%D8%B3%D9%8A%D8%B2%D9%8A,%D8%A3%D9%88%D9%85%D8%A8%D8%B1%D9%8A%D8%A7,%E3%82%A2%E3%83%83%E3%82%B7%E3%82%B8,%E3%82%A6%E3%83%B3%E3%83%96%E3%83%AA%E3%82%A2%E5%B7%9E,2007,assisi,church+of+santa+maria+sopra+minerva,column,corinthian,corinthian+order,eu,europe,gneus+cesius,italia,italy,minerva,roman,temple,temple+of+minerva,titus+cesius+priscus,travel,umbria,unesco,world+heritage+site","S2CellId":"132e900000000000","result":1057,"accuracy":0.7338116,"title":"IT07+2594+Church+of+Santa+Maria+Sopra+Minerva%2C+Temple+of+Minerva%2C+Assisi"}
{"id":2996660373,"url":"http://farm4.staticflickr.com/3048/2996660373_4ce935db19.jpg","path":"cea/b44/ceab44c482b760378779ccb8553531.jpg","date":"2008-11-02","year":2008,"month":11,"lon":12.905158,"lat":43.913353,"tags":"2008","S2CellId":"88d0a631cabb5071","result":8563,"accuracy":0.023177154,"title":"_MG_0085"}
{"id":6981451636,"url":"http://farm8.staticflickr.com/7133/6981451636_39358f9f38.jpg","path":"143/0f4/1430f4873faa9aee98a3cea4b5f59d2.jpg","date":"2012-04-26","year":2012,"month":4,"lon":12.361679,"lat":43.1075,"tags":"%23ijf12,bilalr,italy,perugia","S2CellId":"132e900000000000","result":1057,"accuracy":0.10455834,"title":"Chocolate"}
{"id":27374959,"url":"http://farm1.staticflickr.com/23/27374959_1cf8805cee.jpg","path":"872/48c/87248c7064f2b4881ce43f9fdba27ba.jpg","date":"2005-07-20","year":2005,"month":7,"lon":12.381248,"lat":43.10474,"tags":"couchersoleil,italie,italy,sunset","S2CellId":"1ed0000000000000","result":1478,"accuracy":0.07298077,"title":"DSC01183"}
{"id":85231161,"url":"http://farm1.staticflickr.com/43/85231161_b4942a7e69.jpg","path":"4c7/2ec/4c72ecc582c4a9984581f73a1a6bfd9.jpg","date":"2005-12-23","year":2005,"month":12,"lon":12.905502,"lat":43.917927,"tags":"pesaro","S2CellId":"12d5840000000000","result":920,"accuracy":0.06260872,"title":"cecchi+2"}
{"id":2734273105,"url":"http://farm4.staticflickr.com/3215/2734273105_2d2c4a4b86.jpg","path":"9e4/a76/9e4a76dac5312527efbf41f5ed6279f2.jpg","date":"2008-08-01","year":2008,"month":8,"lon":12.39571,"lat":43.10035,"tags":"italy,k200d,pentax","S2CellId":"865cf00000000000","result":7669,"accuracy":0.00406738,"title":"IMGP7096","description":"Perugia+-+%0A%0APerugia+-+Friday"}
{"id":8198844991,"url":"http://farm9.staticflickr.com/8070/8198844991_344e61fb92.jpg","path":"723/e37/723e37b394520615f4346bf97a0f4bd.jpg","date":"2012-11-19","year":2012,"month":11,"lon":12.569964,"lat":43.06341,"tags":"instagram+app,iphoneography,square,square+format,valencia","S2CellId":"94ce510000000000","result":9701,"accuracy":0.024429873,"title":"Love+you"}
{"id":2735243528,"url":"http://farm4.staticflickr.com/3246/2735243528_0af2784fcb.jpg","path":"fe5/b15/fe5b15a1d9a6251e3e92a4993c65ca.jpg","date":"2008-08-01","year":2008,"month":8,"lon":12.38893,"lat":43.11251,"tags":"italy,k200d,pentax","S2CellId":"132eb00000000000","result":1058,"accuracy":0.2767695,"title":"IMGP6957","description":"Perugia+-+%0A%0APerugia+-+Friday"}
{"id":3382385412,"url":"http://farm4.staticflickr.com/3583/3382385412_e54323627d.jpg","path":"294/187/29418789d48e587bcac9c64415e3888b.jpg","date":"2009-03-22","year":2009,"month":3,"lon":12.934169,"lat":43.86548,"tags":"blossoms,branches,flowers,italy,nature,novilara,peach,pesaro,pesco,pink,sky,spring,springtime,tree","S2CellId":"60188cc400000000","result":6500,"accuracy":0.021127323,"title":"di+pi%C3%B9","description":"ok%2C+let%27s+take+a+break+and+jump+to+these+days+for+a+second."}
