{"id":2671586451,"url":"http://farm4.staticflickr.com/3213/2671586451_2695ecab95.jpg","path":"c2c/c49/c2cc49e7cc5c126c5e1ab90d41946fe.jpg","date":"2008-04-18","year":2008,"month":4,"lon":-9.769592,"lat":31.512703,"tags":"essaouira,marruecos,playa","S2CellId":"486e900000000000","result":4974,"accuracy":0.08288467,"title":"playa+de+essaouira"}
{"id":4732154571,"url":"http://farm2.staticflickr.com/1156/4732154571_74e11cfb62.jpg","path":"7d3/33e/7d333e36195e3b25207e9c6012204be.jpg","date":"2010-05-04","year":2010,"month":5,"lon":-9.765815,"lat":31.512995,"tags":"bird,birds,essaouira,herring+gull,morocco","S2CellId":"0dad000000000000","result":615,"accuracy":0.019302385,"title":"dsc05823es","description":"Essaouira+-+a+herring+gull%2C+strategically+placed+near+a+man+gutting+fish."}
{"id":13162334745,"url":"http://farm8.staticflickr.com/7079/13162334745_9d2b77680d.jpg","path":"dd2/58c/dd258cd330a8f6e76e8e80c49330e518.jpg","date":"2014-02-25","year":2014,"month":2,"lon":-9.7735,"lat":31.5105,"tags":"maroc,morocco","S2CellId":"0dad000000000000","result":615,"accuracy":0.22162862,"title":"Le+port+de+Essaouira","description":"Morocco"}
{"id":4259269077,"url":"http://farm5.staticflickr.com/4030/4259269077_42391954eb.jpg","path":"a88/7e9/a887e9755c45f2b9825d8e180277d68.jpg","date":"2009-12-27","year":2009,"month":12,"lon":-9.771308,"lat":31.515118,"tags":"essaouira,morocco","S2CellId":"0dafee7000000000","result":628,"accuracy":0.044344246,"title":"Morocco090142","description":"Essaouira.+Pottery+shop."}
{"id":6678814653,"url":"http://farm8.staticflickr.com/7025/6678814653_bc8616be30.jpg","path":"cee/cd0/ceecd0a0ad5abe5cf17b9491bebacb3.jpg","date":"2012-01-11","year":2012,"month":1,"lon":-9.76942,"lat":31.514677,"tags":"analog,birds,black,contax,depressing,fear,marocco,marokko,sky,street,urban,white","S2CellId":"12d5840000000000","result":920,"accuracy":0.0071844286,"title":"muenchphoto.de+analog+photography003","description":"Another+bird%2C+still+Marocco.+Contax"}
{"id":172539401,"url":"http://farm1.staticflickr.com/52/172539401_753641661b.jpg","path":"718/625/7186258a286b3b749b3322f8c1f7cfe.jpg","date":"2006-06-04","year":2006,"month":6,"lon":-9.770665,"lat":31.509007,"tags":"africa,afrique,blue,essaouira,maroc,morocco,orange,port,street","S2CellId":"47e61d1d00000000","result":4562,"accuracy":0.014620162,"title":"Essaouira+blue+41-+not+blue%21"}
{"id":6887454108,"url":"http://farm8.staticflickr.com/7275/6887454108_a3773ea1be.jpg","path":"30d/2cf/30d2cf60cbe38244d1732b853deb396.jpg","date":"2012-03-16","year":2012,"month":3,"lon":-9.772153,"lat":31.515358,"tags":"%D8%A7%D9%84%D9%85%D8%BA%D8%B1%D8%A8,essaouira,ma,marrakech-tensift-el+haout,morocco","S2CellId":"0dad000000000000","result":615,"accuracy":0.7105465,"title":"Essaouira+Medina."}
{"id":8697413849,"url":"http://farm9.staticflickr.com/8415/8697413849_88f3c73600.jpg","path":"5d6/6e1/5d66e150732a87514b9d83502447e6.jpg","date":"2013-04-19","year":2013,"month":4,"lon":-9.538149,"lat":31.536993,"tags":"%C3%A1rbol+de+arg%C3%A1n,1000d,18-55mm,arg%C3%A1n,argan+tree,arganier,canon+1000d,eos,lightroom,maroc,marrakech,marrakesh,marruecos,morocco","S2CellId":"1833000000000000","result":1424,"accuracy":0.38458502,"title":"IMG_1070-337.jpg"}
{"id":6085805150,"url":"http://farm7.staticflickr.com/6081/6085805150_b8955558bc.jpg","path":"d1e/c9b/d1ec9b61179a6ce9920ed92967aecf2.jpg","date":"2011-06-23","year":2011,"month":6,"lon":-9.766674,"lat":31.510677,"tags":"essaouira,festival+gnaoua,marokko","S2CellId":"00997f1000000000","result":15,"accuracy":0.059095744,"title":"Marokko","description":"Festival+Gnaoua+et+Musiques+du+Monde+2011%2C+Essaouira"}
{"id":3887162157,"url":"http://farm4.staticflickr.com/3436/3887162157_d2acb6137f.jpg","path":"147/694/14769491ae55f410de21779b659feb74.jpg","date":"2009-08-22","year":2009,"month":8,"lon":-9.77031,"lat":31.5086,"tags":"atlantique,bestoff,children,enfants,essaouira,geographic,geographie,gettyvacation2010,maroc,marocco,mer,mogador,morocco,ocean,plage,sea,summer,travel,vague,voyage,waves","S2CellId":"0ed0000000000000","result":640,"accuracy":0.057214294,"description":"%3Cb%3E%3Ca+href%3D%22http%3A%2F%2Fwww.flickr.com%2Fphotos%2Falainbachellier%2Fsets%2F72157622195936782%2Fshow%2F%22%3ELancer+le+diaporama+Maroc%3C%2Fa%3E%3C%2Fb%3E"}
{"id":4608452810,"url":"http://farm2.staticflickr.com/1200/4608452810_6aebf39195.jpg","path":"9db/f8e/9dbf8ecae1261da8928594f4f8a43ed.jpg","date":"2008-11-06","year":2008,"month":11,"lon":-9.771362,"lat":31.514992,"tags":"2008,morocco","S2CellId":"1499cb0000000000","result":1232,"accuracy":0.14791222,"title":"DSC_4106"}
{"id":4857389312,"url":"http://farm5.staticflickr.com/4142/4857389312_1fa09cb604.jpg","path":"1c2/798/1c27982411c336edac7a62ec87bcdb.jpg","date":"2009-12-01","year":2009,"month":12,"lon":-9.767704,"lat":31.5138,"tags":"essaouira,maroko,marruecos,morocco,net,red,sarea","S2CellId":"8734c00000000000","result":7798,"accuracy":0.01846624,"title":"Sareak"}
{"id":4604129645,"url":"http://farm2.staticflickr.com/1303/4604129645_e559cecac0.jpg","path":"99b/bd6/99bbd6c6706212e861bff2ed2c847a.jpg","date":"2009-11-23","year":2009,"month":11,"lon":-9.770622,"lat":31.513433,"tags":"africa,arabic,coast,essaouira,fishing,fortress,magador,middle+east,morocco,north+africa,sea","S2CellId":"0dad000000000000","result":615,"accuracy":0.9776883,"title":"magador"}
{"id":2205319773,"url":"http://farm3.staticflickr.com/2147/2205319773_71afa0b4eb.jpg","path":"2c6/815/2c68154acaa6363cc26d44ae97c1643.jpg","date":"2008-01-15","year":2008,"month":1,"lon":-9.765987,"lat":31.507069,"tags":"essaouira,essaouira+and+coast+run,morocco","S2CellId":"8081000000000000","result":6903,"accuracy":0.16081886,"title":"essaouira+waves+north"}
{"id":2701014385,"url":"http://farm4.staticflickr.com/3174/2701014385_fa2b8806dd.jpg","path":"d59/d5e/d59d5e8e25ffe0353ba72d57246189a7.jpg","date":"2005-02-25","year":2005,"month":2,"lon":-9.76324,"lat":31.52107,"tags":"abigfave,africa,betterthangood,maroc,marruecos,morocco,picnik,sahara,seashore,waves","S2CellId":"0d1b400000000000","result":239,"accuracy":0.10559566,"title":"Essaouira+%28revisited%29"}
{"id":8993606825,"url":"http://farm4.staticflickr.com/3715/8993606825_172fd4635e.jpg","path":"68f/ddd/68fddd347ad0aa9aec7f7ae2dc3513f.jpg","date":"2013-06-04","year":2013,"month":6,"lon":-9.757146,"lat":31.488626,"tags":"africa,barcos,blackandwhite,bn,comercio,docklands,docks,essaouira,fishining,marrakech,morroco,pesca,pescadores,pescar,port,puerto,sali,sea","S2CellId":"0dad000000000000","result":615,"accuracy":0.7106052,"title":"Essaouira"}
{"id":5284999976,"url":"http://farm6.staticflickr.com/5042/5284999976_0c9e6c40a3.jpg","path":"80a/997/80a99794bf2c57d42a03f945beb9eb6.jpg","date":"2009-09-10","year":2009,"month":9,"lon":-9.766502,"lat":31.514898,"tags":"morocco","S2CellId":"0dad000000000000","result":615,"accuracy":0.96936226,"title":"Sea+Days"}
{"id":47461957,"url":"http://farm1.staticflickr.com/27/47461957_11340d2864.jpg","path":"aec/23f/aec23fa84b233f934c6f91659def752.jpg","date":"2005-09-25","year":2005,"month":9,"lon":-9.766588,"lat":31.508604,"tags":"essaouira,marrakech,morocco,sunset","S2CellId":"808587c000000000","result":6980,"accuracy":0.15535548,"title":"IMG_8756","description":"Essaouira."}
{"id":2649094300,"url":"http://farm4.staticflickr.com/3149/2649094300_b3c5b84679.jpg","path":"2dd/5e5/2dd5e549a6d35cc57f2ba39f633c3a7.jpg","date":"2008-06-26","year":2008,"month":6,"lon":-9.771652,"lat":31.513142,"tags":"africa,essaouira,gnaoua+festival,gnaouia,gnawa,gnawa+festival,morocco,music,musician,musicians","S2CellId":"0d5d000000000000","result":499,"accuracy":0.07076178,"title":"Gnawa+musicians%2C+Essaouira%2C+Morocco"}
{"id":7386042914,"url":"http://farm8.staticflickr.com/7104/7386042914_b63318e3da.jpg","path":"468/ccd/468ccd21bab02a3ad7b48d371ab0e569.jpg","date":"2007-03-22","year":2007,"month":3,"lon":-9.76073,"lat":31.515963,"tags":"essaouira,la+m%C3%A9dina,maroc","S2CellId":"0dad000000000000","result":615,"accuracy":0.53597194,"title":"Essaouira%2C+la+M%C3%A9dina+au+quotidien"}
{"id":6108551656,"url":"http://farm7.staticflickr.com/6191/6108551656_b870543e95.jpg","path":"c34/f2c/c34f2c5927e39b4c5ffe1a24c34df2a5.jpg","date":"2011-06-24","year":2011,"month":6,"lon":-9.766845,"lat":31.514572,"tags":"essaouira,marokko","S2CellId":"89c2444000000000","result":8937,"accuracy":0.20575915,"title":"Festival+Gnaoua+et+Musiques+du+Monde+2011","description":"Essaouira-Marokko"}
{"id":5582800949,"url":"http://farm6.staticflickr.com/5224/5582800949_10e32258e7.jpg","path":"69e/58b/69e58b816daa1730bfc622d92d18915.jpg","date":"2011-04-02","year":2011,"month":4,"lon":-9.771652,"lat":31.503483,"tags":"artisten,artistes,circus,essaouira,greta%26gudulf,maroc,morocco,rope","S2CellId":"0d698c0000000000","result":549,"accuracy":0.091151915,"title":"one+world+-+one+rope","description":"%3Ca+href%3D%22http%3A%2F%2Fwww.daredart.fr%2Fgreta_et_gudulf.html%22+rel%3D%22nofollow%22%3Ewww.daredart.fr%2Fgreta_et_gudulf.html%3C%2Fa%3E"}
{"id":749509684,"url":"http://farm2.staticflickr.com/1309/749509684_ca509f9774.jpg","path":"70a/da6/70ada6cabf4980e09fb21b4a7323a56e.jpg","date":"2006-09-18","year":2006,"month":9,"lon":-9.766159,"lat":31.512922,"tags":"birds,boat,castle,essaouira,harbour,morocco,seagull","S2CellId":"0dad000000000000","result":615,"accuracy":0.8192509,"title":"Essaouira+harbour"}
{"id":13817601545,"url":"http://farm4.staticflickr.com/3683/13817601545_557b3be5d0.jpg","path":"cbb/8eb/cbb8ebdd8e52248a224813a5722caa9c.jpg","date":"2014-02-26","year":2014,"month":2,"lon":-9.771473,"lat":31.511908,"tags":"maroc,morocco","S2CellId":"0dad000000000000","result":615,"accuracy":0.504329,"title":"Villa+Maroc","description":"Villa+Maroc"}
{"id":2063810348,"url":"http://farm3.staticflickr.com/2387/2063810348_e1a87de43e.jpg","path":"373/93d/37393de49082f29533f83c58d67771df.jpg","date":"2007-11-04","year":2007,"month":11,"lon":-9.767618,"lat":31.513754,"tags":"morocco","S2CellId":"2bfc000000000000","result":1527,"accuracy":0.0041522426,"title":"DSCF0213_2.JPG"}
{"id":2901114585,"url":"http://farm4.staticflickr.com/3248/2901114585_14e546c769.jpg","path":"c99/979/c9997942cea62627f8fe9e73728b1d41.jpg","date":"2006-07-18","year":2006,"month":7,"lon":-9.770622,"lat":31.514898,"tags":"essaouira,fort,morocco","S2CellId":"0dad000000000000","result":615,"accuracy":0.31399798,"title":"A+view+on+Essaouira"}
{"id":5175450562,"url":"http://farm5.staticflickr.com/4151/5175450562_f3499b9b74.jpg","path":"c82/397/c8239784a841d5996c8c0aaa9241994.jpg","date":"2010-10-19","year":2010,"month":10,"lon":-9.773969,"lat":31.509045,"tags":"blue,boat,essaouira,fishing,morocco,port","S2CellId":"0dad000000000000","result":615,"accuracy":0.7890606,"title":"Fishing+boats"}
{"id":8097084692,"url":"http://farm9.staticflickr.com/8334/8097084692_9c27f77705.jpg","path":"1a4/fa5/1a4fa55c9d93a48ed0b342a8cba35fa.jpg","date":"2012-09-11","year":2012,"month":9,"lon":-9.772081,"lat":31.512045,"tags":"essaouira,morocco,scans","S2CellId":"548ff00000000000","result":6177,"accuracy":0.019491492,"title":"Essaouira+harbor"}
{"id":1496469791,"url":"http://farm3.staticflickr.com/2166/1496469791_a05dde12a7.jpg","path":"ddb/e95/ddbe9535ae9474fcff938ec6e3fde8ad.jpg","date":"2007-09-21","year":2007,"month":9,"lon":-9.767704,"lat":31.507215,"tags":"eos20d,essaouira,moroc,morocco,north+africa,sunset","S2CellId":"0d0dd40000000000","result":174,"accuracy":0.0837655,"title":"Sunset+over+Essaouira"}
{"id":349333082,"url":"http://farm1.staticflickr.com/131/349333082_3aafdc8b17.jpg","path":"a9c/f84/a9cf849c3f3f9935c4a5784ccca6d3bf.jpg","date":"2005-03-23","year":2005,"month":3,"lon":-9.765064,"lat":31.51497,"tags":"essaouira,marocco","S2CellId":"39e4000000000000","result":2487,"accuracy":0.021249294}
{"id":1418851899,"url":"http://farm2.staticflickr.com/1156/1418851899_558e8e05c7.jpg","path":"712/45e/71245ea4f9be675e67b25ab19d979559.jpg","date":"2007-09-07","year":2007,"month":9,"lon":-9.770793,"lat":31.5138,"tags":"morocco","S2CellId":"4876440000000000","result":5361,"accuracy":0.5110088,"title":"DSC02152"}
{"id":1418801181,"url":"http://farm2.staticflickr.com/1393/1418801181_60541d649c.jpg","path":"252/f30/252f308227c114722af9cc01f12c2a4.jpg","date":"2007-09-07","year":2007,"month":9,"lon":-9.770793,"lat":31.5138,"tags":"morocco","S2CellId":"1346c00000000000","result":1162,"accuracy":0.086699486,"title":"DSC02133"}
{"id":6332229968,"url":"http://farm7.staticflickr.com/6095/6332229968_65eb95e114.jpg","path":"92a/6d4/92a6d484f89f770a772864fe055f51c.jpg","date":"2011-08-01","year":2011,"month":8,"lon":-9.816398,"lat":31.08631,"tags":"douar+che%C3%AFkh+taguent,mar,marruecos,morocco,playa,tafedna,tafelney,tafetna,teftana","S2CellId":"3170400000000000","result":1765,"accuracy":0.58002687,"title":"playa+Tafadna%2C+Tafelney"}
{"id":370690923,"url":"http://farm1.staticflickr.com/98/370690923_ce921e1caf.jpg","path":"a4a/323/a4a3238b729266372d9fb386776385.jpg","date":"2006-03-22","year":2006,"month":3,"lon":-9.763927,"lat":31.51497,"tags":"2005,morocco","S2CellId":"0dad000000000000","result":615,"accuracy":0.252422,"title":"morocco029.jpg"}
{"id":2901250753,"url":"http://farm4.staticflickr.com/3139/2901250753_aa46b11753.jpg","path":"3ad/caf/3adcafc9b396e77cec175810aa35e5da.jpg","date":"2006-07-23","year":2006,"month":7,"lon":-9.770622,"lat":31.514898,"tags":"cat,essaouira,kitten,morocco","S2CellId":"2e69f70000000000","result":1574,"accuracy":0.019660516,"title":"Mother+cat+and+kittens"}
{"id":4998506394,"url":"http://farm5.staticflickr.com/4083/4998506394_8d063f75e6.jpg","path":"b9d/bd5/b9dbd5a34cad31fb22f3dfbb37c1fef5.jpg","date":"2010-08-23","year":2010,"month":8,"lon":-9.762725,"lat":31.49953,"tags":"abigfave,bej*.,boats,coth,essouira,morocco,mywinners","S2CellId":"0dad000000000000","result":615,"accuracy":0.87208503,"title":"It%27s+not+just+about+finding+a+parking+space..........","description":"It%27s+more+a+question+of+how++do+you+tell+which+boat+is+yours+%21%0A%0AEssouira%2CMorocco"}
{"id":8256145220,"url":"http://farm9.staticflickr.com/8494/8256145220_0cf4d4a6ed.jpg","path":"773/a77/773a77ed50bbcb92a478e7c56315351.jpg","date":"2012-09-14","year":2012,"month":9,"lon":-9.773873,"lat":31.50899,"tags":"boat,essaouira,harbor,harbour,haven,maroc,morocco,port,ship","S2CellId":"0dad000000000000","result":615,"accuracy":0.3559279,"title":"2012-09-14-0068.jpg","description":"Crew+of+the+ship+%22El+Bahar%22+in+the+port+of+Essaouira+%28Morocco%29"}
{"id":4490861158,"url":"http://farm5.staticflickr.com/4068/4490861158_dd7d3b0f63.jpg","path":"60d/4d7/60d4d7b08613147b352ee1cbdfccaf.jpg","date":"2010-03-29","year":2010,"month":3,"lon":-9.7656,"lat":31.5098,"tags":"coast,geography,morocco,sun+set,tourism","S2CellId":"480d400000000000","result":4778,"accuracy":0.21629214,"title":"Setting+sun+from+Essaouira+beach+2%2F4"}
{"id":5402163230,"url":"http://farm6.staticflickr.com/5177/5402163230_d0d8cd351b.jpg","path":"8be/43d/8be43da1a4decdf42c98dab1f829381.jpg","date":"2011-01-30","year":2011,"month":1,"lon":-9.771137,"lat":31.515265,"tags":"essaouira","S2CellId":"0d0b000000000000","result":163,"accuracy":0.07823721,"title":"Essaouira"}
{"id":3198928654,"url":"http://farm4.staticflickr.com/3463/3198928654_c43da79174.jpg","path":"992/1d1/9921d12a5e4feab8758773cb6d644ea.jpg","date":"2008-10-24","year":2008,"month":10,"lon":-9.77251,"lat":31.514631,"tags":"atlantic,essaouira,fort,island,isle,isles,morocco,ocean,purple","S2CellId":"808f100000000000","result":7011,"accuracy":0.17664525,"title":"Purple+Isles++-+Essaouira"}
{"id":8584925568,"url":"http://farm9.staticflickr.com/8523/8584925568_ea8d795e3c.jpg","path":"02d/b2e/02db2e4f3711216f812859a8e5883e.jpg","date":"2013-03-23","year":2013,"month":3,"lon":-9.773969,"lat":31.510616,"tags":"africa,boat,coast,essaouira,fishing,morocco,nikon,sea,travel","S2CellId":"0dad000000000000","result":615,"accuracy":0.09578575,"title":"Fishing+time","description":"Something+different+for+today.+I+don%27t+usually+take+photograph+of+people%2C+I+am+not+really+good+at+it%2C+and+a+little+bit+shy+too+but+big+photo+lens+helps+%3BD%0A+Today%27s+pictures+are+some+ordinary+scenes+that+you+can+witness+in+the+small+harbor+of+Essaouira.+Just+everyday+things%2C+kids+helping+to+take+back+on+the+ground+one+of+the+many+blue+fishing+boats+or+a+big+ship+going+home+after+sunset."}
{"id":7033541035,"url":"http://farm8.staticflickr.com/7250/7033541035_af7cb8fc04.jpg","path":"aef/f17/aeff17b79f236db4315a7b1ec9977f9f.jpg","date":"2012-03-16","year":2012,"month":3,"lon":-9.768012,"lat":31.514402,"tags":"%D8%A7%D9%84%D9%85%D8%BA%D8%B1%D8%A8,essaouira,ma,marrakech-tensift-el+haout,morocco","S2CellId":"0dad000000000000","result":615,"accuracy":0.2570487,"title":"Minaret%2C+Essaouira+Medina."}
{"id":8077146493,"url":"http://farm9.staticflickr.com/8469/8077146493_343d104c2d.jpg","path":"902/f7c/902f7c5a19736ec075e03294b984fcc1.jpg","date":"2012-10-11","year":2012,"month":10,"lon":-9.765319,"lat":31.51466,"tags":"essaouira,mogador,p%C3%AAche,p%C3%AAcheur,poisson,port","S2CellId":"0dad000000000000","result":615,"accuracy":0.7817457,"title":"Port+d%27Essaouira","description":"Le+poisson+est+abandon+Tbark%27allah+cette+semaine+%C3%A0+Mogador"}
{"id":13188732135,"url":"http://farm3.staticflickr.com/2495/13188732135_3458511eca.jpg","path":"cd8/dd1/cd8dd139be7788b51deff6c5e4f464ac.jpg","date":"2014-02-25","year":2014,"month":2,"lon":-9.773667,"lat":31.51,"tags":"maroc,morocco","S2CellId":"1304000000000000","result":955,"accuracy":0.07791323,"title":"Essaouira+Harbor","description":"Morocco"}
{"id":2598295781,"url":"http://farm4.staticflickr.com/3054/2598295781_ebb91da0ab.jpg","path":"dd1/ac6/dd1ac6eb4405a2aaabfe3f7d9aeb6b.jpg","date":"2008-06-21","year":2008,"month":6,"lon":-9.76942,"lat":31.515556,"tags":"2008,essaouira,june,morocco,public","S2CellId":"883a400000000000","result":8336,"accuracy":0.025978096,"title":".","description":"A+street+side+vendor+sans+the+grime%2C+who+served+us+our+local+dinner"}
{"id":7458146260,"url":"http://farm9.staticflickr.com/8008/7458146260_84b0c668d8.jpg","path":"f57/9c4/f579c4bab62a04923bd7dfa73891455.jpg","date":"2011-12-30","year":2011,"month":12,"lon":-9.772209,"lat":31.514841,"tags":"as+suwayrah,essaouira,fischerfotos,mark+fischer,morocco","S2CellId":"915f000000000000","result":9604,"accuracy":0.165756,"title":"Waiting+Dog","description":"A+dog+watches+two+women+chatting+on+the+ramparts+along+the+fishing+village+of+Essaouira+on+Morocco%27s+Atlantic+Ocean+coast.%0A%0AFor+more%2C+follow+me+on+%3Ca+href%3D%22http%3A%2F%2FFischerFotos.com%22+rel%3D%22nofollow%22%3Emy+web+site%3C%2Fa%3E+%7C+%3Ca+href%3D%22http%3A%2F%2Fwww.facebook.com%2FFischerFotos%22+rel%3D%22nofollow%22%3Efacebook%3C%2Fa%3E+%7C+%3Ca+href%3D%22http%3A%2F%2Fgplus.to%2Ffischerfotos%22+rel%3D%22nofollow%22%3EGoogle%2B%3C%2Fa%3E+%7C+%3Ca+href%3D%22http%3A%2F%2Fwww.tumblr.com%2Fblog%2Ffischerfotos%22+rel%3D%22nofollow%22%3Etumblr%3C%2Fa%3E+%7C+%3Ca+href%3D%22http%3A%2F%2Ftwitter.com%2F%23%21%2Ffischerfotos%22+rel%3D%22nofollow%22%3Etwitter%3C%2Fa%3E"}
{"id":5601029867,"url":"http://farm6.staticflickr.com/5147/5601029867_c24b85e70d.jpg","path":"c25/686/c2568620f4e361afb9bfb3f577c3173.jpg","date":"2010-12-15","year":2010,"month":12,"lon":-9.774055,"lat":31.512556,"tags":"arab,barcos,bateaux,boats,canon,dacal,diegodacal,essaouira,fisherman,marrocos,marruecos,moroc,morocos,pecheur,pescador,porta,porte,rebel,xsi","S2CellId":"0dad000000000000","result":615,"accuracy":0.97689384,"title":"Pescadores+se+preparando"}
{"id":2845435720,"url":"http://farm4.staticflickr.com/3005/2845435720_45d11c54ff.jpg","path":"b22/9d6/b229d6c3753e18815e4b6f57ffcd7580.jpg","date":"2006-07-19","year":2006,"month":7,"lon":-9.771652,"lat":31.504213,"tags":"beach,camels,essaouira,morocco","S2CellId":"1458450000000000","result":1210,"accuracy":0.1663839,"title":"Didier+trying+to+escalate+the+camel"}
{"id":8503444426,"url":"http://farm9.staticflickr.com/8105/8503444426_7d95757c1b.jpg","path":"1d5/d1d/1d5d1d4ef288bed6e7585512297c013.jpg","date":"2013-01-17","year":2013,"month":1,"lon":-9.774184,"lat":31.511705,"tags":"africa,blue+hour,essaouira,fortified,hdr,morocco,night,nikon,saint+malo,sea,sunset,th%C3%A9odore+cornut,travel","S2CellId":"0dad000000000000","result":615,"accuracy":0.30782112,"title":"Blue+hour+on+Essaouira","description":"As+you+might+already+know%2C+Essaouira+is+a+small+harbor+on+the+West+coast+of+Morocco.+The+town+is+really+peaceful+and+inspiring%2C+I+spend+few+days+walking+around+the+Medina+and+I+met+some+wonderful+peoples.%0AEssaouira+was+buildt+in+the+18th+century+on+the+orders+of+the+sultan+Mohamed+III+to+host+a+harbor+and+a+naval+base+where+his+soldiers+could+launch+raid+on+Agadir+to+subdue+the+rebellion.%0AThe+construction+was+directed+by+a+french+engineer%2C+Th%C3%A9odore+Cornut.+He+built+the+city+with+the+help+of+french+prisoner+of+war+who+where+captured+and+held+by+Moroccan+after+the+failed+attack+of+the+city+of+Larache+in+1765.%0ACornut+designed+the+outer+wall+of+the+city+just+as+the+walls+of+Saint+Malo%2C+a+small+fortified+harbor+in+Brittany+%28northwestern+France%29.%0A%0AMy+first+Three+days+I+spend+all+my+late+afternoon+waiting+for+the+sunset+on+the+rocks+in+front+of+the+town+trying+to+get+something+close+to+this+picture.+After+2+bad+sunset+and+one+high+tide+I+finally+was+able+to+capture+this+photograph+which+I+am+pretty+happy+with.%0A%0AWhat+do+you+think%3F%0A%0A%3Ca+href%3D%22https%3A%2F%2Fwww.facebook.com%2FWIFphoto%3Fref%3Dhl%22+rel%3D%22nofollow%22%3EFollow+me+on+Facebook%3C%2Fa%3E%0A%3Ca+href%3D%22http%3A%2F%2Fwww.worldsinfocus.com%22+rel%3D%22nofollow%22%3Ewww.worldsinfocus.com%3C%2Fa%3E"}
{"id":245265215,"url":"http://farm1.staticflickr.com/82/245265215_223431861b.jpg","path":"638/3f0/6383f06a7956a41f3df2fb9a9c548c6.jpg","date":"2006-09-04","year":2006,"month":9,"lon":-9.77972,"lat":31.510069,"tags":"morocco","S2CellId":"0dad000000000000","result":615,"accuracy":0.09266715,"title":"Mogador","description":"La+plage+de+Mogador%2C+barque+rentrant+de+la+p%C3%AAche"}
{"id":13399550194,"url":"http://farm4.staticflickr.com/3746/13399550194_1f7a869b78.jpg","path":"9fe/486/9fe48655e0f9bb17b89dbf2f2ac45a2d.jpg","date":"2014-02-25","year":2014,"month":2,"lon":-9.769334,"lat":31.513332,"tags":"maroc,morocco","S2CellId":"0dad000000000000","result":615,"accuracy":0.26234177,"title":"Essaouira","description":"Essaouira"}
{"id":2844608431,"url":"http://farm4.staticflickr.com/3118/2844608431_58452f620d.jpg","path":"476/3aa/4763aac49bdf803fa86682821635aea.jpg","date":"2006-07-19","year":2006,"month":7,"lon":-9.771652,"lat":31.504213,"tags":"beach,camels,essaouira,morocco","S2CellId":"1500c00000000000","result":1347,"accuracy":0.11548738,"title":"Camels"}
{"id":5192003700,"url":"http://farm5.staticflickr.com/4089/5192003700_9630c0bbb7.jpg","path":"b6b/428/b6b428ad1b2a4a78e1983b6f3f973b92.jpg","date":"2010-10-18","year":2010,"month":10,"lon":-9.646617,"lat":31.705864,"tags":"essaouira,landscape,landschaft,marocco,marokko,safi,sea,see","S2CellId":"3177000000000000","result":1797,"accuracy":0.05307286,"title":"Along+the+Way","description":"Taking+the+coastal+road+from+Essaouira+to+Safi+you+pass+a+fascinating+landscape+of+sand%2C+dunes%2C+bushes%2C+%22lakes%22%2C+bays+and+cliffs.%0A%0AEssaouira%2FSafi%2C+Marocco"}
{"id":5152543854,"url":"http://farm2.staticflickr.com/1239/5152543854_b8a44067c2.jpg","path":"494/72c/49472c85da3f36fa131019e177cff4.jpg","date":"2010-11-06","year":2010,"month":11,"lon":-9.774066,"lat":31.508417,"tags":"africa,holidays,maroc,marokko,marruecos,morocco,reisen,travel","S2CellId":"5486718c00000000","result":6128,"accuracy":0.01231539,"title":"Two+seagulls+fighting+for+food","description":"The+left+one+won+and+subsequently+splashed+straight+into+the+water+without+being+able+to+start+flying+right+away%2C+causing+much+laughter+among+the+bystanding+tourists"}
{"id":2646355009,"url":"http://farm4.staticflickr.com/3040/2646355009_40e658c811.jpg","path":"743/d2f/743d2f9a65e93fcb90625b16fc5e6f47.jpg","date":"2008-06-27","year":2008,"month":6,"lon":-9.771652,"lat":31.513142,"tags":"africa,gnaoua+festival,gnaouia,gnawa,gnawa+festival,music,musician,musicians","S2CellId":"0d6a1c0000000000","result":557,"accuracy":0.057461504,"title":"Gnawa+musicians%2C+Essaouira%2C+Morocco"}
