{"id":1207751035,"url":"http://farm2.staticflickr.com/1208/1207751035_a60daf8501.jpg","path":"48f/8cf/48f8cf9bacaaf583025d33cb1cbfd67.jpg","date":"2007-08-22","year":2007,"month":8,"lon":-106.20094,"lat":41.895504,"tags":"287,highway,honda,hotel,magna,medicinebow,motorcycle,motorcycleroadtrip,roadtrip,rural,twoup,virginian,wy","S2CellId":"89dd100000000000","result":9276,"accuracy":0.018086443,"title":"virginian+hotel+%7C+medicine+bow%2C+wyoming"}
{"id":239384646,"url":"http://farm1.staticflickr.com/87/239384646_3113cc72ef.jpg","path":"9b5/2d5/9b52d5cec68e1f44cee47155cfd96b.jpg","date":"2006-09-05","year":2006,"month":9,"lon":-106.23582,"lat":41.363605,"tags":"2006,bow,medicine","S2CellId":"54be400000000000","result":6297,"accuracy":0.078559615,"title":"LittleBrooklyn1"}
{"id":239394482,"url":"http://farm1.staticflickr.com/82/239394482_69d52938a0.jpg","path":"2c9/ad5/2c9ad549eed4276384ed163edabd9d.jpg","date":"2006-09-05","year":2006,"month":9,"lon":-106.23582,"lat":41.363605,"tags":"bow,medicine","S2CellId":"534e400000000000","result":6028,"accuracy":0.05671143,"title":"LittleBrooklyn3"}
{"id":231734781,"url":"http://farm1.staticflickr.com/96/231734781_31dddabf33.jpg","path":"50e/f6e/50ef6ea6bf50d9e62db23fd797503087.jpg","date":"2005-07-11","year":2005,"month":7,"lon":-106.94589,"lat":41.775986,"tags":"deer,wyoming","S2CellId":"54bf400000000000","result":6299,"accuracy":0.024151277,"title":"Floating+Deer+2"}
{"id":4891962658,"url":"http://farm5.staticflickr.com/4117/4891962658_0aa981219b.jpg","path":"2ea/a54/2eaa549f5218d4ae69dd895b13d8e22b.jpg","date":"2010-08-13","year":2010,"month":8,"lon":-106.271355,"lat":41.386467,"tags":"medicine+bow,mountain+biking,rocky+mountains,wyoming","S2CellId":"8769700000000000","result":7857,"accuracy":0.15337868,"title":"DSC_1602"}
{"id":274329095,"url":"http://farm1.staticflickr.com/119/274329095_c44ae86a56.jpg","path":"196/f07/196f07bc56b854ecc887bb99525ab5d.jpg","date":"2006-10-07","year":2006,"month":10,"lon":-106.14269,"lat":41.31413,"tags":"centennial,wyoming","S2CellId":"5344000000000000","result":6024,"accuracy":0.07787075,"title":"Looking+Toward+Laramie"}
{"id":1401359361,"url":"http://farm2.staticflickr.com/1038/1401359361_0ce30a7ba4.jpg","path":"516/c15/516c15a71719feabd410719d73b1a78c.jpg","date":"2007-08-28","year":2007,"month":8,"lon":-106.294914,"lat":41.356647,"tags":"lake,landscape,medicine+bow+-+routt+national+forest,medicine+bow+mountains,medicine+bow+national+forest,mountains,national+forest,snowy+range,sugarloaf+area,water,wyoming","S2CellId":"8740500000000000","result":7808,"accuracy":0.1379069,"title":"snowy+range"}
