{"id":5193057872,"url":"http://farm5.staticflickr.com/4128/5193057872_81c89bd653.jpg","path":"c19/0f1/c190f11b59bb9c88f6431f1a6f3c9.jpg","date":"2010-08-06","year":2010,"month":8,"lon":-19.346495,"lat":63.533943,"tags":"ash,black,cenere,eyjafjallaj%C3%B6kul,ghiacciaio,glacier,ice,iceland,islanda,nero,volcano,vulcano","S2CellId":"48d7400000000000","result":5814,"accuracy":0.49930775,"title":"Cold+Black"}
{"id":13973232833,"url":"http://farm8.staticflickr.com/7196/13973232833_16dcf37941.jpg","path":"80a/cf6/80acf6db91f456f03778d187186aa11a.jpg","date":"2014-04-18","year":2014,"month":4,"lon":-19.129087,"lat":63.403053,"tags":"iceland,island,islanda","S2CellId":"0c60700000000000","result":149,"accuracy":0.0988454,"title":"Island%2C+P%C3%A5sk+2014"}
{"id":3504692701,"url":"http://farm4.staticflickr.com/3349/3504692701_0cd24a63db.jpg","path":"8db/62c/8db62c4e557cef4954ac1d5f12faae.jpg","date":"2009-05-05","year":2009,"month":5,"lon":-19.67102,"lat":63.988007,"tags":"400d,canon,clouds,dramatic,hdr,hekla,ice,iceland,rebel,southern+iceland,sun,volcano,xti","S2CellId":"48d3000000000000","result":5788,"accuracy":0.08648148,"title":"Clouds+over+Mt.+Hekla","description":"I+had+just+spent+the+day+hiking+one+of+the+more+prominent+mountains+in+Iceland%2C+Mt.+Hekla+with+two+of+my+friends.+We+were+tired+and+on+level+ground+again%2C+walking+back+towards+my+car.%0A%0AI+turned+back+momentarily+to+gaze+at+the+mountain+and+was+greeted+by+this+stunning+cloud+formation.+The+clouds%2C+moving+quickly%2C+had+formed+a+half+circle+around+the+sun%2C+creating+very+dramatic+lighting+and+mood+around+Hekla.+I+barely+managed+to+grab+the+camera+and+fire+off+these+shots+before+the+clouds+had+changed+again."}
{"id":7922511,"url":"http://farm1.staticflickr.com/6/7922511_8689ceaf2b.jpg","path":"c31/664/c31664a5f57e39a8fb888b21dc4984b8.jpg","date":"2005-02-19","year":2005,"month":2,"lon":-19.346237,"lat":63.975845,"tags":"20050219hekla,hekla","S2CellId":"4590000000000000","result":2751,"accuracy":0.15061738,"title":"IMG_4159"}
{"id":11237424224,"url":"http://farm8.staticflickr.com/7379/11237424224_1296c1a5dc.jpg","path":"30b/326/30b326eed3c59e4a5564090a6163067.jpg","date":"2013-11-30","year":2013,"month":11,"lon":-19.044388,"lat":63.453506,"tags":"iceland,tour","S2CellId":"9169000000000000","result":9606,"accuracy":0.08308288,"title":"water+control","description":"Iceland+tour"}
{"id":4631387576,"url":"http://farm5.staticflickr.com/4072/4631387576_1732e9f7b7.jpg","path":"393/fde/393fde4df408384c85d76e12691573.jpg","date":"2008-11-19","year":2008,"month":11,"lon":-19.503479,"lat":63.527134,"tags":"bed-board,bettbretter,iceland,rumfjalir,sk%C3%B3gar,sk%C3%B3gasafn","S2CellId":"883b340000000000","result":8350,"accuracy":0.01294412,"title":"What+are+Bed-boards%3F","description":"Bed-boards+were+used+to+keep+people+from+falling+out+of+crowded+beds.%0A%0A%3Ci%3EPlacard+from+%3Ca+href%3D%22http%3A%2F%2Fwww.skogasafn.is%2Fenska%2Fedefault.asp%22+rel%3D%22nofollow%22%3ESk%C3%B3gasafn%3C%2Fa%3E+-+the+excellent+museum+in+Sk%C3%B3gar%2C+Iceland.%3C%2Fi%3E"}
{"id":7233366462,"url":"http://farm9.staticflickr.com/8146/7233366462_3ceffd03b1.jpg","path":"7ad/f54/7adf54ee76c2c7ed805deb1a4bd56d.jpg","date":"2012-05-15","year":2012,"month":5,"lon":-19.007204,"lat":63.41646,"tags":"holiday,iceland,south+iceland+adventure,v%C3%ADk,v%C3%ADk+%C3%AD+m%C3%BDrdal","S2CellId":"0d72400000000000","result":589,"accuracy":0.022444557,"title":"Iceland%3A+May+2012"}
{"id":4619861626,"url":"http://farm5.staticflickr.com/4003/4619861626_6f8485d72c.jpg","path":"c8f/036/c8f03649902a9a59f3eda47eca777e3.jpg","date":"2010-05-14","year":2010,"month":5,"lon":-19.57489,"lat":63.55895,"tags":"2010,ash+cloud,eyjafjallaj%C3%B6kull,eyjafjallaj%C3%B6kull+road+trip,iceland,road+trip,volcano","S2CellId":"5351f00000000000","result":6036,"accuracy":0.10552906,"title":"21.05.10+%7C+Eyjafjallaj%C3%B6kull.","description":"Eyjafjallaj%C3%B6kull+Road+Trip+2010."}
{"id":8206763400,"url":"http://farm9.staticflickr.com/8059/8206763400_ef851ae77b.jpg","path":"432/7b4/4327b48a8bb42ab39533f77b66a45ceb.jpg","date":"2012-07-01","year":2012,"month":7,"lon":-19.153053,"lat":63.905334,"tags":"backpacking,hiking,ice,iceland,island,su%EF%A3%BFurland,trail,volcano","S2CellId":"48d1000000000000","result":5787,"accuracy":0.20914961,"title":"Project+Iceland+2012","description":"Hiking+the+Laugavegur+Trail%3A%0A%0ALandmannalaugar-Th%C3%B3rm%C3%B6rk--Sk%C3%B3gar"}
{"id":351925424,"url":"http://farm1.staticflickr.com/163/351925424_ab5a8936c8.jpg","path":"25f/cdc/25fcdce450a42ef11e78da2b17792e5.jpg","date":"2006-10-22","year":2006,"month":10,"lon":-19.048319,"lat":63.403515,"tags":"%C3%ADsland,2006,big-ashb,holiday,iceland,jules,october,tour,verne","S2CellId":"487e640000000000","result":5635,"accuracy":0.011011447,"title":"PICT1649"}
{"id":2622267518,"url":"http://farm4.staticflickr.com/3270/2622267518_e35c9b51c0.jpg","path":"c33/12c/c3312c2d88148a162337d3abe0784f97.jpg","date":"2008-06-26","year":2008,"month":6,"lon":-19.044628,"lat":63.422028,"tags":"black+sands,hj%C3%B6rleifsh%C3%B6f%C3%B0i,iceland,m%C3%BDrdalssandur,vik","S2CellId":"864ed00000000000","result":7641,"accuracy":0.33144385,"title":"Black-tailed+Godwit+on+M%C3%BDrdalssandur"}
{"id":7747007624,"url":"http://farm9.staticflickr.com/8291/7747007624_6e85d8f841.jpg","path":"7fa/b80/7fab80c666c290c521adab719e6ff4.jpg","date":"2012-07-26","year":2012,"month":7,"lon":-19.10319,"lat":63.404118,"tags":"black+beach,dyrh%C3%B3elaey,iceland,island","S2CellId":"48d7400000000000","result":5814,"accuracy":0.43653193,"title":"Dyrh%C3%B3laey"}
{"id":5105189939,"url":"http://farm2.staticflickr.com/1185/5105189939_c68c4e703f.jpg","path":"f25/ae1/f25ae1a2310ceafce96e4a0abff6c86.jpg","date":"2010-10-21","year":2010,"month":10,"lon":-19.628006,"lat":63.668705,"tags":"2010,nordichi,reykjavik","S2CellId":"48d7400000000000","result":5814,"accuracy":0.14084941,"title":"IMAG0132"}
{"id":5105816604,"url":"http://farm2.staticflickr.com/1225/5105816604_5d0d8680bf.jpg","path":"f5c/3ed/f5c3ed340e545fb84037f45aa48079.jpg","date":"2010-10-21","year":2010,"month":10,"lon":-19.477957,"lat":63.676315,"tags":"2010,nordichi,reykjavik","S2CellId":"48d7400000000000","result":5814,"accuracy":0.19814657,"title":"IMAG0172"}
{"id":9433713442,"url":"http://farm4.staticflickr.com/3782/9433713442_5f3e809da1.jpg","path":"105/b37/105b3755cec277277209c1843ddfcd4.jpg","date":"2013-07-20","year":2013,"month":7,"lon":-19.120674,"lat":63.40597,"tags":"iceland","S2CellId":"88d0a631cabb5071","result":8563,"accuracy":0.017980868,"title":"Bird+in+Flight","description":"At+Dyrh%C3%B3laey."}
{"id":11355019944,"url":"http://farm8.staticflickr.com/7433/11355019944_b3e27671b8.jpg","path":"8a8/b69/8a8b69b68bf7a98215ec9f18ca4ec5.jpg","date":"2013-11-13","year":2013,"month":11,"lon":-19.104948,"lat":63.40282,"tags":"iceland,isl,v%C3%ADk","S2CellId":"48d7400000000000","result":5814,"accuracy":0.9097529,"title":"Roak+to+Vik"}
{"id":3891692149,"url":"http://farm3.staticflickr.com/2592/3891692149_5f3df6f877.jpg","path":"dce/5ab/dce5ab78579a8275d159677fe98e9c0.jpg","date":"2009-08-05","year":2009,"month":8,"lon":-19.000511,"lat":63.41911,"tags":"beach,black,black+sand,cloudy,day,iceland,island,rain,schwarz,schwarzer+sand,strand,v%C3%ADk+%C3%AD+m%C3%BDrdal,vik","S2CellId":"48d7400000000000","result":5814,"accuracy":0.57145476,"title":"V%C3%ADk+%C3%AD+M%C3%BDrdal","description":"Prelude+to+our+worst+night+on+Iceland.+Strong+wind+and+heavy+rain+BUT+our+tent+did+well+%28%3A%0A%0AV%C3%ADk+%C3%AD+M%C3%BDrdal%2C+Iceland"}
{"id":2622188828,"url":"http://farm4.staticflickr.com/3260/2622188828_1119e92400.jpg","path":"ac9/b2e/ac9b2edf8515283e6b5dcc187ef2453.jpg","date":"2008-06-26","year":2008,"month":6,"lon":-19.263153,"lat":63.549774,"tags":"glacier,iceland,m%C3%BDrdalsj%C3%B6kull","S2CellId":"48cd000000000000","result":5785,"accuracy":0.1973975,"title":"View+from+the+road+to+M%C3%BDrdalsj%C3%B6kull"}
{"id":7233343176,"url":"http://farm8.staticflickr.com/7231/7233343176_1a832e0f08.jpg","path":"7a7/311/7a731189e74afc3bbe34451c6f53535e.jpg","date":"2012-05-15","year":2012,"month":5,"lon":-19.369755,"lat":63.533752,"tags":"glacier,holiday,iceland,s%C3%B3lheimaj%C3%B6kull,south+iceland+adventure","S2CellId":"48d7400000000000","result":5814,"accuracy":0.66431653,"title":"S%C3%B3lheimaj%C3%B6kull%3A+Iceland%3A+May+2012"}
{"id":10926729746,"url":"http://farm3.staticflickr.com/2839/10926729746_a78ea37e29.jpg","path":"602/b86/602b86aac115a24b3403712a7e2c898.jpg","date":"2013-11-12","year":2013,"month":11,"lon":-19.013018,"lat":63.413998,"tags":"iceland,sunset,v%C3%ADk","S2CellId":"6d0d700000000000","result":6804,"accuracy":0.18109418,"title":"p1340088","description":"The+sun+gradually+descends+over+the+sea+at+V%C3%ADk"}
{"id":4477073482,"url":"http://farm3.staticflickr.com/2694/4477073482_4ab9d541e6.jpg","path":"a4c/3b2/a4c3b28179b1999e80fa9240282d9a.jpg","date":"2010-03-27","year":2010,"month":3,"lon":-19.472408,"lat":63.54341,"tags":"eyjafjallaj%C3%B6kull,fimmv%C3%B6r%C3%B0uh%C3%A1ls,glaciers,hiking,iceland,rocks,sand","S2CellId":"48d7400000000000","result":5814,"accuracy":0.17713352,"title":"Eyjafjallaj%C3%B6kull"}
{"id":2823011436,"url":"http://farm4.staticflickr.com/3094/2823011436_cfee2528d2.jpg","path":"262/bd9/262bd9b71fcd6f2de30a57f4ffbcbd0.jpg","date":"2007-07-30","year":2007,"month":7,"lon":-19.512339,"lat":63.52725,"tags":"6.00++km+to+eyvindarh%C3%B3lar++in+rangarvallasysla+iceland,eyvindarh%C3%B3lar,iceland,rangarvallasysla","S2CellId":"48d7400000000000","result":5814,"accuracy":0.8229023,"title":"Sk%C3%B3gafoss"}
{"id":2861569863,"url":"http://farm4.staticflickr.com/3030/2861569863_f20935216d.jpg","path":"336/8b4/3368b416aa50bfbb6d453ac6a4a55758.jpg","date":"2008-07-23","year":2008,"month":7,"lon":-19.593258,"lat":63.567585,"tags":"iceland,seljavallalaug","S2CellId":"48d7400000000000","result":5814,"accuracy":0.097010165,"title":"seljavallalaug"}
{"id":2570689825,"url":"http://farm4.staticflickr.com/3141/2570689825_812736c500.jpg","path":"c1a/9f6/c1a9f68d88aeda3ddee22440b5339b5b.jpg","date":"2008-05-24","year":2008,"month":5,"lon":-19.06969,"lat":63.40732,"tags":"iceland,island,islande,reynisfjara,vik","S2CellId":"3466400000000000","result":2115,"accuracy":0.13529861,"title":"2008-05-24","description":"Island%2C+dag+1.%0AStranden+p%C3%A5+Reynisfjara."}
{"id":4902699247,"url":"http://farm5.staticflickr.com/4141/4902699247_5589699b9f.jpg","path":"4aa/aa4/4aaaa4ac3d69df3f42358684e48ff9e.jpg","date":"2010-07-04","year":2010,"month":7,"lon":-19.390514,"lat":63.7561,"tags":"5st,iceland,laugavegur,walkabout2010,wilderness","S2CellId":"48d1000000000000","result":5787,"accuracy":0.19790125,"title":"The+Laugavegur+hike+Iceland-439"}
{"id":4115454867,"url":"http://farm3.staticflickr.com/2761/4115454867_7e820a886b.jpg","path":"703/ecc/703ecca824bb4bbef9a2acb3131e73cb.jpg","date":"2009-09-02","year":2009,"month":9,"lon":-19.109688,"lat":63.403435,"tags":"dyrholaey,iceland,landscape,pano,sea","S2CellId":"48d7400000000000","result":5814,"accuracy":0.9563795,"title":"IMG_0924"}
{"id":1497023419,"url":"http://farm3.staticflickr.com/2068/1497023419_12634c419a.jpg","path":"9ae/2cc/9ae2cc6c3e1353db39fad3faf957b222.jpg","date":"2007-09-28","year":2007,"month":9,"lon":-19.059896,"lat":63.98499,"tags":"bathe,geothermal,heat,landmannalaugar,landscape,lava,pool,rhyolite,rocks,steam,swim,volcanic,warmth,water","S2CellId":"48d6c00000000000","result":5813,"accuracy":0.3465475,"title":"DSC_4698"}
{"id":7599248224,"url":"http://farm8.staticflickr.com/7125/7599248224_4c9f91040b.jpg","path":"1db/a54/1dba54f5d0d4bfa13e3ec6227750cfcd.jpg","date":"2012-07-18","year":2012,"month":7,"lon":-19.77539,"lat":63.73391,"tags":"hvitmork","S2CellId":"487bcc0000000000","result":5599,"accuracy":0.012241064,"title":"birch+woods"}
{"id":2172823411,"url":"http://farm3.staticflickr.com/2277/2172823411_2c13ca88ec.jpg","path":"ae9/398/ae93988df614621cb3855dfac5729683.jpg","date":"2008-01-04","year":2008,"month":1,"lon":-19.973488,"lat":63.60447,"tags":"2008,iceland,island,morgenrot,seljalandsfoss,urlaub,wasserfall,winter","S2CellId":"48d7400000000000","result":5814,"accuracy":0.7133049,"title":"Seljalandsfoss","description":"Der+60+m+hohe+Wasserfall+%22Seljalandsfoss%22+am+Westrand+des+Eyafj%C3%B6ll+ist+durch+einen+Rundweg+auch+von+der+R%C3%BCckseite+zu+bewundern.+Er+ist+bei+Dunkelheit+beleuchtet."}
{"id":5841448785,"url":"http://farm3.staticflickr.com/2595/5841448785_9b3f18922f.jpg","path":"2ac/cd2/2accd2447f07c45488b22ebdeaecc32.jpg","date":"2011-06-03","year":2011,"month":6,"lon":-19.00096,"lat":63.42751,"tags":"iceland,island","S2CellId":"48d7400000000000","result":5814,"accuracy":0.96690613,"title":"Mo%CC%88we"}
{"id":310514695,"url":"http://farm1.staticflickr.com/107/310514695_82b19b26ca.jpg","path":"2d6/281/2d6281a4eb39603579c01a7b6a11c9f1.jpg","date":"2004-06-11","year":2004,"month":6,"lon":-19.659004,"lat":63.546104,"tags":"%C3%ADsland,%C3%BEorvaldseyri,eyjafj%C3%B6ll,eyjafjallaj%C3%B6kull,glacier,icecap,iceland,tilted","S2CellId":"4010000000000000","result":2650,"accuracy":0.13040183,"title":"Level+is+boring","description":"One+of+the+most+photographed+farmhouses+in+Iceland%2C+%C3%9Eorvaldseyri+in+Eyjafj%C3%B6ll+district.+Rather+obvious+why.+Eyjafj%C3%B6ll+and+Eyjafjallaj%C3%B6kull+icecap+in+background.+%0D%0AShot+like+this%2C+and+it+is+not+as+nice+when+it+has+been+%22corrected%22+and+made+level."}
{"id":2935519522,"url":"http://farm4.staticflickr.com/3167/2935519522_1329ea7622.jpg","path":"6cf/b2a/6cfb2a708fff45ca3165c941bdf43f1.jpg","date":"2008-08-16","year":2008,"month":8,"lon":-19.32231,"lat":63.503094,"tags":"iceland,nature,sheep","S2CellId":"4889100000000000","result":5755,"accuracy":0.05246031}
{"id":5324201502,"url":"http://farm6.staticflickr.com/5287/5324201502_ea5a7fd674.jpg","path":"bce/165/bce165d8b2a9776041edd37683f22ee6.jpg","date":"2010-10-13","year":2010,"month":10,"lon":-19.021711,"lat":63.41911,"tags":"iceland,sea,south,v%C3%ADk+%C3%AD+m%C3%BDrdal,vik","S2CellId":"48d7400000000000","result":5814,"accuracy":0.23652647,"title":"V%C3%ADk+beach"}
{"id":5367533136,"url":"http://farm6.staticflickr.com/5248/5367533136_da6ac4694c.jpg","path":"acc/d47/accd475feacaccf7ba1326cecb76cbe.jpg","date":"2011-01-18","year":2011,"month":1,"lon":-19.250793,"lat":63.446827,"tags":"boreal+travel,erupci%C3%B3n,glaciar,iceland,islandia,landscapes,paisajes,playa,reynisdrangar,sur,viajes","S2CellId":"48d7400000000000","result":5814,"accuracy":0.82712066,"title":"Reynisdrangar+y+erupci%C3%B3n+al+fondo","description":"%C2%A9Joaqu%C3%ADn+Linares+%28Boreal+Travel+ehf%29%0A%0A%3Ca+href%3D%22http%3A%2F%2Fwww.borealtravel.com%22+rel%3D%22nofollow%22%3Ewww.borealtravel.com%3C%2Fa%3E"}
{"id":7784905564,"url":"http://farm9.staticflickr.com/8438/7784905564_e366160068.jpg","path":"ae8/a97/ae8a97f0ccfd5618af206a010dbdf.jpg","date":"2012-06-18","year":2012,"month":6,"lon":-19.010124,"lat":63.420204,"tags":"iceland,lupinus,v%C3%ADk,wildflowers","S2CellId":"5f0d000000000000","result":6352,"accuracy":0.044729885,"title":"Lupines"}
{"id":8770712094,"url":"http://farm8.staticflickr.com/7323/8770712094_d7687e3085.jpg","path":"48a/371/48a371f8c378befa45ebfc390f8a529.jpg","date":"2013-04-19","year":2013,"month":4,"lon":-19.988531,"lat":63.61604,"tags":"%C3%ADsland,2013,iceland,seljalandsfoss,vsco,vscofilm,x100s","S2CellId":"489b000000000000","result":5779,"accuracy":0.050150923,"title":"Distant","description":"Seljalandsfoss%2C+Iceland"}
{"id":789078730,"url":"http://farm2.staticflickr.com/1113/789078730_2f6be1c791.jpg","path":"701/7b7/7017b714fe983ae83a4a4dc6d6587eb4.jpg","date":"2007-07-03","year":2007,"month":7,"lon":-19.368896,"lat":63.530193,"tags":"iceland,islande,waterfall","S2CellId":"54907c0000000000","result":6223,"accuracy":0.25905025,"title":"Seconde+chute","description":"Sk%C3%B3gafoss"}
{"id":5373202670,"url":"http://farm6.staticflickr.com/5083/5373202670_4018cdae0c.jpg","path":"6a5/2a5/6a52a5e3513dcc93a4499b427255ab.jpg","date":"2011-01-20","year":2011,"month":1,"lon":-19.006348,"lat":63.968727,"tags":"boreal+travel,iceland,islandia,landmannalaugar,landscapes,paisajes,viajar,viajes","S2CellId":"48d1000000000000","result":5787,"accuracy":0.24236107,"title":"Landmannalaugar","description":"%C2%A9Joaqu%C3%ADn+Linares+%28Boreal+Travel+ehf%29%0A%0A%3Ca+href%3D%22http%3A%2F%2Fwww.borealtravel.com%22+rel%3D%22nofollow%22%3Ewww.borealtravel.com%3C%2Fa%3E"}
{"id":4619861760,"url":"http://farm4.staticflickr.com/3320/4619861760_2d2486cfdb.jpg","path":"982/26e/98226e5c34c6518f47d0a43dd31722f2.jpg","date":"2010-05-14","year":2010,"month":5,"lon":-19.57489,"lat":63.55895,"tags":"2010,ash+cloud,eyjafjallaj%C3%B6kull,eyjafjallaj%C3%B6kull+road+trip,iceland,road+trip,volcano","S2CellId":"91d5c00000000000","result":9634,"accuracy":0.05777357,"title":"21.05.10+%7C+Eyjafjallaj%C3%B6kull.","description":"Eyjafjallaj%C3%B6kull+Road+Trip+2010."}
{"id":4631398328,"url":"http://farm5.staticflickr.com/4062/4631398328_8a83341f8f.jpg","path":"863/9c7/8639c7b5cbd94fcd9ab6cea0ddebddfd.jpg","date":"2008-11-19","year":2008,"month":11,"lon":-19.503479,"lat":63.527134,"tags":"bird,iceland,puffin,sk%C3%B3gar,sk%C3%B3gasafn,skogar","S2CellId":"880e2b7000000000","result":8112,"accuracy":0.25020587,"title":"A+Puffin"}
{"id":2621441681,"url":"http://farm4.staticflickr.com/3233/2621441681_30b6a1e7a9.jpg","path":"7dc/1e7/7dc1e746b68ba0db21093f6acbb5fa9.jpg","date":"2008-06-26","year":2008,"month":6,"lon":-19.044628,"lat":63.422028,"tags":"black+sands,hj%C3%B6rleifsh%C3%B6f%C3%B0i,iceland,m%C3%BDrdalssandur,vik","S2CellId":"9aab000000000000","result":9926,"accuracy":0.22912097,"title":"M%C3%BDrdalssandur+and+Hj%C3%B6rleifsh%C3%B6f%C3%B0i"}
{"id":7746929950,"url":"http://farm9.staticflickr.com/8307/7746929950_20c6e71cc1.jpg","path":"dee/247/dee2471defb4db73ca9ba5efee668.jpg","date":"2012-07-25","year":2012,"month":7,"lon":-19.492647,"lat":63.52722,"tags":"iceland,island,sk%C3%B3gar","S2CellId":"48d7400000000000","result":5814,"accuracy":0.1958554,"title":"Museum+Sk%C3%B3gar"}
{"id":237906976,"url":"http://farm1.staticflickr.com/86/237906976_f7b6baa2d9.jpg","path":"6e3/9ea/6e39eaa52d80eca14d9b1f63d48eea8.jpg","date":"2006-08-28","year":2006,"month":8,"lon":-19.156723,"lat":63.993652,"tags":"2006,adrivdm,geothermal,iceland,islande,landmannalaugar,volcano","S2CellId":"466b000000000000","result":2939,"accuracy":0.0835486,"title":"Landmannalaugar+-+Iceland"}
{"id":2622185960,"url":"http://farm4.staticflickr.com/3130/2622185960_5f03ac950e.jpg","path":"344/097/3440975595c9266ad7e4cdd99165366.jpg","date":"2008-06-26","year":2008,"month":6,"lon":-19.263153,"lat":63.549774,"tags":"glacier,iceland,m%C3%BDrdalsj%C3%B6kull","S2CellId":"48d1000000000000","result":5787,"accuracy":0.1639048,"title":"Road+to+M%C3%BDrdalsj%C3%B6kull"}
{"id":4965834566,"url":"http://farm5.staticflickr.com/4112/4965834566_a3d124d680.jpg","path":"4bf/5ca/4bf5cab8967ce5d74d63d27b75d84698.jpg","date":"2010-08-04","year":2010,"month":8,"lon":-19.01217,"lat":63.416245,"tags":"hugin,panorama","S2CellId":"48d7400000000000","result":5814,"accuracy":0.6084345,"title":"DSC+1473-DSC+1476+vik"}
{"id":3780742011,"url":"http://farm3.staticflickr.com/2673/3780742011_e3588bf039.jpg","path":"334/b55/334b55413ff3973ce629dfc5c8b882e.jpg","date":"2009-07-06","year":2009,"month":7,"lon":-19.346924,"lat":63.55834,"tags":"2009,backpacking,europe,glacier,iceland,july,nordic,scandinavia,scandinavian,travel,trip","S2CellId":"48d7400000000000","result":5814,"accuracy":0.20554863,"title":"m%C3%BDrdalsj%C3%B6kull"}
{"id":8552977294,"url":"http://farm9.staticflickr.com/8248/8552977294_c0f6310e18.jpg","path":"99b/d5d/99bd5d8e68b9289c4b81d41dc1e75f7a.jpg","date":"2009-08-05","year":2009,"month":8,"lon":-19.511204,"lat":63.530846,"tags":"berg,cloudy,day,iceland,island,mountain,sk%C3%B3gafoss,sonne,sun","S2CellId":"48d7400000000000","result":5814,"accuracy":0.27521825,"title":"Sk%C3%B3gafoss","description":"We+had+luck.+At+the+moment+we+arrived+at+Sk%C3%B3gafoss%2C+the+sun+came+out+for+about+20+minutes.%0A%0ASk%C3%B3gafoss%2C+Iceland"}
{"id":2115381116,"url":"http://farm3.staticflickr.com/2408/2115381116_fcfa7c451e.jpg","path":"99b/b3d/99bb3d77bd93d324bf4f1bdf8fde8c17.jpg","date":"2007-08-03","year":2007,"month":8,"lon":-19.109344,"lat":63.405895,"tags":"%E5%86%B0%E5%B2%9B,2007,arena,beach,black,dyrholaey,iceland,islande,islandia,mar,mer,noir,ocean,sable,sea","S2CellId":"48d7400000000000","result":5814,"accuracy":0.85035145,"title":"Dyrholaey","description":"Plage+de+sable+noir%2C+Dyrholaey%2C+Islande%2C+ao%C3%BBt+2007.%0A%3Ca+href%3D%22http%3A%2F%2Fwww.benontherun.com%2Fpost%2Fcote-sud-islande%22+rel%3D%22nofollow%22%3Ewww.benontherun.com%2Fpost%2Fcote-sud-islande%3C%2Fa%3E"}
{"id":11185408376,"url":"http://farm8.staticflickr.com/7391/11185408376_32b27b34cf.jpg","path":"31f/e51/31fe51a409d7d9ee9a8aeceda9be9.jpg","date":"2012-12-09","year":2012,"month":12,"lon":-19.956278,"lat":63.725113,"tags":"buildings,church,hl%C3%AD%C3%B0arendakirkja,iceland,kirkja,kirkjur,missing,south,spring","S2CellId":"48d7400000000000","result":5814,"accuracy":0.25678083,"title":"Hl%C3%AD%C3%B0arendakirkja","description":"Hl%C3%AD%C3%B0arendakirkja+er+%C3%AD+Brei%C3%B0ab%C3%B3lssta%C3%B0ar-prestakalli+%C3%AD+Rang%C3%A1rvallapr%C3%B3fastsd%C3%A6mi.+H%C3%BAn+var+bygg%C3%B0+1898"}
{"id":7455362086,"url":"http://farm9.staticflickr.com/8025/7455362086_49bb87f411.jpg","path":"c77/957/c77957458f97d59478347315cdf8ad.jpg","date":"2012-06-21","year":2012,"month":6,"lon":-19.060364,"lat":63.991306,"tags":"exposition+longue,geo%3Acity%3D,geo%3Acountrys%3D,geo%3Astate%3D,iceland,islande,landmannalaugar,landscape,long+exposure,paysage","S2CellId":"48d1000000000000","result":5787,"accuracy":0.4819828,"title":"Landmannalaugar","description":"%3Ca+href%3D%22http%3A%2F%2Fwww.capture-the-world.com%22+rel%3D%22nofollow%22%3EMy+Website%3C%2Fa%3E+-+%3Ca+href%3D%22http%3A%2F%2Fwww.flickr.com%2Fphotos%2Floic80l%22%3EMy+Flickr%3C%2Fa%3E+-+%3Ca+href%3D%22https%3A%2F%2Fwww.facebook.com%2Fpages%2FCapture-the-World%2F202354953150320%22+rel%3D%22nofollow%22%3EMy+Facebook%3C%2Fa%3E+-%0A+%3Ca+href%3D%22https%3A%2F%2Fplus.google.com%2F108023614454861008041%2Fposts%22+rel%3D%22nofollow%22%3EMy+Google%2B%3C%2Fa%3E+-+%3Ca+href%3D%22http%3A%2F%2FLoic80l.500px.com%22+rel%3D%22nofollow%22%3EMy+500px%3C%2Fa%3E+-%0A+%3Ca+href%3D%22http%3A%2F%2Floiclagarde.darqroom.com%2F%22+rel%3D%22nofollow%22%3EMy+Darqroom%3C%2Fa%3E+-%0A+%3Ca+href%3D%22http%3A%2F%2Fpinterest.com%2Floic80l%2F%22+rel%3D%22nofollow%22%3EMy+Pinterest%3C%2Fa%3E"}
{"id":4901855929,"url":"http://farm5.staticflickr.com/4075/4901855929_db9f3d6987.jpg","path":"8dd/c68/8ddc68a5d435969d56d27ef42f9d7ac0.jpg","date":"2010-07-03","year":2010,"month":7,"lon":-19.152166,"lat":63.90594,"tags":"5st,iceland,laugavegur,walkabout2010,wilderness","S2CellId":"48d1000000000000","result":5787,"accuracy":0.478583,"title":"The+Laugavegur+hike+Iceland-168"}
{"id":4823203939,"url":"http://farm5.staticflickr.com/4136/4823203939_c4b3450167.jpg","path":"a2e/7b4/a2e7b4b7d7a9711d35b24b57e7b5943.jpg","date":"2010-07-18","year":2010,"month":7,"lon":-19.122734,"lat":63.402435,"tags":"iceland,reynisdrangar,sk%C3%B3gafoss","S2CellId":"4c90000000000000","result":5830,"accuracy":0.1000976,"title":"Someone%27s+excited+about+the+sea+stacks","description":"Alison+enjoying+the+sea+stacks+at+V%C3%ADk+from+the+top+of+Sk%C3%B3gafoss."}
{"id":5029790585,"url":"http://farm5.staticflickr.com/4077/5029790585_dd52593649.jpg","path":"459/25f/45925f0fafb87b54954de646e7a82c.jpg","date":"2010-08-03","year":2010,"month":8,"lon":-19.123077,"lat":63.40628,"tags":"iceland,islandia,landscapes,paisajes,reykjavik,vik","S2CellId":"808587c000000000","result":6980,"accuracy":0.030624246,"title":"Vik"}
{"id":5369219537,"url":"http://farm6.staticflickr.com/5210/5369219537_c6db39dd0e.jpg","path":"195/81a/19581a9c6264e29c927f1f54fbe90db.jpg","date":"2011-01-19","year":2011,"month":1,"lon":-19.643555,"lat":63.707153,"tags":"boreal+travel,erupci%C3%B3n,eyjafjallaj%C3%B6kull,fimmv%C3%B6r%C3%B0uh%C3%A1ls,iceland,islandia,landscapes,m%C3%BDrdalsj%C3%B6kull,paisajes,travel,viajes,volc%C3%A1n","S2CellId":"48d7400000000000","result":5814,"accuracy":0.24029021,"title":"Erupci%C3%B3n+en+Fimmv%C3%B6r%C3%B0uh%C3%A1ls","description":"%C2%A9Joaqu%C3%ADn+Linares+%28Boreal+Travel+ehf%29%0A%0A%3Ca+href%3D%22http%3A%2F%2Fwww.borealtravel.com%22+rel%3D%22nofollow%22%3Ewww.borealtravel.com%3C%2Fa%3E"}
{"id":8206655104,"url":"http://farm9.staticflickr.com/8057/8206655104_234213eef9.jpg","path":"85a/f95/85af95b6171158f776ae4f4c4eb5e1b5.jpg","date":"2012-07-04","year":2012,"month":7,"lon":-19.47634,"lat":63.570965,"tags":"backpacking,hiking,ice,iceland,island,su%EF%A3%BFurland,trail,volcano","S2CellId":"48d6c00000000000","result":5813,"accuracy":0.55107987,"title":"Project+Iceland+2012","description":"Hiking+the+Laugavegur+Trail%3A%0A%0ALandmannalaugar-Th%C3%B3rm%C3%B6rk--Sk%C3%B3gar"}
{"id":10827611844,"url":"http://farm8.staticflickr.com/7426/10827611844_a93e4f07da.jpg","path":"41e/37c/41e37c906467ae22f2da3c284266aa99.jpg","date":"2013-11-08","year":2013,"month":11,"lon":-19.508286,"lat":63.53256,"tags":"bokeh,canon+ef-s+15-85mm+f%2F3.5-5.6+is+usm,iceland,lenstagged,sk%C3%B3gafoss","S2CellId":"4860400000000000","result":4839,"accuracy":0.058642298,"title":"IMG_7726","description":"View+from+near+the+top+of+Sk%C3%B3gafoss"}
{"id":5818961002,"url":"http://farm4.staticflickr.com/3341/5818961002_25c872b4b2.jpg","path":"95d/af4/95daf4e5c1ddf2fb9e48e27f831572.jpg","date":"2010-08-09","year":2010,"month":8,"lon":-19.047546,"lat":63.919266,"tags":"chaine+volcanique,ciel,clouds,ddelion%40photojournaliste,iceland,islande,lac,lake,landmannalaugar,landscape,my_gear_and_me,nuages,paysage,piste,saariy%27squalitypictures,track,volcanos","S2CellId":"488dc00000000000","result":5767,"accuracy":0.15854111,"title":"NEAR+LANDMANNALAUGAR+REGION","description":"%3Ci%3EVisit+my+Iceland+photostream+%3A%3C%2Fi%3E+%3Ca+href%3D%22http%3A%2F%2Fwww.flickr.com%2Fphotos%2Fddelion%2Fsets%2F72157624606038805%2F%22%3Ewww.flickr.com%2Fphotos%2Fddelion%2Fsets%2F72157624606038805%2F%3C%2Fa%3E%0A%0A%0AI+found+my+little+heaven+somewhere+in+Iceland."}
{"id":7832739724,"url":"http://farm9.staticflickr.com/8307/7832739724_8f60009e1d.jpg","path":"557/823/55782391d68e8b7198775d41224bb0b3.jpg","date":"2012-08-21","year":2012,"month":8,"lon":-19.00669,"lat":63.419647,"tags":"hudson,instagram+app,iphoneography,square,square+format","S2CellId":"4889300000000000","result":5756,"accuracy":0.046359766,"title":"Another+roadside+foss."}
{"id":3674414763,"url":"http://farm4.staticflickr.com/3553/3674414763_b24fbb1287.jpg","path":"ffc/a5b/ffca5b7e1886868dcb4079d292748fd.jpg","date":"2009-06-16","year":2009,"month":6,"lon":-19.071363,"lat":63.411526,"tags":"beach,black,d300,dyrh%C3%B3laey,fishing,iceland,nikon,sand,tomas+buchtele","S2CellId":"5493000000000000","result":6233,"accuracy":0.01979692,"title":"Iceland+2009+-+Dyrh%C3%B3laey"}
{"id":8057288717,"url":"http://farm9.staticflickr.com/8457/8057288717_47fe0a6452.jpg","path":"5d2/d20/5d2d20f8eabd7081427a97c77f115fc.jpg","date":"2012-09-04","year":2012,"month":9,"lon":-19.07321,"lat":63.991997,"tags":"brennisteinsalda,canon+eos+1000d,colinas,hills,iceland,islandia,landmannalaugar,tamron+18-270+pzd","S2CellId":"48d1000000000000","result":5787,"accuracy":0.87800497,"title":"Vistas+desde+Brennisteinsalda"}
{"id":5322843573,"url":"http://farm6.staticflickr.com/5243/5322843573_3ac54855a7.jpg","path":"4bd/dc7/4bddc761e25b4408d88b87857e18db.jpg","date":"2010-10-13","year":2010,"month":10,"lon":-19.349499,"lat":63.537617,"tags":"glacier,hdr,ice,iceland,m%C3%BDrdalsj%C3%B6kull,south","S2CellId":"48d7400000000000","result":5814,"accuracy":0.32271373,"title":"M%C3%BDrdalsj%C3%B6kull+glacier"}
