{"id":8219287094,"url":"http://farm9.staticflickr.com/8345/8219287094_105d6d1d28.jpg","path":"2ed/ca6/2edca6b4a8597b97e2414823a6e9d010.jpg","date":"2012-01-11","year":2012,"month":1,"lon":36.872906,"lat":-3.233156,"tags":"africa,tanzania","S2CellId":"182d000000000000","result":1421,"accuracy":0.07977476,"title":"Waterbuck+at+Arusha+NP+in+Tanzania-09+1-11-12"}
{"id":3475922348,"url":"http://farm4.staticflickr.com/3645/3475922348_8987600ca7.jpg","path":"e0b/7bf/e0b7bfc13cd5641ee92ad7ffa1fa5b.jpg","date":"2009-03-22","year":2009,"month":3,"lon":36.03859,"lat":-3.794607,"tags":"africa,arusha,csc,manyara,ngorongoro,safari,tanzania,tarangire","S2CellId":"1ed0000000000000","result":1478,"accuracy":0.17314756,"title":"Safari"}
{"id":8513790651,"url":"http://farm9.staticflickr.com/8238/8513790651_d2b1d33259.jpg","path":"b1f/fed/b1ffed5ac1b14071dacd8ae339ad825e.jpg","date":"2013-02-17","year":2013,"month":2,"lon":36.07361,"lat":-3.97386,"tags":"africa,animals,impalas,tanzania,tarangire,travel","S2CellId":"1837000000000000","result":1426,"accuracy":0.24144146,"title":"Impalas%21"}
{"id":8299738984,"url":"http://farm9.staticflickr.com/8222/8299738984_9d87617c01.jpg","path":"2fd/829/2fd829a2a8e5ec936db53851170da96.jpg","date":"2012-10-23","year":2012,"month":10,"lon":36.66997,"lat":-3.377539,"tags":"forester,goodwood+to+good+hope,serengeti,shoebaru,subaru,tanzania","S2CellId":"19d0000000000000","result":1439,"accuracy":0.08176359,"title":"Faraja+Orphanage+%2821%29"}
{"id":5937863481,"url":"http://farm7.staticflickr.com/6139/5937863481_c221659b51.jpg","path":"84d/781/84d78116a38c8bf17a924ac611f82e81.jpg","date":"2011-06-17","year":2011,"month":6,"lon":36.073265,"lat":-3.912283,"tags":"elephant,safari,tanzania,tarangire+national+park","S2CellId":"182d000000000000","result":1421,"accuracy":0.18441303,"title":"Elephant+-+a+good+rub"}
{"id":8513798969,"url":"http://farm9.staticflickr.com/8105/8513798969_0e0bbd9308.jpg","path":"65b/5e1/65b5e1cfb1f9b91a49773bd825b7cad5.jpg","date":"2013-02-17","year":2013,"month":2,"lon":36.07361,"lat":-3.97386,"tags":"africa,animals,elephants,tanzania,tarangire,travel","S2CellId":"1ed0000000000000","result":1478,"accuracy":0.1621485,"title":"Elephant%21"}
{"id":6496900567,"url":"http://farm8.staticflickr.com/7161/6496900567_6729676416.jpg","path":"f8b/feb/f8bfeba616f5f95caad29538e677034.jpg","date":"2011-11-22","year":2011,"month":11,"lon":36.548767,"lat":-3.334435,"tags":"africa,arusha,safari,snake+park,tanzania,travel","S2CellId":"89fb400000000000","result":9399,"accuracy":0.0050929636,"title":"Ilios+and+Nicola+at+sunset+on+last+day+of+safari","description":"Snake+Park%2C+Arusha%2C+Tanzania"}
{"id":2807063601,"url":"http://farm4.staticflickr.com/3109/2807063601_8b7f795a28.jpg","path":"f31/e99/f31e9936864702f143c66b85068ee50.jpg","date":"2008-08-20","year":2008,"month":8,"lon":36.770382,"lat":-3.241693,"tags":"africa,arusha,canoe,park,tanzania","S2CellId":"1829000000000000","result":1419,"accuracy":0.29981124,"title":"2008_0820_12_15_59_1444"}
{"id":8513821497,"url":"http://farm9.staticflickr.com/8245/8513821497_5407f6ed3b.jpg","path":"d03/359/d03359b2ef975a182221e012ee4fd43.jpg","date":"2013-02-17","year":2013,"month":2,"lon":36.07361,"lat":-3.97386,"tags":"africa,animals,giraffes,tanzania,tarangire,travel","S2CellId":"1833000000000000","result":1424,"accuracy":0.20844546,"title":"Giraffes%21"}
{"id":8514899800,"url":"http://farm9.staticflickr.com/8372/8514899800_6a8713472d.jpg","path":"7f1/41f/7f141ff212536ca46f95a8ba014df5.jpg","date":"2013-02-17","year":2013,"month":2,"lon":36.07361,"lat":-3.97386,"tags":"africa,animals,giraffe,giraffes,tanzania,tarangire,travel","S2CellId":"182d000000000000","result":1421,"accuracy":0.24026799,"title":"Giraffe%21"}
{"id":3475928058,"url":"http://farm4.staticflickr.com/3397/3475928058_560aabdb3a.jpg","path":"ab4/04e/ab404ecdff4f3d486e2e379c456f8ae2.jpg","date":"2009-03-22","year":2009,"month":3,"lon":36.03859,"lat":-3.794607,"tags":"africa,arusha,csc,manyara,ngorongoro,safari,tanzania,tarangire","S2CellId":"1ed0000000000000","result":1478,"accuracy":0.15579598,"title":"Safari"}
{"id":8513797575,"url":"http://farm9.staticflickr.com/8376/8513797575_7e74c99e10.jpg","path":"ce3/5b1/ce35b19c3cb591f34572b9847ec1198.jpg","date":"2013-02-17","year":2013,"month":2,"lon":36.07361,"lat":-3.97386,"tags":"africa,animals,elephants,giraffes,tanzania,tarangire,travel","S2CellId":"1833000000000000","result":1424,"accuracy":0.13605283,"title":"Elephant+meets+Giraffe","description":"Giraffe+apparently+doesn%27t+want+to+be+friends+with+the+elephant"}
{"id":8513823669,"url":"http://farm9.staticflickr.com/8248/8513823669_80ea22f00a.jpg","path":"6b5/982/6b5982f34ed03339cd64fc32748a43f0.jpg","date":"2013-02-17","year":2013,"month":2,"lon":36.07361,"lat":-3.97386,"tags":"africa,animals,giraffes,tanzania,tarangire,travel","S2CellId":"182d000000000000","result":1421,"accuracy":0.1535114,"title":"Giraffes%21"}
{"id":6984749321,"url":"http://farm8.staticflickr.com/7179/6984749321_fc96733432.jpg","path":"ccf/447/ccf4471d872d11fe6efebe367b71c40.jpg","date":"2009-10-22","year":2009,"month":10,"lon":36.86367,"lat":-3.35981,"tags":"horticulture,le%CC%81gume,seeds,semence,tanzania,tanzanie,tomate,tomatoes,vegetables","S2CellId":"5485700000000000","result":6102,"accuracy":0.48633185,"title":"Field+for+tomato+seed+multiplication+%3D+Champ+de+multiplication+de+semences+de+tomate","description":"Photo+by+R%C3%A9mi+Kahane%2C+GlobalHort.+Afrisem%2C+Usa+River%2C+Arusha%2C+Tanzania.+October+2009."}
{"id":8051565894,"url":"http://farm9.staticflickr.com/8462/8051565894_04d0184076.jpg","path":"d80/32a/d8032a8a2214fea7553e766f9f.jpg","date":"2012-08-27","year":2012,"month":8,"lon":36.843697,"lat":-3.232435,"tags":"2012,arusha,berg,besteigung,climbing,meru,mount,mt.,national,park,peak,socialist,tansania,tanzania,vulkan","S2CellId":"1833000000000000","result":1424,"accuracy":0.18696447,"title":"Muster"}
{"id":8513807571,"url":"http://farm9.staticflickr.com/8505/8513807571_e2385e59ba.jpg","path":"7f8/c2f/7f8c2f7016782275e41a2b4b1657f41.jpg","date":"2013-02-17","year":2013,"month":2,"lon":36.07361,"lat":-3.97386,"tags":"africa,tanzania,tarangire,travel","S2CellId":"182d000000000000","result":1421,"accuracy":0.58515495,"title":"Tarangire+National+Park"}
{"id":330333128,"url":"http://farm1.staticflickr.com/143/330333128_0c6fddaf45.jpg","path":"3a8/653/3a8653ba1ff1676c8262c1bcbfafee3.jpg","date":"2006-12-15","year":2006,"month":12,"lon":36.670303,"lat":-3.359289,"tags":"+arusha,+drinks,+farewell,+hanging+out,+parting,+party,+restaurant,+rooftop,emily,tanzania","S2CellId":"46db000000000000","result":3081,"accuracy":0.13534445,"title":"a+la+dinner+party"}
{"id":7468550878,"url":"http://farm8.staticflickr.com/7127/7468550878_8b3427d4b0.jpg","path":"8d4/1ff/8d41ff40249c9b529e4c19abf3cb3ecf.jpg","date":"2012-05-28","year":2012,"month":5,"lon":36.062622,"lat":-3.869735,"tags":"africa,harvey+barrison,hbarrison,tanzania,tarangire,tarangire+national+park,tauck","S2CellId":"1e70000000000000","result":1463,"accuracy":0.17385018,"title":"Tarangire_2012+05+28_1830","description":"A+community+of+herbivores+in+Tarangire+National+Park"}
{"id":8513879891,"url":"http://farm9.staticflickr.com/8250/8513879891_2b8d700af8.jpg","path":"4e6/6b6/4e66b62cc934ced1d9dfe1c26c2540.jpg","date":"2013-02-18","year":2013,"month":2,"lon":36.07361,"lat":-3.97386,"tags":"africa,animals,elephants,tanzania,tarangire,travel","S2CellId":"1833000000000000","result":1424,"accuracy":0.26247478,"title":"Elephants%21"}
{"id":8970619149,"url":"http://farm6.staticflickr.com/5457/8970619149_aa2c141d3e.jpg","path":"e6c/f8e/e6cf8ed841b174fba96591f71b9e423b.jpg","date":"2013-04-10","year":2013,"month":4,"lon":36.04909,"lat":-3.78521,"tags":"africa,afrique,animal,helogale,mangouste,mongoose,naine,nature,parvula,tanzania,tanzanie","S2CellId":"88d9300000000000","result":8584,"accuracy":0.07980584,"title":"Scouting+mongoose"}
{"id":7468560826,"url":"http://farm8.staticflickr.com/7112/7468560826_6c92de99e4.jpg","path":"faf/ba3/fafba3a4422de42f2f9ff92eb4c2ae84.jpg","date":"2012-05-28","year":2012,"month":5,"lon":36.062622,"lat":-3.869735,"tags":"affalo,africa,african+buffalo,cape+buffalo,harvey+barrison,hbarrison,mbogo,nyati,tanzania,tarangire,tarangire+national+park,tauck","S2CellId":"1833000000000000","result":1424,"accuracy":0.27199787,"title":"Tarangire_2012+05+28_1783","description":"A+herd+of+African+buffalo%2C+affalo%2C+nyati%2C+Mbogo+or+Cape+buffalo+%28Syncerus+caffer%29%2C+a+large+African+bovine."}
{"id":3475112213,"url":"http://farm4.staticflickr.com/3369/3475112213_b996a34203.jpg","path":"62d/fc0/62dfc0f126485327b458f5c66895b265.jpg","date":"2009-03-22","year":2009,"month":3,"lon":36.03859,"lat":-3.794607,"tags":"africa,arusha,csc,manyara,ngorongoro,safari,tanzania,tarangire","S2CellId":"1ed0000000000000","result":1478,"accuracy":0.18961278,"title":"Safari"}
{"id":9539097730,"url":"http://farm4.staticflickr.com/3693/9539097730_a39f50f445.jpg","path":"7d7/3db/7d73db4d27f56e56aab586e77961df30.jpg","date":"2013-02-26","year":2013,"month":2,"lon":36.005974,"lat":-3.765939,"tags":"africa,monkey,olive+baboon,safari,tanzania,tarangire,wildlife","S2CellId":"0ed0000000000000","result":640,"accuracy":0.03787674,"title":"Baboons+in+the+Baobab"}
{"id":8513751307,"url":"http://farm9.staticflickr.com/8090/8513751307_c555f32f9c.jpg","path":"238/4ef/2384efb8e4764a85c6f1ddf5ee81a20.jpg","date":"2013-02-17","year":2013,"month":2,"lon":36.07361,"lat":-3.97386,"tags":"africa,animals,elephants,tanzania,tarangire,travel","S2CellId":"1833000000000000","result":1424,"accuracy":0.28125337,"title":"Elephants%21"}
{"id":7468510378,"url":"http://farm9.staticflickr.com/8142/7468510378_8b22ac44d9.jpg","path":"ea5/736/ea57362a1ecc4f47509d4538a392d2.jpg","date":"2012-05-27","year":2012,"month":5,"lon":36.062622,"lat":-3.869735,"tags":"africa,harvey+barrison,hbarrison,impala,melampus,tanzania,tarangire,tarangire+national+park,tauck","S2CellId":"1ed0000000000000","result":1478,"accuracy":0.16137382,"title":"Tarangire_2012+05+27_1919","description":"An+impala+%28Aepyceros+melampus%29+is+a+medium-sized+African+antelope.+The+name+impala+comes+from+the+Zulu+language+meaning+%22gazelle%22"}
{"id":354851376,"url":"http://farm1.staticflickr.com/127/354851376_65fbac52a4.jpg","path":"43d/cb2/43dcb28950f76b9ef426de4b8e1b6c.jpg","date":"2006-12-26","year":2006,"month":12,"lon":36.089027,"lat":-3.824042,"tags":"bucorvus+leadbeateri,dsc_3009.jpg,horbill,southern+ground+horbill,tanzania","S2CellId":"487addc000000000","result":5535,"accuracy":0.02129365,"title":"Southern+Ground+Hornbill","description":"Tarangire+National+Park%2C+Tanzania"}
{"id":4868538946,"url":"http://farm5.staticflickr.com/4136/4868538946_dcdf8d4544.jpg","path":"295/397/2953973203315ff911cdfe7c872b29.jpg","date":"2010-07-28","year":2010,"month":7,"lon":36.824112,"lat":-3.314304,"tags":"arusha,arusha+national+park,tanzania","S2CellId":"1835000000000000","result":1425,"accuracy":0.07687363,"title":"Arusha+National+Park+%283%29"}
{"id":9536374097,"url":"http://farm4.staticflickr.com/3755/9536374097_09f455674f.jpg","path":"315/485/315485f7092d047018a0202611e84d.jpg","date":"2013-02-26","year":2013,"month":2,"lon":36.005974,"lat":-3.765939,"tags":"africa,safari,tanzania,tarangire,wildlife","S2CellId":"1950000000000000","result":1435,"accuracy":0.079609476,"title":"Peafowl"}
{"id":4868494888,"url":"http://farm5.staticflickr.com/4073/4868494888_210340a2d4.jpg","path":"87b/8e6/87b8e6f01652959b8960bb5ecd94fddc.jpg","date":"2010-07-26","year":2010,"month":7,"lon":36.039276,"lat":-3.702216,"tags":"tanzania,tarangire","S2CellId":"1833000000000000","result":1424,"accuracy":0.18551463,"title":"Tarangire+National+Park"}
{"id":8513833147,"url":"http://farm9.staticflickr.com/8240/8513833147_3470830cea.jpg","path":"450/487/45048775c3d5f9bc16f7ce9246295ff.jpg","date":"2013-02-17","year":2013,"month":2,"lon":36.07361,"lat":-3.97386,"tags":"africa,tanzania,tarangire,travel","S2CellId":"80dcb40000000000","result":7336,"accuracy":0.010416415,"title":"Tarangire+Treetops+Lodge"}
{"id":8513902129,"url":"http://farm9.staticflickr.com/8245/8513902129_4b186cb80b.jpg","path":"a42/fed/a42fed7bfd67c05ef9029c45418f791.jpg","date":"2013-02-18","year":2013,"month":2,"lon":36.07361,"lat":-3.97386,"tags":"africa,animals,elephants,tanzania,tarangire,travel","S2CellId":"1835000000000000","result":1425,"accuracy":0.34889373,"title":"Elephants%21"}
{"id":8328345462,"url":"http://farm9.staticflickr.com/8351/8328345462_9d8eec2ab4.jpg","path":"373/795/37379578e5fe4d893b5e31f9a6a360.jpg","date":"2012-12-18","year":2012,"month":12,"lon":36.695965,"lat":-3.361624,"tags":"adventure,africa,bernie+kelly,freddie+mercury,freddy+mercury,gloabal+immersion,hdr,high+dynamic+range,mount+kilimanjaro,mt+kilimanjaro,photography,queen,sam+hawleywood,travel,youth+leadership,zanzibar","S2CellId":"80db100000000000","result":7313,"accuracy":0.042995423,"title":"IMG_8028"}
{"id":8515025034,"url":"http://farm9.staticflickr.com/8372/8515025034_f10e697982.jpg","path":"798/67a/79867ace28fe80818c42ba5c78216a43.jpg","date":"2013-02-18","year":2013,"month":2,"lon":36.07361,"lat":-3.97386,"tags":"africa,animals,elephants,tanzania,tarangire,travel","S2CellId":"1835000000000000","result":1425,"accuracy":0.2592578,"title":"Elephants%21"}
{"id":8514934300,"url":"http://farm9.staticflickr.com/8243/8514934300_ddf85b369c.jpg","path":"f9a/262/f9a262ee22818588c3e1cca08314c8e5.jpg","date":"2013-02-17","year":2013,"month":2,"lon":36.07361,"lat":-3.97386,"tags":"africa,animals,giraffes,tanzania,tarangire,travel","S2CellId":"1833000000000000","result":1424,"accuracy":0.17560758,"title":"Giraffes%21"}
{"id":7468489290,"url":"http://farm8.staticflickr.com/7117/7468489290_ff4968f127.jpg","path":"967/5f8/9675f8e3b47b22f468b944307cbd725.jpg","date":"2012-05-27","year":2012,"month":5,"lon":36.062622,"lat":-3.869735,"tags":"africa,common+fiscal,fiscal,harvey+barrison,hbarrison,tanzania,tarangire,tarangire+national+park,tauck","S2CellId":"12aef00000000000","result":792,"accuracy":0.028577447,"title":"Tarangire_2012+05+27_2067","description":"The+Common+Fiscal+%28Lanius+collaris%29+is+a+member+of+the+shrike+family+found+through+most+of+Sub-Saharan+Africa.+It+is+also+sometimes+named+Fiscal+Shrike%2C+as+well+as+Jackie+Hangman+or+Butcher+Bird+due+to+its+habit+of+impaling+its+prey+on+acacia+thorns+to+store+the+food+for+later+consumption."}
{"id":4867787095,"url":"http://farm5.staticflickr.com/4142/4867787095_db8423fddd.jpg","path":"f84/f41/f84f41ae761463bc1082cd28f0e725b8.jpg","date":"2010-07-25","year":2010,"month":7,"lon":36.039276,"lat":-3.702216,"tags":"national,park%60,tanzania,tarangire","S2CellId":"1837000000000000","result":1426,"accuracy":0.1763384,"title":"Tarangire+I+%289%29"}
{"id":4868784755,"url":"http://farm5.staticflickr.com/4074/4868784755_ff6e96533b.jpg","path":"d48/fed/d48fed7dd3a3a1e527a9075e44380e2.jpg","date":"2010-07-29","year":2010,"month":7,"lon":36.68644,"lat":-3.315387,"tags":"africa","S2CellId":"19d0000000000000","result":1439,"accuracy":0.14499162,"title":"Eva%27s+class"}
{"id":330333137,"url":"http://farm1.staticflickr.com/153/330333137_17ab5ad6f5.jpg","path":"d7d/55d/d7d55d7bea22ab81127428e96ff21c.jpg","date":"2006-12-15","year":2006,"month":12,"lon":36.670303,"lat":-3.359289,"tags":"+arusha,+drinks,+farewell,+hanging+out,+parting,+party,+restaurant,+rooftop,amelia,cassie,emily,tanzania","S2CellId":"46db000000000000","result":3081,"accuracy":0.07645649,"title":"games"}
{"id":8514865518,"url":"http://farm9.staticflickr.com/8089/8514865518_6acc1bd973.jpg","path":"512/725/512725a99d7adb681072f237f43f5fee.jpg","date":"2013-02-17","year":2013,"month":2,"lon":36.07361,"lat":-3.97386,"tags":"africa,animals,elephants,tanzania,tarangire,travel","S2CellId":"1833000000000000","result":1424,"accuracy":0.14598848,"title":"Elephants%21"}
{"id":354845908,"url":"http://farm1.staticflickr.com/127/354845908_7e1715becb.jpg","path":"2db/4c1/2db4c1eb94b1e947204685c6dd60b0.jpg","date":"2006-12-15","year":2006,"month":12,"lon":36.78615,"lat":-3.390592,"tags":"tanzania","S2CellId":"88d0a631cabb5071","result":8563,"accuracy":0.24640584,"title":"Cormorant"}
{"id":5356720106,"url":"http://farm6.staticflickr.com/5289/5356720106_9818947c26.jpg","path":"14e/128/14e128e3f45042bfb6fed7eb19cbcd50.jpg","date":"2011-01-08","year":2011,"month":1,"lon":36.679916,"lat":-3.359374,"tags":"arusha,tanzania,trapca","S2CellId":"6001094000000000","result":6403,"accuracy":0.044672586,"title":"Music+video+shoot","description":"One+day+there+was+a+music+video+shoot+ouside+the+office."}
{"id":8513776781,"url":"http://farm9.staticflickr.com/8368/8513776781_3b22107b1e.jpg","path":"9d8/b4b/9d8b4bfc2bfd66e9453581b09710d48b.jpg","date":"2013-02-17","year":2013,"month":2,"lon":36.07361,"lat":-3.97386,"tags":"africa,tanzania,tarangire,travel","S2CellId":"1ed0000000000000","result":1478,"accuracy":0.18469988,"title":"Tarangire+National+Park"}
