{"id":397148487,"url":"http://farm1.staticflickr.com/183/397148487_54504db428.jpg","path":"cbb/7cc/cbb7cc2dd09f15a525cff9152d98c964.jpg","date":"2006-08-01","year":2006,"month":8,"lon":19.859032,"lat":49.209816,"tags":"g%C3%B3ry,mountains,tatras,tatry,urlop,urlop+2006,wypoczynek,zakopane","S2CellId":"5370c00000000000","result":6047,"accuracy":0.08222071,"title":"0109_SMRECZYNSKI_STAW_14-08-2006_13-49"}
{"id":1050058324,"url":"http://farm2.staticflickr.com/1183/1050058324_093c7f4340.jpg","path":"618/a82/618a82cc9295b574b104daac282df66.jpg","date":"2007-08-07","year":2007,"month":8,"lon":19.86406,"lat":49.2433,"tags":"dolina+ko%C5%9Bcieliska,jaskinia+mro%C5%BAna,krzysztof+przechlewski","S2CellId":"54866c0000000000","result":6114,"accuracy":0.021199051,"title":"dscf0384"}
{"id":398661056,"url":"http://farm1.staticflickr.com/186/398661056_1f61f90852.jpg","path":"97c/469/97c46972acb8eae078932ec814db79e8.jpg","date":"2006-08-01","year":2006,"month":8,"lon":19.936193,"lat":49.30803,"tags":"g%C3%B3ry,mountains,tatras,tatry,urlop,urlop+2006,wypoczynek,zakopane","S2CellId":"470bb00000000000","result":3176,"accuracy":0.02917504,"title":"0706_GUBALOWKA_LUDZIE_19-08-206_13-380"}
{"id":471562240,"url":"http://farm1.staticflickr.com/194/471562240_b09bf600a7.jpg","path":"874/0f4/8740f4ae3ce32539094242542d0108c.jpg","date":"2007-04-15","year":2007,"month":4,"lon":19.775862,"lat":49.219166,"tags":"%28polish%29+tatra+national+park,crocus,dolina+chocho%C5%82owska,flower,flowers,g%C3%B3ry,krokus,mountains,poland,polska,spring,tatra+mountains,tatry","S2CellId":"48760dd000000000","result":5282,"accuracy":0.018981693,"title":"krokusy+Chocho%C5%82owska+-+1000"}
{"id":7693201310,"url":"http://farm9.staticflickr.com/8020/7693201310_d48b0fccd6.jpg","path":"5d8/e91/5d8e9186b4fc9d8abb43a2e27d3fad7b.jpg","date":"2012-05-29","year":2012,"month":5,"lon":19.93126,"lat":49.240128,"tags":"tatras","S2CellId":"12a8c00000000000","result":771,"accuracy":0.036891714}
{"id":1229973975,"url":"http://farm2.staticflickr.com/1360/1229973975_41a58a9f2f.jpg","path":"e72/331/e72331126359f24597fb2bb1c871bf30.jpg","date":"2007-08-19","year":2007,"month":8,"lon":19.856543,"lat":49.217945,"tags":"2007,chalet,dolina,dolina+ko%C5%9Bcieliska,fz30,hala,hala+ornak,holiday,holiday+2007,hut,ko%C5%9Bcieliska,ko%C5%9Bcieliska+valley,mountain+chalet,mountain+hut,ornak,panasonic,panasonic+fz30,schronisko,tatras,tatry,tatry+zachodnie,urlop,urlop+2007,vacation,vacation+2007,valley,wakacje,wakacje+2007,widoki,zakopane","S2CellId":"4715c00000000000","result":3204,"accuracy":0.3317812,"title":"DOLINA+KO%C5%9ACIELISKA+-+HALA+ORNAK"}
{"id":4437525215,"url":"http://farm5.staticflickr.com/4057/4437525215_4585dc88fb.jpg","path":"349/b6c/349b6c15f7d9bbdcbf7c470d4e0f8.jpg","date":"2010-03-16","year":2010,"month":3,"lon":19.952545,"lat":49.293896,"tags":"film,hotel,poland,room,window,yashica+t4,zakopane","S2CellId":"46416d0000000000","result":2792,"accuracy":0.0027634848,"description":"our+hotel+room+in+Zakopane"}
{"id":7796633102,"url":"http://farm9.staticflickr.com/8430/7796633102_ee12c591e1.jpg","path":"ea6/eea/ea6eea9bb24381c56665c0bba7dbe055.jpg","date":"2012-08-15","year":2012,"month":8,"lon":19.581842,"lat":49.01558,"tags":"demanova+dolina,gaetanku,slovakia,slovaquie,slowacja","S2CellId":"36f4000000000000","result":2416,"accuracy":0.11543786,"title":"D7N_0624","description":"Demanova+Dolina"}
{"id":646786636,"url":"http://farm2.staticflickr.com/1084/646786636_e3d52f12f0.jpg","path":"7a4/97a/7a497ae573e7fe1106fd2ce81dd5bb4.jpg","date":"2007-06-27","year":2007,"month":6,"lon":19.937824,"lat":49.818768,"tags":"niepelnosprawni2007","S2CellId":"43f0000000000000","result":2747,"accuracy":0.04337339,"title":"Piknik+niepelnosprawnych+Myslenice+2007"}
{"id":536135012,"url":"http://farm2.staticflickr.com/1081/536135012_0e5a014823.jpg","path":"c6c/12c/c6c12c78c94c34eb3f607a91d473140.jpg","date":"2006-08-01","year":2006,"month":8,"lon":19.963531,"lat":49.62728,"tags":"beskid+wyspowy,beskidy,cloudy,countryside,day,fields,g%C3%B3ry,gory,krajobraz,landscape,lubo%C5%84,lubon,ma%C5%82opolska,ma%C5%82opolskie,malopolska,malopolskie,mountains,pola,poland,polska,rabka,rabka-zdr%C3%B3j,rabka-zdroj,wie%C5%9B","S2CellId":"473f000000000000","result":3261,"accuracy":0.17658547,"title":"Beskid+Wyspowy","description":"Zej%C5%9Bcie+z+Lubonia+Wielkiego%2C+Rabka-Zaryte%2C+1+sierpnia+2006+r.%0A**%0ADescending+Lubo%C5%84+Wielki%2C+Rabka-Zaryte%2C+August+1%2C+2006"}
{"id":376742563,"url":"http://farm1.staticflickr.com/142/376742563_287ab1d458.jpg","path":"62f/a88/62fa88748ecddbb62dfdcd97fd132ed.jpg","date":"2006-02-10","year":2006,"month":2,"lon":19.95718,"lat":49.296528,"tags":"aplusphoto,challenge+you+winner,poland,sunrise,superaplus","S2CellId":"5140000000000000","result":5964,"accuracy":0.18206945,"title":"sunrise+in+the+eastern+sky"}
{"id":4909886701,"url":"http://farm5.staticflickr.com/4119/4909886701_ae012687d1.jpg","path":"b93/a3c/b93a3ca76e81d4cac7ab90db0e4b098.jpg","date":"2008-06-15","year":2008,"month":6,"lon":19.939156,"lat":49.29938,"tags":"2008,poland,polonia,zakopane","S2CellId":"548e400000000000","result":6158,"accuracy":0.034276936,"title":"Zakopane+%2F+Poland+%402008%40"}
{"id":6343275615,"url":"http://farm7.staticflickr.com/6231/6343275615_859a8e7ee8.jpg","path":"f28/fa7/f28fa7146c88cc2692aade9c82830bd.jpg","date":"2011-11-14","year":2011,"month":11,"lon":19.517298,"lat":49.58203,"tags":"atrakcje,attractions,babia,babiog%C3%B3rski,babiogorski+park+narodowy,beskidy,g%C3%B3ra,g%C3%B3ry,krajobrazy,landscapes,mountains,narodowy,national,nature,park,podr%C3%B3%C5%BCe,poland,polska,przyroda,travel,turystyczne","S2CellId":"5140000000000000","result":5964,"accuracy":0.08985356,"title":"Babiog%C3%B3rski+Park+Narodowy+%2F+Babia+G%C3%B3ra+National+Park%2C+Poland","description":"Babiog%C3%B3rski+Park+Narodowy+po%C5%82o%C5%BCony+jest+w+Beskidzie+%C5%BBywieckim%2C+ok.+90+km+na+po%C5%82udniowy+zach%C3%B3d+od+Krakowa.+BPN+jest+parkiem+g%C3%B3rskim+z+najwy%C5%BCszym+szczytem+Babi%C4%85+G%C3%B3r%C4%85+1725+m+n.p.m.%0A%3Ca+href%3D%22http%3A%2F%2Fwww.poland.gov.pl%2FBabiogorski%2CPark%2CNarodowy%2C7162.html%22+rel%3D%22nofollow%22%3Ewww.poland.gov.pl%2FBabiogorski%2CPark%2CNarodowy%2C7162.html%3C%2Fa%3E%0A%0AThe+Babia+G%C3%B3ra+National+Park+is+located+in+Beskid+%C5%BBywiecki%2C+about+90+kilometres+to+the+south-west+of+Cracow.+Babia+G%C3%B3ra+National+Park+is+a+mountain+park+with+the+highest+summit+being+Babia+G%C3%B3ra+%281725+meters+above+sea+level%29.%0A%3Ca+href%3D%22http%3A%2F%2Fen.poland.gov.pl%2FBabia%2CGora%2CNational%2CPark%2C8307.html%22+rel%3D%22nofollow%22%3Een.poland.gov.pl%2FBabia%2CGora%2CNational%2CPark%2C8307.html%3C%2Fa%3E%0A%0AMore+about+Poland%3A+%3Ca+href%3D%22http%3A%2F%2Fwww.poland.gov.pl%22+rel%3D%22nofollow%22%3Ewww.poland.gov.pl%3C%2Fa%3E%0A%0AFot.+Mariusz+Cieszewski"}
{"id":9573431839,"url":"http://farm6.staticflickr.com/5477/9573431839_187973c003.jpg","path":"2ab/5f1/2ab5f1d61d2845e13d5848961ab051.jpg","date":"2012-08-17","year":2012,"month":8,"lon":19.70398,"lat":49.25705,"tags":"roh%C3%A1%C4%8De","S2CellId":"4715c00000000000","result":3204,"accuracy":0.15608864,"title":"DSCN1801"}
{"id":9542622887,"url":"http://farm3.staticflickr.com/2839/9542622887_56aa41321a.jpg","path":"1a4/fc2/1a4fc2de9d4b41e8aa23211fd2d85dd.jpg","date":"2013-08-18","year":2013,"month":8,"lon":19.52456,"lat":49.832745,"tags":"%C5%9Bwinna+por%C4%99ba","S2CellId":"4799900000000000","result":3777,"accuracy":0.4194544,"title":"P1070304"}
{"id":1050717086,"url":"http://farm2.staticflickr.com/1069/1050717086_8fa84a6960.jpg","path":"41b/f4c/41bf4c594ca337d4e03490e9eaaa6fbc.jpg","date":"2007-08-07","year":2007,"month":8,"lon":19.86406,"lat":49.2433,"tags":"dolina+ko%C5%9Bcieliska,stream","S2CellId":"5490d00000000000","result":6226,"accuracy":0.096797675,"title":"dscf0444"}
{"id":2333111149,"url":"http://farm4.staticflickr.com/3069/2333111149_99ea66feaa.jpg","path":"af9/5c5/af95c5bd72fcb8737634a825955fd14.jpg","date":"2008-03-09","year":2008,"month":3,"lon":19.986103,"lat":49.28337,"tags":"%D0%B7%D0%B0%D0%BA%D0%BE%D0%BF%D0%B0%D0%BD%D0%B5,%D0%BF%D0%BE%D0%BB%D1%8C%D1%88%D0%B0,%D0%BF%D0%BE%D0%BB%D1%8C%D1%89%D0%B0,berg,poland,polen,polska,tatra+mountains,tatry,zakopane","S2CellId":"4713c00000000000","result":3200,"accuracy":0.035219558,"title":"Nosal+--+Zakopane","description":"%D0%92%D0%B8%D0%B4+%D1%81+%D1%81%D0%B5%D0%B2%D0%B5%D1%80%D0%BD%D0%BE%D0%B3%D0%BE+%D1%81%D0%BA%D0%BB%D0%BE%D0%BD%D0%B0+%D0%B3.+%D0%9D%D0%BE%D1%81%D0%B0%D0%BB%D1%8C"}
{"id":2692792907,"url":"http://farm4.staticflickr.com/3033/2692792907_64c0cffe15.jpg","path":"98f/256/98f256ddee306134ac1066dc201175f6.jpg","date":"2008-07-03","year":2008,"month":7,"lon":19.660378,"lat":49.53869,"tags":"2008,jablonka,journey,lipnica,market,poland,polska,rural,targ,trip,vacation","S2CellId":"47b3100000000000","result":4017,"accuracy":0.059425242,"title":"Pane"}
{"id":5349547153,"url":"http://farm6.staticflickr.com/5249/5349547153_94b32a27c9.jpg","path":"c1b/15e/c1b15e414e61513be17f34c2bc677d.jpg","date":"2008-06-23","year":2008,"month":6,"lon":19.19981,"lat":49.702168,"tags":"%C5%9Bwiat%C5%82o,%C5%BCywiec,drzewa,krajobraz,landscape,natura,poland,polska,trees,water,woda,zalew","S2CellId":"89c2d00000000000","result":9097,"accuracy":0.019238088,"title":"Scie%C5%BCka+nad+urwiskiem"}
{"id":5715722622,"url":"http://farm4.staticflickr.com/3155/5715722622_2c2c7a6d4a.jpg","path":"784/09d/78409dec3613568db9c377c4b4d5980.jpg","date":"2011-03-26","year":2011,"month":3,"lon":19.972973,"lat":49.283203,"tags":"adam%27s+bull+eye,adam+ma%C5%82ysz,drabikpany,kibice,scena,ski+jumping,skocznia,skoki+narciarskie,sport,stage,wielka+krokiew,zakopane","S2CellId":"8852c00000000000","result":8415,"accuracy":0.026925549,"title":"Scena+pod+Wielk%C4%85+Krokwi%C4%85","description":"Zdj%C4%99cie+zrobione+podczas+benefisu+Adama+Ma%C5%82ysza+w+Zakopanym."}
{"id":4826389264,"url":"http://farm5.staticflickr.com/4122/4826389264_17ba310bd5.jpg","path":"9e4/f01/9e4f01685ac584358b383c77d416b6.jpg","date":"2010-07-23","year":2010,"month":7,"lon":19.957352,"lat":49.27699,"tags":"cable+car,hdr,kasprovy+peak,kasprowy+wierch,mountain,mountain+chain,poland,polska,summer,tatra,zakopane","S2CellId":"4715c00000000000","result":3204,"accuracy":0.07768822,"title":"Tatras+in+HDR"}
{"id":5808331296,"url":"http://farm4.staticflickr.com/3329/5808331296_cff6096b6b.jpg","path":"328/11d/32811d9bfdae174f8f801544b03534.jpg","date":"2011-06-04","year":2011,"month":6,"lon":19.555513,"lat":49.659912,"tags":"2011,bike+maraton,kolarstwo,ma%C5%82opolska,mtb,polska,zawoja","S2CellId":"47769c0000000000","result":3421,"accuracy":0.023232553,"title":"2011.06.04+-+Zawoja+-+Bike+Maraton"}
{"id":6005918662,"url":"http://farm7.staticflickr.com/6009/6005918662_01da23e63c.jpg","path":"8ab/bc6/8abbc620ab93a34cc1e5ad50af6a476a.jpg","date":"2011-08-03","year":2011,"month":8,"lon":19.057281,"lat":49.821304,"tags":"%23118,bielsko-bia%C5%82a,citaro,linia+2,mercedes,mzk+bielsko-bia%C5%82a,o530k,przebudowa+ulic+stoja%C5%82owskiego+i+dmowskiego,stoja%C5%82owskiego,zmiana+trasy","S2CellId":"4713c00000000000","result":3200,"accuracy":0.064354315,"title":"Mercedes+O530K+%23118"}
{"id":396317571,"url":"http://farm1.staticflickr.com/152/396317571_131e8d5438.jpg","path":"d33/b57/d33b57c531e3e546c355c865803d19a7.jpg","date":"2005-08-19","year":2005,"month":8,"lon":19.863968,"lat":49.247078,"tags":"g%C3%B3ry,tatry,urlop,urlop+2006,zakopane","S2CellId":"54bfc00000000000","result":6300,"accuracy":0.049701154,"title":"0225_DOLINA_KOSCIELISKA"}
{"id":11001247886,"url":"http://farm3.staticflickr.com/2862/11001247886_7044eaec4c.jpg","path":"682/f43/682f4370edcae798421769d4f6add9c.jpg","date":"2013-10-05","year":2013,"month":10,"lon":19.007975,"lat":49.608204,"tags":"smc+pentax-fa+28-105mm+f3.2-4.5+al%5Bif%5D,sota","S2CellId":"5351f00000000000","result":6036,"accuracy":0.109617695,"title":"Grupa+aktywator%C3%B3w+w+drodze+na+szczyt+Baraniej+G%C3%B3ry"}
{"id":4576207292,"url":"http://farm5.staticflickr.com/4050/4576207292_dc8dc94ed8.jpg","path":"81c/a7a/81ca7a34d79a6f97e43691932c15f5.jpg","date":"2010-05-02","year":2010,"month":5,"lon":19.962084,"lat":49.30643,"tags":"10,enlarge,evil,getty+central+europe,gettypoland1,image,kuli%C5%84ski,landscape,life,magnify,mountain,nx,nx10,proximity,samsung,samsung+nx10,samsungimaging,still,surface,ten,texture","S2CellId":"5351f00000000000","result":6036,"accuracy":0.010585334,"title":"who+win%3F","description":"Taken+with+Samsung+NX10"}
{"id":4910493836,"url":"http://farm5.staticflickr.com/4120/4910493836_9a4161556f.jpg","path":"ffe/bc8/ffebc89c4c06e4cd13a6fa5e2a59bed.jpg","date":"2008-06-15","year":2008,"month":6,"lon":19.939156,"lat":49.29938,"tags":"2008,poland,polonia,zakopane","S2CellId":"4715c00000000000","result":3204,"accuracy":0.38080007,"title":"Zakopane+%2F+Poland+%402008%40"}
{"id":2679373049,"url":"http://farm4.staticflickr.com/3208/2679373049_83e62636dd.jpg","path":"245/65d/24565d3fd834b882f1532e8f3e84faed.jpg","date":"2008-07-10","year":2008,"month":7,"lon":19.951944,"lat":49.294792,"tags":"amusement,buried,fast,laugh,mountains,park,poland,polska,ride,scream,zakopane","S2CellId":"876a400000000000","result":7859,"accuracy":0.061980035,"title":"Traffic+Jam"}
{"id":4825795441,"url":"http://farm5.staticflickr.com/4077/4825795441_f6a0d1cc9b.jpg","path":"3f7/946/3f7946e9d6f6c0ed3e14da253e2019ec.jpg","date":"2010-07-23","year":2010,"month":7,"lon":19.957352,"lat":49.27699,"tags":"cable+car,hdr,kasprovy+peak,kasprowy+wierch,mountain,mountain+chain,poland,polska,summer,tatra,zakopane","S2CellId":"12a8c00000000000","result":771,"accuracy":0.029736474,"title":"Tatras+in+HDR"}
{"id":4910482250,"url":"http://farm5.staticflickr.com/4078/4910482250_4f0f7dd54b.jpg","path":"e31/6dd/e316dd34624977ede193961ffd1dd33a.jpg","date":"2008-06-15","year":2008,"month":6,"lon":19.939156,"lat":49.29938,"tags":"2008,poland,polonia,zakopane","S2CellId":"45d4000000000000","result":2755,"accuracy":0.026218632,"title":"Zakopane+%2F+Poland+%402008%40"}
{"id":9720643167,"url":"http://farm8.staticflickr.com/7404/9720643167_35472ceb6f.jpg","path":"c72/6a6/c726a66635e09ae7293974736ee91e7e.jpg","date":"2013-09-07","year":2013,"month":9,"lon":19.996082,"lat":49.319695,"tags":"1977,60mm,approach,approximate,approximation,beet,beets,clos,close+up,cook,creative,daniel,daniel+kulinski,day,europe,food+eat,fresh,garden,green,green-stuff,greens,ground,healthy,home,image,kulinski,leaves,lesser+poland+voivodeship,light,macro,made,nx,nx20,photograhy,photography,picture,poland,poronin,raw,ray,samsung,samsung+imaging,samsung+nx,samsung+nx+60mm+f%2F2.8,samsung+nx20,sun,vegetables,warsaw","S2CellId":"4871740000000000","result":5039,"accuracy":0.027066179,"title":"Raw+food"}
{"id":273117509,"url":"http://farm1.staticflickr.com/111/273117509_4aee11cbd7.jpg","path":"594/4bc/5944bc344f137a28a6294c28a223e47.jpg","date":"2006-07-08","year":2006,"month":7,"lon":19.815388,"lat":49.258842,"tags":"%28polish%29+tatra+national+park,g%C3%B3ry,nature,poland,polska,tatra,tatra+mountains,tatry,water","S2CellId":"477ac00000000000","result":3438,"accuracy":0.059897047,"title":"flow","description":"A+unnamed+creek+in+Tatra+mountains%2C+Ko%C5%9Bcieliska+valley."}
{"id":5808351400,"url":"http://farm3.staticflickr.com/2386/5808351400_ca38f9702a.jpg","path":"c92/a91/c92a915013e1834669356095e73666a5.jpg","date":"2011-06-04","year":2011,"month":6,"lon":19.555513,"lat":49.659912,"tags":"2011,bike+maraton,kolarstwo,ma%C5%82opolska,mtb,polska,zawoja","S2CellId":"0d36500000000000","result":310,"accuracy":0.05171901,"title":"2011.06.04+-+Zawoja+-+Bike+Maraton"}
{"id":528409006,"url":"http://farm2.staticflickr.com/1181/528409006_c7374f8664.jpg","path":"395/95c/39595cda4bebdb956ccb1838ae983a1.jpg","date":"2007-06-03","year":2007,"month":6,"lon":19.905167,"lat":49.57933,"tags":"landscape","S2CellId":"4790c00000000000","result":3710,"accuracy":0.06222373,"description":"This+is+typical+view+for+that+region.+Lot+of+houses...%0A%0APodhale%2C+Poland"}
{"id":2434471032,"url":"http://farm3.staticflickr.com/2142/2434471032_a9f3b3faaa.jpg","path":"ce8/9c2/ce89c2d1ef6b3321ad58aa5b86b8f2a.jpg","date":"2006-08-02","year":2006,"month":8,"lon":19.841394,"lat":49.19163,"tags":"mountain,path,poland,slovakia,tatras","S2CellId":"48650c0000000000","result":4871,"accuracy":0.1901778,"title":"Path+by+the+border","description":"Path+between+Poland+and+Slovakia"}
{"id":9542734281,"url":"http://farm4.staticflickr.com/3825/9542734281_09feb71950.jpg","path":"e5a/21a/e5a21ae676653132d59bd93b4c83b35.jpg","date":"2013-08-18","year":2013,"month":8,"lon":19.525784,"lat":49.83166,"tags":"%C5%9Bwinna+por%C4%99ba","S2CellId":"5140000000000000","result":5964,"accuracy":0.18425229,"title":"P1070335"}
{"id":283516179,"url":"http://farm1.staticflickr.com/120/283516179_744013c76b.jpg","path":"a6f/639/a6f639702a68cf9dabd3875ba7454e94.jpg","date":"2006-10-19","year":2006,"month":10,"lon":19.951859,"lat":49.30095,"tags":"off+site,poland,zakopane","S2CellId":"536c000000000000","result":6045,"accuracy":0.06773981,"title":"DSC_0142"}
{"id":396355322,"url":"http://farm1.staticflickr.com/133/396355322_ff7cd56e3a.jpg","path":"44f/61b/44f61b373edd1e87bf36881be25b95c3.jpg","date":"2005-08-19","year":2005,"month":8,"lon":19.859032,"lat":49.209816,"tags":"tatry,urlop,zakopane","S2CellId":"54bf400000000000","result":6299,"accuracy":0.10777926,"title":"0347_SMRECZYNSKI_STAW"}
{"id":7739086854,"url":"http://farm8.staticflickr.com/7131/7739086854_282e8077df.jpg","path":"2c7/a28/2c7a28b2a8336878e4991c90d5586460.jpg","date":"2012-08-05","year":2012,"month":8,"lon":19.99649,"lat":49.31935,"tags":"1977,60mm,creative,daniel,daniel+kulinski,dof,europe,field,image,kulinski,life,nx,nx20,photograhy,picture,poland,poronin,samsung,samsung+60mm,samsung+imaging,samsung+nx,samsung+nx+60mm+f%2F2.8,samsung+nx20,still,stock,stockphotography,zakopane","S2CellId":"4805400000000000","result":4753,"accuracy":0.0016940694,"title":"Blue+finish","description":"The+above+photo+has+been+shot+with+the+Samsung+SMART+CAMERA+NX20%2C+which+has+been+provided+by+Samsung+Electronics.+Co.%2C+Ltd."}
{"id":7693087128,"url":"http://farm8.staticflickr.com/7106/7693087128_fc925c2da9.jpg","path":"585/0db/5850db1b7c8b62db671d2e4c32b148e.jpg","date":"2012-05-28","year":2012,"month":5,"lon":19.99031,"lat":49.23217,"tags":"tatras","S2CellId":"601d400000000000","result":6554,"accuracy":0.28362334}
{"id":3027563539,"url":"http://farm4.staticflickr.com/3276/3027563539_78e566c0b7.jpg","path":"5fd/2a3/5fd2a3414ad54e5e2e4c1f67bb1b8.jpg","date":"2008-07-29","year":2008,"month":7,"lon":19.383316,"lat":49.387848,"tags":"macro,nature","S2CellId":"864e640000000000","result":7620,"accuracy":0.032371644,"title":"DSC03734"}
{"id":396330037,"url":"http://farm1.staticflickr.com/177/396330037_edccad72c7.jpg","path":"176/e90/176e90b68fcf3cc47104fee72a695e.jpg","date":"2005-08-19","year":2005,"month":8,"lon":19.851093,"lat":49.21087,"tags":"g%C3%B3ry,tatry,urlop,urlop+2006,zakopane","S2CellId":"0d5d000000000000","result":499,"accuracy":0.022496933,"title":"0291_DOLINA_KOSCIELISKA"}
{"id":254434989,"url":"http://farm1.staticflickr.com/109/254434989_f6557c1951.jpg","path":"3fb/771/3fb771c6fa63cbb67123ee392c678a.jpg","date":"2006-09-27","year":2006,"month":9,"lon":19.5924,"lat":49.622723,"tags":"autumn,forest","S2CellId":"89c2d00000000000","result":9097,"accuracy":0.011024371,"title":"IMG_0346","description":"Forest+in+Beskid+%C5%BBywiecki%2C+descent+from+Hala+Krupowa."}
{"id":4910481856,"url":"http://farm5.staticflickr.com/4075/4910481856_053e619b60.jpg","path":"ff7/e28/ff7e28dc55f6efe8874cddf97f86b1cd.jpg","date":"2008-06-15","year":2008,"month":6,"lon":19.939156,"lat":49.29938,"tags":"2008,poland,polonia,zakopane","S2CellId":"47bfc00000000000","result":4134,"accuracy":0.005957523,"title":"Zakopane+%2F+Poland+%402008%40"}
{"id":534530987,"url":"http://farm2.staticflickr.com/1144/534530987_9e16137982.jpg","path":"10e/bde/10ebdea333b5fd2071e0524058e361.jpg","date":"2006-07-28","year":2006,"month":7,"lon":19.670763,"lat":49.859013,"tags":"countryside,hills,kalwaria+zebrzydowska,krajobraz,landscape,lato,ma%C5%82opolska,ma%C5%82opolskie,malopolska,malopolskie,poland,polska,summer,wie%C5%9B,wies,wzg%C3%B3rza,wzgorza","S2CellId":"470d400000000000","result":3184,"accuracy":0.065234706,"title":"Kalwaria+Zebrzydowska","description":"Widok+z+dziedzi%C5%84ca+klasztornego%2C+Kalwaria+Zebrzydowska%2C+28+lipca+2006+r.%0A**%0AView+from+the+monastery+courtyard%2C+Kalwaria+Zebrzydowska%2C+July+28%2C+2006"}
{"id":3504002292,"url":"http://farm4.staticflickr.com/3311/3504002292_26cdef6a01.jpg","path":"cc3/095/cc3095de96c5a8f1ebd4e41ba74e49b3.jpg","date":"2009-05-03","year":2009,"month":5,"lon":19.531631,"lat":49.57655,"tags":"markowe+szczawiny,schronisko+pttk","S2CellId":"54bf400000000000","result":6299,"accuracy":0.07071679,"title":"DSC02256"}
{"id":13432902894,"url":"http://farm8.staticflickr.com/7061/13432902894_22b34dd9a9.jpg","path":"15c/c97/15cc97c1d69a60ce36caa2d319f7156.jpg","date":"2014-03-23","year":2014,"month":3,"lon":19.884996,"lat":49.94332,"tags":"crocus,garden,lesser+poland+voivodeship,mogilany,poland,spring","S2CellId":"6d318a3000000000","result":6816,"accuracy":0.013757056,"title":"Spring+in+our+garden+-+crocuses"}
{"id":528409144,"url":"http://farm2.staticflickr.com/1024/528409144_8d83fc9d9c.jpg","path":"d1c/7c7/d1c7c7dd4e8549f2bf2c4e97e28c685c.jpg","date":"2007-06-03","year":2007,"month":6,"lon":19.905167,"lat":49.57933,"tags":"landscape","S2CellId":"47f5c00000000000","result":4728,"accuracy":0.023466926,"description":"Podhale%2C+Poland"}
{"id":5942498375,"url":"http://farm7.staticflickr.com/6015/5942498375_2dab932e46.jpg","path":"b74/c44/b74c448c88714cb27b47a21134da687.jpg","date":"2011-07-16","year":2011,"month":7,"lon":19.038666,"lat":49.827812,"tags":"%23135,a8v,autosan,bielsko-bia%C5%82a,linia+25,mzk+bielsko-bia%C5%82a,piastowska,wetlina,zamkni%C4%99cie+ul.+piastowskiej,zmiana+trasy","S2CellId":"4794d00000000000","result":3734,"accuracy":0.049274955,"title":"Autosan+A8V+%23135"}
{"id":4280735706,"url":"http://farm5.staticflickr.com/4068/4280735706_4e35196a7a.jpg","path":"66a/463/66a463d1dee4186e3a727c8ae520816e.jpg","date":"2009-01-08","year":2009,"month":1,"lon":19.967667,"lat":49.295166,"tags":"holiday,poland","S2CellId":"4777c00000000000","result":3426,"accuracy":0.010089925,"title":"Krakow%2C+Poland+Jan+2009+-+233","description":"DayTrip+to+Zakopane+in+the+mountains.++Winter+Holiday+based+in+Krakow%2C+Poland%2C"}
{"id":5426225716,"url":"http://farm6.staticflickr.com/5135/5426225716_49ab6f7c01.jpg","path":"b29/fdf/b29fdfd58eb7c4ea9e8510c7f64bf976.jpg","date":"2011-02-06","year":2011,"month":2,"lon":19.897099,"lat":49.37173,"tags":"10,abstract,abstraction,aperture,dof,evil,gettypoland1,image,life,nx,nx10,proximity,rectangle,samsung,samsung+nx10,samsungimaging,still,surface,ten,texture","S2CellId":"6ad1000000000000","result":6610,"accuracy":0.0097653,"title":"between"}
{"id":4219626768,"url":"http://farm3.staticflickr.com/2696/4219626768_cb11d505e4.jpg","path":"514/d31/514d316d6be04de5996e635b19113f3f.jpg","date":"2009-12-24","year":2009,"month":12,"lon":19.963787,"lat":49.32185,"tags":"panorama,tatra,zakopane","S2CellId":"3710000000000000","result":2418,"accuracy":0.043044463,"title":"Tatra+Mountains+Panorama","description":"Tatra+Mountains+Panorama"}
{"id":6861389665,"url":"http://farm8.staticflickr.com/7178/6861389665_a9c89bb95d.jpg","path":"c3e/625/c3e625d13c62994c708aa79cd5ead6.jpg","date":"2012-01-20","year":2012,"month":1,"lon":19.964218,"lat":49.280796,"tags":"2012,anton+kalinitchenko,drabikpany,fis,poland,polska,puchar+%C5%9Bwiata,ski+jumping,skoki+narciarskie,snow,sport,wielka+krokiew,winter,world+cup,zakopane,zima","S2CellId":"470dc00000000000","result":3185,"accuracy":0.036389273,"title":"Anton+Kalinitchenko","description":"Zdj%C4%99cie+zrobione+podczas+zawod%C3%B3w+Pucharu+%C5%9Awiata+w+Zakopanem+w+kokach+narciarskich+ze+stycznia+2012+r."}
{"id":4337099399,"url":"http://farm5.staticflickr.com/4036/4337099399_0fd8a547c5.jpg","path":"0fc/1a4/0fc1a47a0f2ed5f6bcb8bd5936cbd6e.jpg","date":"2009-05-31","year":2009,"month":5,"lon":19.032011,"lat":49.25778,"tags":"telss09","S2CellId":"12ab400000000000","result":776,"accuracy":0.09031138,"title":"JTEL+Summer+School+2009"}
{"id":3855455698,"url":"http://farm4.staticflickr.com/3503/3855455698_59e411093a.jpg","path":"db2/e73/db2e7338226ba97a7f97db4ee16fca73.jpg","date":"2007-08-05","year":2007,"month":8,"lon":19.99031,"lat":49.654377,"tags":"f32,lubo%C5%84+wielki,off-road,poland,vehicle","S2CellId":"537f000000000000","result":6065,"accuracy":0.072814934,"title":"Samochody+terenowe+%2F+Off-road+vehicles"}
{"id":500619814,"url":"http://farm1.staticflickr.com/202/500619814_17b4fdb552.jpg","path":"546/0c9/5460c9c48995bf63151f96ae9ed5302d.jpg","date":"2007-04-25","year":2007,"month":4,"lon":19.057674,"lat":49.74987,"tags":"4seasons,blue,cherry,flowers,sky,spring,tree,white","S2CellId":"6018640000000000","result":6457,"accuracy":0.077592544,"title":"White+Cherry+Tree+2"}
{"id":397356472,"url":"http://farm1.staticflickr.com/187/397356472_e02ada9997.jpg","path":"79c/a0d/79ca0de1b71bfe897ce60414e2b8d.jpg","date":"2006-08-01","year":2006,"month":8,"lon":19.974174,"lat":49.27318,"tags":"g%C3%B3ry,mountains,tatras,tatry,urlop,urlop+2006,wypoczynek,zakopane","S2CellId":"4749000000000000","result":3293,"accuracy":0.05758384,"title":"0276_KALATOWKI_16-08-2006_13-39"}
{"id":398670426,"url":"http://farm1.staticflickr.com/157/398670426_62c748dc94.jpg","path":"6f3/bfd/6f3bfdedbd2319414358ba2d727a9f8.jpg","date":"2006-08-01","year":2006,"month":8,"lon":19.936193,"lat":49.30803,"tags":"g%C3%B3ry,mountains,tatras,tatry,urlop,urlop+2006,wypoczynek,zakopane","S2CellId":"466d300000000000","result":2943,"accuracy":0.07104415,"title":"0734_GUBALOWKA_BUTOROWY_WIERCH_WIDOKI_19-08-206_15-370"}
{"id":4337828202,"url":"http://farm5.staticflickr.com/4039/4337828202_0bb0beeb2f.jpg","path":"6ee/8cf/6ee8cfe83c24583226597a971fbea94.jpg","date":"2009-05-31","year":2009,"month":5,"lon":19.032011,"lat":49.25778,"tags":"telss09","S2CellId":"133bbc0000000000","result":1153,"accuracy":0.04548583,"title":"JTEL+Summer+School+2009"}
{"id":2785099436,"url":"http://farm4.staticflickr.com/3049/2785099436_7449e79648.jpg","path":"b1b/a8d/b1ba8d3eb9b54a88c52cc429251b19df.jpg","date":"2008-07-18","year":2008,"month":7,"lon":19.956682,"lat":49.300293,"tags":"4,four,house,poland,windows,zakopane","S2CellId":"4715c00000000000","result":3204,"accuracy":0.030385077,"title":"%5E%5E%5E%5E++%281%29","description":"All+good+things+come+in+fours"}
{"id":5435981578,"url":"http://farm6.staticflickr.com/5095/5435981578_14f8ba3501.jpg","path":"907/227/907227abc01036134bfdfddb7e2322ea.jpg","date":"2011-02-09","year":2011,"month":2,"lon":19.978466,"lat":49.25568,"tags":"10,above,abstract,abstraction,black,black+and+white,bw,climate,cold,contrast,day,ethereal,evil,fresh,frost,getty+central+europe,gettypoland1,harsh,highland,ice,image,landscape,level,monochrome,montane,morning,mountain,mountainous,new,nx,nx10,poland,raw,rectangle,samsung,samsung+nx10,samsungimaging,sea,snow,sun,sunrise,surface,ten,texture,white,wind,winter,zakopane","S2CellId":"88c3500000000000","result":8543,"accuracy":0.0033504171,"title":"shadow"}
{"id":399651385,"url":"http://farm1.staticflickr.com/134/399651385_8c26c8b349.jpg","path":"f19/0b2/f190b26539b98c9656a51e1cfc4582.jpg","date":"2006-08-25","year":2006,"month":8,"lon":19.909801,"lat":49.28001,"tags":"g%C3%B3ry,mountains,tatras,tatry,urlop,urlop+2006,wypoczynek,zakopane","S2CellId":"0d6a0c0000000000","result":555,"accuracy":0.023367884,"title":"01202_ZAKOPANE_SANKTUARIUM_NA_KRZEPTOWKACH_WNETRZE_KOSCIOLA_25-08-2006_14-12"}
{"id":2656857410,"url":"http://farm4.staticflickr.com/3200/2656857410_9b4aba6f71.jpg","path":"ba5/2f7/ba52f7d584dc3884ea5f4952a08fd24b.jpg","date":"2008-07-06","year":2008,"month":7,"lon":19.756851,"lat":49.20913,"tags":"jarz%C4%85bczy,ples%C3%A1,pleso,ra%C4%8Dkove,raczkowa+dolina,raczkowe,s%C5%82owacja,slovensk%C3%A1,slovensko,starorobocia%C5%84ski,staw,stawy,tatry,wierch","S2CellId":"4715c00000000000","result":3204,"accuracy":0.23407318,"title":"Raczkowe+Stawy+%28Ra%C4%8Dkove+ples%C3%A1%29","description":"Widok+z+Starorobocia%C5%84skiego+Wierchu."}
{"id":3351873895,"url":"http://farm4.staticflickr.com/3566/3351873895_c53aa5a95e.jpg","path":"ff7/91b/ff791b813875d289e42fe1dc9278ac76.jpg","date":"2008-11-26","year":2008,"month":11,"lon":19.957565,"lat":49.292957,"tags":"meeting,zakopane","S2CellId":"80d9535900000000","result":7285,"accuracy":0.039137196,"title":"focused+on+Andrzej"}
{"id":5715174337,"url":"http://farm3.staticflickr.com/2469/5715174337_ee1257edba.jpg","path":"6dc/417/6dc417b8b85455f939c4822c5f770.jpg","date":"2011-03-26","year":2011,"month":3,"lon":19.972973,"lat":49.283203,"tags":"adam%27s+bull+eye,adam+ma%C5%82ysz,bia%C5%82o+czerwoni,drabikpany,kibice,ski+jumping,skocznia,skoki+narciarskie,sport,w%C4%85sy,wielka+krokiew,zakopane","S2CellId":"476dd00000000000","result":3375,"accuracy":0.074045904,"title":"Wierni+kibice+mistrza+z+Wis%C5%82y","description":"Zdj%C4%99cie+zrobione+podczas+benefisu+Adama+Ma%C5%82ysza+w+Zakopanym."}
{"id":8140094680,"url":"http://farm9.staticflickr.com/8463/8140094680_3937743bb8.jpg","path":"ec2/246/ec2246a7c84eb07d837f2436450a471.jpg","date":"2012-10-20","year":2012,"month":10,"lon":19.4351,"lat":49.99825,"tags":"%C5%9Bwiat%C5%82o,by-road,daylight,droga+boczna,early+morning,fog,ka%C5%82u%C5%BCa,krajobraz,landscape,mg%C5%82a,natura,nature,poland,polska,poranek,puddle","S2CellId":"5488c00000000000","result":6153,"accuracy":0.006461574,"title":"Droga+gospodarcza+5"}
{"id":76945853,"url":"http://farm1.staticflickr.com/9/76945853_a1b82a8b06.jpg","path":"f7a/69d/f7a69ddd6cfb2812f7f0832afe6a7.jpg","date":"2005-12-24","year":2005,"month":12,"lon":19.625015,"lat":49.489204,"tags":"babia+gora,europe,frost,lipnica,lipnica+wielka,orawa,poland,polska,rural,travel,wielka","S2CellId":"89d4d40000000000","result":9260,"accuracy":0.03312435,"title":"Hoar+Frost+II"}
{"id":821725436,"url":"http://farm2.staticflickr.com/1394/821725436_54c5357d88.jpg","path":"b8b/8e4/b8b8e4375754f8917ece8aad5add139.jpg","date":"2004-02-28","year":2004,"month":2,"lon":19.625015,"lat":49.489204,"tags":"babia+gora,europe,farm,lipnica,lipnica+wielka,orawa,poland,polska,rural,travel,wielka","S2CellId":"4724000000000000","result":3252,"accuracy":0.016888324,"title":"DSC00014bw"}
