{"id":7950340958,"url":"http://farm9.staticflickr.com/8449/7950340958_db3ac45799.jpg","path":"d77/752/d77752b193de618da14e52d3daa37a60.jpg","date":"2011-08-29","year":2011,"month":8,"lon":40.407673,"lat":56.126247,"tags":"%D0%B0%D0%B2%D0%B3%D1%83%D1%81%D1%82,%D0%B2%D0%BB%D0%B0%D0%B4%D0%B8%D0%BC%D0%B8%D1%80,%D0%B2%D0%BB%D0%B0%D0%B4%D0%B8%D0%BC%D0%B8%D1%80%D1%81%D0%BA%D0%B0%D1%8F+%D0%BE%D0%B1%D0%BB%D0%B0%D1%81%D1%82%D1%8C,%D0%B3%D0%BE%D1%80%D0%BE%D0%B4,%D0%BB%D0%B5%D1%82%D0%BE,%D1%80%D0%BE%D1%81%D1%81%D0%B8%D1%8F,2011,august,city,russia,summer,vladimir,vladimir+oblast","S2CellId":"46ddc00000000000","result":3085,"accuracy":0.029484732,"title":"Vladimir+37","description":"Vladimir%0A%D0%92%D0%BB%D0%B0%D0%B4%D0%B8%D0%BC%D0%B8%D1%80"}
{"id":3534055950,"url":"http://farm3.staticflickr.com/2213/3534055950_7ebd99fa42.jpg","path":"502/ccb/502ccba16c49a6859289bdb417b188.jpg","date":"2008-09-25","year":2008,"month":9,"lon":40.447712,"lat":56.422256,"tags":"russia,suzdal","S2CellId":"89c7c00000000000","result":9180,"accuracy":0.025539821,"title":"DSC00548"}
{"id":8007936548,"url":"http://farm9.staticflickr.com/8444/8007936548_2efcf1341b.jpg","path":"303/e22/303e2232d25d61726f81c47bdbf1bc.jpg","date":"2011-08-29","year":2011,"month":8,"lon":40.554226,"lat":56.195915,"tags":"%D0%B0%D0%B2%D0%B3%D1%83%D1%81%D1%82,%D0%B1%D0%BE%D0%B3%D0%BE%D0%BB%D1%8E%D0%B1%D0%BE%D0%B2%D0%BE,%D0%B2%D0%BB%D0%B0%D0%B4%D0%B8%D0%BC%D0%B8%D1%80%D1%81%D0%BA%D0%B0%D1%8F+%D0%BE%D0%B1%D0%BB%D0%B0%D1%81%D1%82%D1%8C,%D0%BB%D0%B5%D1%82%D0%BE,%D1%80%D0%BE%D1%81%D1%81%D0%B8%D1%8F,%D1%86%D0%B5%D1%80%D0%BA%D0%BE%D0%B2%D1%8C,%D1%86%D0%B5%D1%80%D0%BA%D0%BE%D0%B2%D1%8C+%D0%BF%D0%BE%D0%BA%D1%80%D0%BE%D0%B2%D0%B0+%D0%BD%D0%B0+%D0%BD%D0%B5%D1%80%D0%BB%D0%B8,2011,august,bogolyubovo,church,church+of+the+intercession+on+the+nerl,russia,summer,vladimir+oblast","S2CellId":"414d000000000000","result":2735,"accuracy":0.2959981,"title":"Bogolyubovo+9","description":"Bogolyubovo.+Church+of+the+Intercession+on+the+Nerl%0A%D0%91%D0%BE%D0%B3%D0%BE%D0%BB%D1%8E%D0%B1%D0%BE%D0%B2%D0%BE.+%D0%A6%D0%B5%D1%80%D0%BA%D0%BE%D0%B2%D1%8C+%D0%9F%D0%BE%D0%BA%D1%80%D0%BE%D0%B2%D0%B0+%D0%BD%D0%B0+%D0%9D%D0%B5%D1%80%D0%BB%D0%B8"}
{"id":11796494724,"url":"http://farm4.staticflickr.com/3783/11796494724_bd0e78291f.jpg","path":"319/b08/319b08357b8ff93468f33dc9d256bbb.jpg","date":"2014-01-05","year":2014,"month":1,"lon":40.44472,"lat":56.417744,"tags":"blinkagain,dog,snow,suzdal,winter","S2CellId":"4440000000000000","result":2748,"accuracy":0.07538738,"title":"Untitled"}
{"id":2593414032,"url":"http://farm4.staticflickr.com/3194/2593414032_31b0da5b42.jpg","path":"9e8/149/9e81491c6dfb6ee19d6c24e03a3175.jpg","date":"2005-12-25","year":2005,"month":12,"lon":40.445652,"lat":56.42088,"tags":"russia,suzdal","S2CellId":"5f0b2c0000000000","result":6349,"accuracy":0.16980357,"title":"PC250137"}
{"id":7563304080,"url":"http://farm9.staticflickr.com/8007/7563304080_d475c0c112.jpg","path":"b71/683/b71683ab68ddc818b58264a897dda38.jpg","date":"2012-06-03","year":2012,"month":6,"lon":40.95426,"lat":56.996925,"tags":"blackwhite,books,bw,photographer,portrait,psychiatry,russia","S2CellId":"4879870000000000","result":5494,"accuracy":0.015170923,"title":"Psychiatry","description":"thematic+self-fotoset.+Lens+soviet+Mir-1V%2C+camera+Nikon+60D."}
{"id":9396036787,"url":"http://farm8.staticflickr.com/7358/9396036787_2735898663.jpg","path":"819/a8d/819a8d2fa7f99c1ddcbaf57389f6fed3.jpg","date":"2013-07-23","year":2013,"month":7,"lon":40.442722,"lat":56.416496,"tags":"%E4%BF%84%E7%BE%85%E6%96%AF,0723,2013,201307,20130723,july,russia","S2CellId":"14cab9bf00000000","result":1317,"accuracy":0.009716197,"title":"IMG_2827"}
{"id":9398524682,"url":"http://farm3.staticflickr.com/2824/9398524682_7ff0cf78bd.jpg","path":"619/721/61972134124a69c9dd5aae3c279815aa.jpg","date":"2013-07-23","year":2013,"month":7,"lon":40.41076,"lat":56.12904,"tags":"%E4%BF%84%E7%BE%85%E6%96%AF,0723,2013,201307,20130723,july,russia","S2CellId":"4045000000000000","result":2654,"accuracy":0.30110112,"title":"IMG_2918"}
{"id":9398587502,"url":"http://farm4.staticflickr.com/3764/9398587502_cb648f7bc9.jpg","path":"1ee/ff9/1eeff920c73cb4e94f761d21410179c.jpg","date":"2013-07-23","year":2013,"month":7,"lon":40.439552,"lat":56.433155,"tags":"%E4%BF%84%E7%BE%85%E6%96%AF,0723,2013,201307,20130723,july,russia","S2CellId":"47e66e2b00000000","result":4611,"accuracy":0.025397899,"title":"IMG_2898"}
