{"id":524384950,"url":"http://farm1.staticflickr.com/245/524384950_37f5b7cfa8.jpg","path":"d5b/af9/d5baf967ae37aea246ef68d6d7238659.jpg","date":"2007-05-17","year":2007,"month":5,"lon":-135.33244,"lat":57.050777,"tags":"2007,alaska,boat,may,sitka","S2CellId":"56c4000000000000","result":6318,"accuracy":0.2912379,"title":"Sitka+Fishing+Boats"}
{"id":810559537,"url":"http://farm2.staticflickr.com/1134/810559537_a31061cc53.jpg","path":"1a8/326/1a8326dffdb881365110defbc6e81086.jpg","date":"2007-06-21","year":2007,"month":6,"lon":-135.33296,"lat":57.051373,"tags":"alaska,boat,harbor,mountain,sitka,water","S2CellId":"5470000000000000","result":6094,"accuracy":0.41110507,"title":"Sitka+Harbor"}
{"id":9742032948,"url":"http://farm8.staticflickr.com/7402/9742032948_0beeaf8df4.jpg","path":"4ae/a07/4aea07da9d2e2b33b4619d7ad897f2d.jpg","date":"2013-08-28","year":2013,"month":8,"lon":-135.0257,"lat":57.848137,"tags":"alaska,people,safari+endeavor,scott+shephard+photography,un+cruise","S2CellId":"4d5c000000000000","result":5955,"accuracy":0.11504707,"title":"Safari+Endeavor+-+Alaska+%28August%2C+2013%29IMG_9396"}
{"id":2856853742,"url":"http://farm4.staticflickr.com/3080/2856853742_d3272077e5.jpg","path":"c3f/76b/c3f76b50be8a1e359bbc4017641a12b3.jpg","date":"2009-09-09","year":2009,"month":9,"lon":-135.33972,"lat":57.05399,"tags":"alaska+cruise,sitka","S2CellId":"5470000000000000","result":6094,"accuracy":0.2573261,"title":"PIC_0030+%282%29"}
{"id":2557397206,"url":"http://farm4.staticflickr.com/3150/2557397206_b2dcb6b061.jpg","path":"b21/19d/b2119da1db2d45db82e245d83412a2.jpg","date":"2008-05-24","year":2008,"month":5,"lon":-135.33714,"lat":57.05357,"tags":"alaska,boat,marina,mt+edgecumbe,sitka,volcano","S2CellId":"56c4000000000000","result":6318,"accuracy":0.22946633,"title":"IMG_7386"}
{"id":189069993,"url":"http://farm1.staticflickr.com/55/189069993_61abde9745.jpg","path":"7cd/712/7cd7121a74ce1aeddb3158c132677d10.jpg","date":"2006-06-13","year":2006,"month":6,"lon":-135.75427,"lat":57.169388,"tags":"4x4+wilderness+adventure,alaska,me,sitka","S2CellId":"5470000000000000","result":6094,"accuracy":0.660912,"title":"DSC00774"}
{"id":4917193975,"url":"http://farm5.staticflickr.com/4117/4917193975_0347d4e90a.jpg","path":"a3f/2b1/a3f2b151ccbec664fc437b2f1eeb1ab.jpg","date":"2010-06-28","year":2010,"month":6,"lon":-135.33641,"lat":57.054314,"tags":"2010,alaska,sitka","S2CellId":"961c000000000000","result":9868,"accuracy":0.023708627,"title":"View+of+Sitka+w%2F+Mt.+Edgecumbe"}
{"id":8331329172,"url":"http://farm9.staticflickr.com/8078/8331329172_ed60542c51.jpg","path":"5da/f2e/5daf2efad95178f4c78c536d6b4b6d1.jpg","date":"2012-08-07","year":2012,"month":8,"lon":-135.3351,"lat":57.050007,"tags":"c4634,sitka,st+michael+cathedral","S2CellId":"4696240000000000","result":3021,"accuracy":0.034123972,"title":"Happy+and+Healthy+2013","description":"Cathedral+of+St.+Michael+the+Archangel%2C+Sitka"}
{"id":7762517168,"url":"http://farm8.staticflickr.com/7246/7762517168_dc326ce6ce.jpg","path":"79b/a11/79ba116a331d49554ea6c8ab5d844f5.jpg","date":"2012-08-04","year":2012,"month":8,"lon":-135.59966,"lat":57.009144,"tags":"admiralty+dream,alaska+cruises+christopher+michel,allen+marine,christopher+michel","S2CellId":"56c4000000000000","result":6318,"accuracy":0.1257181,"title":"Alaska+aboard+the+Admiralty+Dream","description":"Admiralty+Dream"}
{"id":2856853770,"url":"http://farm4.staticflickr.com/3166/2856853770_d6e2e1aa41.jpg","path":"19b/a7a/19ba7a5f336386b8692be271c55e2dc.jpg","date":"2009-09-09","year":2009,"month":9,"lon":-135.33972,"lat":57.05399,"tags":"alaska+cruise,sitka","S2CellId":"5470000000000000","result":6094,"accuracy":0.42057598,"title":"PIC_0031+%282%29"}
{"id":3879069233,"url":"http://farm3.staticflickr.com/2575/3879069233_9139a24d94.jpg","path":"3c9/ec3/3c9ec36796d65e97cd8b9c6aea282f.jpg","date":"2009-08-19","year":2009,"month":8,"lon":-135.33662,"lat":57.05464,"tags":"alaska,sitka","S2CellId":"5404000000000000","result":6091,"accuracy":0.024509618,"title":"IMG_4461"}
{"id":4903079337,"url":"http://farm5.staticflickr.com/4118/4903079337_8c4b6beebc.jpg","path":"999/284/999284c3b7fcf64946f4f299d986515.jpg","date":"2010-08-04","year":2010,"month":8,"lon":-135.07724,"lat":57.33852,"tags":"alaska,baranof+island,ethan,hannah,kelp+bay","S2CellId":"548e400000000000","result":6158,"accuracy":0.060493127,"title":"Ethan+and+Hannah"}
{"id":3627686934,"url":"http://farm4.staticflickr.com/3659/3627686934_be570aa5cc.jpg","path":"867/db4/867db48cf12d83608a4514f3cbbea14.jpg","date":"2006-07-05","year":2006,"month":7,"lon":-135.33646,"lat":57.054688,"tags":"2006,alaska,cruise,july,oosterdam,otters,sitka","S2CellId":"5404000000000000","result":6091,"accuracy":0.15099207,"title":"P7050115"}
{"id":263031727,"url":"http://farm1.staticflickr.com/118/263031727_c6c39b2bb3.jpg","path":"121/56c/12156c3efe60f6d4a152dd065d5a67f.jpg","date":"2006-10-06","year":2006,"month":10,"lon":-135.3465,"lat":57.04923,"tags":"ak,alaska,boats,sitka,southeast","S2CellId":"540c000000000000","result":6092,"accuracy":0.29253152,"title":"sitka7","description":"Small+boats+docked+in+Sitka"}
