{"id":5455185159,"url":"http://farm6.staticflickr.com/5099/5455185159_aa865e4d32.jpg","path":"c47/369/c4736962d3a0e3ecb5e4bdecc58dba.jpg","date":"2010-05-29","year":2010,"month":5,"lon":117.875404,"lat":-35.029995,"tags":"balsa+composite+surfboards,bert+burger,high+performance,landscape,lifestyle,photography,shaper+of+the+year,sunova,surfboards,travel,wave,western+australia,www.sunovasurfboards.com","S2CellId":"8c05400000000000","result":9414,"accuracy":0.075850055,"title":"sunova-surfboards-bert-burger-photography-lifestyle-travel-landscape-western-australia-wave","description":"Sunova+Surfboards+lifestyle+%26+landscapes+photography%0AWestern+Australia%0APhoto%3A+%3Ca+href%3D%22http%3A%2F%2Fwww.nicolas-risch-photography.fr%22+rel%3D%22nofollow%22%3Ewww.nicolas-risch-photography.fr%3C%2Fa%3E%0A%0Ainfo%40sunovasurfboards.com%0A%3Ca+href%3D%22http%3A%2F%2Fwww.sunovasurfboards.com%22+rel%3D%22nofollow%22%3Ewww.sunovasurfboards.com%3C%2Fa%3E"}
{"id":5213818512,"url":"http://farm6.staticflickr.com/5161/5213818512_d5db5bcefb.jpg","path":"9c2/6d1/9c26d14bd34a144cca983d6ef62c723.jpg","date":"2010-09-15","year":2010,"month":9,"lon":118.621216,"lat":-34.38198,"tags":"calectasia,kennedia+coccinea,wa,wildflowers","S2CellId":"8620af4000000000","result":7522,"accuracy":0.009383731,"title":"Calectasia+sp+and+Kennedia+coccinea","description":"Sth+Coast+Highway."}
{"id":2275306937,"url":"http://farm3.staticflickr.com/2113/2275306937_98a280735d.jpg","path":"3ec/11b/3ec11b0146a6a64773d2f07a685550.jpg","date":"2007-11-15","year":2007,"month":11,"lon":117.20867,"lat":-34.98936,"tags":"australia,western","S2CellId":"864e640000000000","result":7620,"accuracy":0.13522774,"title":"DSC09368"}
{"id":12718338545,"url":"http://farm8.staticflickr.com/7452/12718338545_154ea73575.jpg","path":"fc5/ec3/fc5ec32273223a32f1a7b38c8cede4.jpg","date":"2013-09-27","year":2013,"month":9,"lon":117.23517,"lat":-35.023853,"tags":"2013,australia,d600,hdr,landscape,nikon,nikon+d600,nikon+fx,western+australia,william+bay,william+bay+national+park","S2CellId":"808de10000000000","result":6990,"accuracy":0.11412307,"title":"Rocks+in+the+surf+of+William+Bay+National+Park%2C+WA.+HDR","description":"Rocks+in+the+surf+of+William+Bay+National+Park%2C+WA.+HDR"}
{"id":7460965982,"url":"http://farm9.staticflickr.com/8002/7460965982_debb4169ae.jpg","path":"5a3/214/5a3214c8f926bd6ec8f29902c93ca.jpg","date":"2010-11-28","year":2010,"month":11,"lon":117.7975,"lat":-35.0665,"tags":"albany,albany+australia,australia","S2CellId":"2a2c000000000000","result":1494,"accuracy":0.09201823,"title":"Albany+Australia"}
{"id":12382981963,"url":"http://farm8.staticflickr.com/7453/12382981963_3a860ef899.jpg","path":"7e2/bc5/7e2bc56d378e8effbb9aa7fe66c2.jpg","date":"2013-10-04","year":2013,"month":10,"lon":117.32702,"lat":-35.02608,"tags":"australia,denmark,ocean+beach,western+australia","S2CellId":"6d09000000000000","result":6782,"accuracy":0.039191514,"title":"DSCF8890"}
{"id":9915481004,"url":"http://farm4.staticflickr.com/3811/9915481004_0f053b4b94.jpg","path":"cde/f79/cdef792a03066a16519c3cc9cb38ac.jpg","date":"2013-09-02","year":2013,"month":9,"lon":117.26172,"lat":-35.02222,"tags":"bay,beach,ripples,sand,sea,stream,william+bay","S2CellId":"486e900000000000","result":4974,"accuracy":0.046007924,"title":"Journey%27s+End","description":"Waterfall+Beach%2C+William+Bay%2C+Western+Australia"}
{"id":244257615,"url":"http://farm1.staticflickr.com/89/244257615_39b60aaad2.jpg","path":"daa/a33/daaa33359e5cb17f10c34ca7428b13c.jpg","date":"2005-07-30","year":2005,"month":7,"lon":117.90356,"lat":-35.027958,"tags":"albany,aus,auspctagged,australia,bay,harbour,holiday,oceania,pc6330,pctagged,port,vacation,wa,western+australia","S2CellId":"0d2f300000000000","result":295,"accuracy":0.06469408,"title":"The+port+at+Albany","description":"AUS+WA+Albany+20050730+DSC04407"}
{"id":278920837,"url":"http://farm1.staticflickr.com/111/278920837_f90d4572a1.jpg","path":"1c1/556/1c15561e811c12ec354a383cda9c4965.jpg","date":"2006-10-16","year":2006,"month":10,"lon":117.88536,"lat":-34.387646,"tags":"australia,flora,proteaceae,western,wildflowers","S2CellId":"80c2dc0000000000","result":7212,"accuracy":0.006653482,"title":"Flower+-+Banksia","description":"%3Ca+href%3D%22http%3A%2F%2Fwww.flickr.com%2Fphotos%2Fgeorgiesharp%2Fsets%2F72157594336596273%2F%22%3Ewww.flickr.com%2Fphotos%2Fgeorgiesharp%2Fsets%2F72157594336596273%2F%3C%2Fa%3E"}
{"id":7460967334,"url":"http://farm8.staticflickr.com/7130/7460967334_1186863735.jpg","path":"bdc/f7d/bdcf7d8b70b696a333102ac196ab4ec2.jpg","date":"2010-11-28","year":2010,"month":11,"lon":117.797165,"lat":-35.066833,"tags":"albany,albany+australia,australia","S2CellId":"1dcc300000000000","result":1448,"accuracy":0.08059279,"title":"Albany+Australia"}
{"id":7159285548,"url":"http://farm8.staticflickr.com/7098/7159285548_44a74c9442.jpg","path":"b31/795/b31795f0463f983badf24df5c626c.jpg","date":"2012-03-28","year":2012,"month":3,"lon":117.94492,"lat":-35.10158,"tags":"albany,australia,australien,torndirrup-nationalpark,western","S2CellId":"6d2b000000000000","result":6808,"accuracy":0.047892123,"title":"Torndirrup-Nationalpark","description":"near+Albany"}
{"id":7460969056,"url":"http://farm9.staticflickr.com/8002/7460969056_280530ba14.jpg","path":"556/e43/556e4321cf42658658a059261751324.jpg","date":"2010-11-28","year":2010,"month":11,"lon":117.797165,"lat":-35.067165,"tags":"albany,albany+australia,australia","S2CellId":"2a2c000000000000","result":1494,"accuracy":0.18513834,"title":"Albany+Australia"}
{"id":12949627355,"url":"http://farm3.staticflickr.com/2840/12949627355_af8e596fe3.jpg","path":"3ef/72c/3ef72c346ef41b4d75498176b5882de5.jpg","date":"2013-09-30","year":2013,"month":9,"lon":117.872765,"lat":-35.021046,"tags":"2013,australia,conostylus+setigera,cottonhead,d600,flower,mount+melville,nikon,nikon+d600,nikon+fx,plant,western+australia","S2CellId":"46f9000000000000","result":3115,"accuracy":0.13735718,"title":"Bristly+Cottonhead+flower+%28Conostylus+setigera%29+on+Mount+Melville%2C+Albany%2C+WA.","description":"Bristly+Cottonhead+flower+%28Conostylus+setigera%29+on+Mount+Melville%2C+Albany%2C+WA."}
{"id":5526307396,"url":"http://farm6.staticflickr.com/5093/5526307396_e0458dd87e.jpg","path":"e87/887/e87887141dba11aa2c86fbfcca4ee2.jpg","date":"2011-01-11","year":2011,"month":1,"lon":118.24994,"lat":-34.378082,"tags":"albany,australia,bluff+knoll,geo%3Acity%3D,geo%3Acountrys%3D,geo%3Astate%3D,mountain,stirling+range,walk,western+australia","S2CellId":"2cb0000000000000","result":1530,"accuracy":0.15189537,"title":"Bluff+Knoll+%2813+of+19%29"}
{"id":4585353035,"url":"http://farm5.staticflickr.com/4043/4585353035_ce0218373a.jpg","path":"16b/bfd/16bbfd83246da03e8a844048b04d40f5.jpg","date":"2010-01-01","year":2010,"month":1,"lon":117.75575,"lat":-35.05143,"tags":"freenoncommercialuse","S2CellId":"2a50000000000000","result":1518,"accuracy":0.24835925,"title":"Shelley+Beach+Torquay+-southern+Western+Australia","description":"Western+Australia+-+FREE+picture+for+NON+COMMERCIAL+USE..+if+you+use+this+picture..+please+credit+me+with+a+link+back+to+it...+I+would+love+to+see+your+work..please+leave+a+link+or+a+sample+of+your+work+here+as+a+comment..+thank+you"}
{"id":5434787246,"url":"http://farm6.staticflickr.com/5296/5434787246_2735b8139f.jpg","path":"a29/34d/a2934d605f78f35307b1f40ab44c5fb.jpg","date":"2011-01-19","year":2011,"month":1,"lon":119.399666,"lat":-34.394,"tags":"australia,bremer,bremerbay","S2CellId":"2a2c000000000000","result":1494,"accuracy":0.09445509,"title":"Bremer+Bay"}
{"id":5526098308,"url":"http://farm6.staticflickr.com/5252/5526098308_e577d1efbf.jpg","path":"6ad/567/6ad567edc315c6d8545b4a1f19989f3.jpg","date":"2011-01-09","year":2011,"month":1,"lon":117.15736,"lat":-35.03058,"tags":"australia,geo%3Acity%3D,geo%3Acountrys%3D,geo%3Astate%3D,red+tingle,tingle+tree+forest,trees,walpole,western+australia","S2CellId":"8096900000000000","result":7094,"accuracy":0.06491846,"title":"On+the+woodland+walk","description":"nice+bark"}
