{"id":126960136,"url":"http://farm1.staticflickr.com/56/126960136_7dff70f363.jpg","path":"7c5/d45/7c5d451334f63dfaaf73913203fc1.jpg","date":"2006-04-06","year":2006,"month":4,"lon":-82.22881,"lat":33.509163,"tags":"newconstruction,newhome,ournewhouse","S2CellId":"47c4100000000000","result":4245,"accuracy":0.021332307,"title":"Bricks"}
{"id":1167491468,"url":"http://farm2.staticflickr.com/1144/1167491468_22b39567aa.jpg","path":"76b/014/76b01439ecd1f5c9ebafccc5fef6d08e.jpg","date":"2007-08-18","year":2007,"month":8,"lon":-82.895905,"lat":33.55486,"tags":"abandoned+buildings,crawfordville,crawfordville+ga,crawfordville+georgia,derelict+buildings,fading+signs,frank+carroll,georgia,highstrungloner,main+streets,painted+walls,rural+decay,shop+fronts,siding,smalltowngeorgia,store+fronts","S2CellId":"47da300000000000","result":4492,"accuracy":0.020866862,"title":"Bonner%27s+Cafe","description":"Crawfordville+GA"}
{"id":3365218260,"url":"http://farm4.staticflickr.com/3417/3365218260_b54130f15f.jpg","path":"ffc/267/ffc267894fe8d25e59458491a15f67f.jpg","date":"2009-03-01","year":2009,"month":3,"lon":-82.022415,"lat":33.42657,"tags":"augusta,daniel,daniel+farthing,dog,farthing,ga,georgia,pet,pets,richmond+county,usa","S2CellId":"47d7900000000000","result":4409,"accuracy":0.014256149,"title":"20090301_72"}
{"id":162123800,"url":"http://farm1.staticflickr.com/50/162123800_6e9bf9407e.jpg","path":"568/05b/56805bff5238cb1918c3387861d08f28.jpg","date":"2006-05-19","year":2006,"month":5,"lon":-82.22881,"lat":33.509163,"tags":"grovetown,grovetownga,ivyfalls,newconstruction,newhouse","S2CellId":"89b0c00000000000","result":8799,"accuracy":0.024860168}
{"id":111081562,"url":"http://farm1.staticflickr.com/48/111081562_e0339577ab.jpg","path":"39f/3b0/39f3b0c5972296b3598a3f295191082.jpg","date":"2004-04-07","year":2004,"month":4,"lon":-82.021,"lat":33.499462,"tags":"georgia,golf","S2CellId":"88fd000000000000","result":8754,"accuracy":0.113274455,"title":"Augusta+Bunkers+on+%2318","description":"From+the+2004+Masters"}
{"id":7094470327,"url":"http://farm8.staticflickr.com/7187/7094470327_ca4825be30.jpg","path":"ef7/a6e/ef7a6e2e88e4633a5885a5a3e725b7c.jpg","date":"2012-04-18","year":2012,"month":4,"lon":-82.0365,"lat":33.548332,"tags":"augusta,augusta+canal,augusta+canal+park","S2CellId":"4cc9140000000000","result":5881,"accuracy":0.012503523,"title":"Augusta+Canal"}
{"id":3364382639,"url":"http://farm4.staticflickr.com/3429/3364382639_a5eda6940a.jpg","path":"dbe/acf/dbeacfc537e54cf4ab568b03f837b0.jpg","date":"2009-03-01","year":2009,"month":3,"lon":-82.022415,"lat":33.42657,"tags":"augusta,daniel,daniel+farthing,dog,farthing,ga,georgia,pet,pets,richmond+county,usa","S2CellId":"89d4d40000000000","result":9260,"accuracy":0.10405591,"title":"20090301_52"}
{"id":3460945861,"url":"http://farm4.staticflickr.com/3654/3460945861_46f416ccc9.jpg","path":"77d/c5c/77dc5c5bb16585c85f7b1d8fd986.jpg","date":"2009-04-20","year":2009,"month":4,"lon":-82.02126,"lat":33.081326,"tags":"alicia+brown,chris+brown,christopher+brown,ebgwd,ebro,ga,kris+kaldwell,kristopher+kaldwell,patricia+brown,pbro,shannon+brown,sunset+drive,waynesboro","S2CellId":"87e5000000000000","result":8030,"accuracy":0.0066619026,"title":"Shadow_01+kitten+a"}
{"id":4522270112,"url":"http://farm5.staticflickr.com/4051/4522270112_97bc108a41.jpg","path":"7db/c82/7dbc823dfadbdc5b232d6b9f252f753e.jpg","date":"2010-04-09","year":2010,"month":4,"lon":-82.185616,"lat":33.43741,"tags":"flowers,plants,wisteria","S2CellId":"48760dd000000000","result":5282,"accuracy":0.015728299,"title":"wisteria"}
{"id":5596301853,"url":"http://farm6.staticflickr.com/5301/5596301853_570b401f56.jpg","path":"138/c14/138c14a645afc7d31292c3be2bcdfe.jpg","date":"2011-04-05","year":2011,"month":4,"lon":-82.185616,"lat":33.43741,"tags":"bugs,daisy,flower,purple,spring,yellow","S2CellId":"89b65c0000000000","result":8832,"accuracy":0.0053844335}
{"id":4512779669,"url":"http://farm3.staticflickr.com/2012/4512779669_d2287df553.jpg","path":"ca1/1c2/ca11c223c1e48d6830bad4f0c8d9843c.jpg","date":"2010-04-11","year":2010,"month":4,"lon":-82.302704,"lat":33.679996,"tags":"clarks+hill,lake,sun","S2CellId":"88d0a631cabb5071","result":8563,"accuracy":0.018723026}
{"id":3692129531,"url":"http://farm3.staticflickr.com/2653/3692129531_f59830b779.jpg","path":"61f/acc/61facc7f95ab72e5b8afefad9a1c038.jpg","date":"2009-07-04","year":2009,"month":7,"lon":-82.148895,"lat":33.420837,"tags":"firecrackers,fireworks,independence+day,july+4th","S2CellId":"36d4000000000000","result":2409,"accuracy":0.0042471522,"title":"looks+like+a+germ+or+something"}
{"id":2387193459,"url":"http://farm3.staticflickr.com/2042/2387193459_258efba854.jpg","path":"abe/d49/abed497ef53ce994cec5d989ba9371.jpg","date":"2008-03-29","year":2008,"month":3,"lon":-82.040665,"lat":33.109787,"tags":"birthday+party","S2CellId":"8640f00000000000","result":7563,"accuracy":0.057930697,"title":"DSC_1050"}
{"id":3366036319,"url":"http://farm4.staticflickr.com/3431/3366036319_d9ebf983cb.jpg","path":"c09/dcd/c09dcd781315d330c83eba4a8af19c3.jpg","date":"2009-03-11","year":2009,"month":3,"lon":-82.022415,"lat":33.42657,"tags":"augusta,daniel,daniel+farthing,dog,farthing,ga,georgia,pet,pets,richmond+county,usa","S2CellId":"8842400000000000","result":8397,"accuracy":0.25158343,"title":"20090311_86"}
{"id":3365247844,"url":"http://farm4.staticflickr.com/3114/3365247844_dacaf3c397.jpg","path":"eba/8e4/eba8e4d371ab39fc17134b6399860de.jpg","date":"2009-03-01","year":2009,"month":3,"lon":-82.022415,"lat":33.42657,"tags":"augusta,daniel,daniel+farthing,dog,farthing,ga,georgia,pet,pets,richmond+county,usa","S2CellId":"47e61d1d00000000","result":4562,"accuracy":0.022029178,"title":"20090301_120"}
{"id":2513001728,"url":"http://farm3.staticflickr.com/2165/2513001728_dd600a7ae3.jpg","path":"6b5/bed/6b5bed253b8a9373e8b57e73ce6d0f3.jpg","date":"2008-05-19","year":2008,"month":5,"lon":-82.00307,"lat":33.76024,"tags":"1-800-boardup,golf+golf,mount+vintage+mda","S2CellId":"8854c00000000000","result":8422,"accuracy":0.11171632,"title":"Chester+course+7","description":"A+golf+outing+at+Mount+Vintage+in+Edgerton%2C+SC+%28Augusta%2C+GA%29+raised+%244000+for+MDA+and+was+sponsored+by+1-800-BoardUp.%0A%0AA+golf+outing+at+Mount+Vintage+in+Edgerton%2C+SC+%28Augusta%2C+GA%29+raised+%244000+for+MDA+and+was+sponsored+by+1-800-BoardUp."}
{"id":260140319,"url":"http://farm1.staticflickr.com/111/260140319_1d3ee7d62c.jpg","path":"7ac/496/7ac496d89c921812e64dea95e38c49c7.jpg","date":"2006-09-30","year":2006,"month":9,"lon":-82.19945,"lat":33.451923,"tags":"baby,barbara,cody,elena,grandma+shower,heather,mdw","S2CellId":"4cb4b00000000000","result":5854,"accuracy":0.030385172,"title":"DSC_0059"}
{"id":5080642467,"url":"http://farm5.staticflickr.com/4030/5080642467_a5d4828476.jpg","path":"c99/a7e/c99a7e57876d1261ae1981786f1465d4.jpg","date":"2010-10-04","year":2010,"month":10,"lon":-82.32811,"lat":33.35376,"tags":"1870,georgia,history,mcduffie,melystu,memorial,one-room,reeves,school,tin,wooden","S2CellId":"4691000000000000","result":2978,"accuracy":0.045297865,"title":"Reeves+School%2C+1870","description":"Shutter+detail."}
{"id":833393538,"url":"http://farm2.staticflickr.com/1128/833393538_d619ced04a.jpg","path":"69d/9d4/69d9d41fd433c77f14d6268de5c2b3b.jpg","date":"2007-07-04","year":2007,"month":7,"lon":-82.185715,"lat":33.43932,"tags":"garden,tomatoe","S2CellId":"864e640000000000","result":7620,"accuracy":0.11952345,"title":"green+tomatoes","description":"they+are+awesome+fried%21++sometimes+i+do+let+them+make+it+until+they+are+red.++%5E_%5E"}
{"id":4592733327,"url":"http://farm4.staticflickr.com/3103/4592733327_de99440f57.jpg","path":"7c7/191/7c7191455c59ce6d4ff2146b822ff97.jpg","date":"2010-05-01","year":2010,"month":5,"lon":-82.185616,"lat":33.43741,"tags":"bbq,beef,brisket,food+porn,meat,smoked+meat","S2CellId":"89d5400000000000","result":9263,"accuracy":0.042869847,"title":"my+brisket","description":"somehow+there+is+a+shadow+in+the+photo.++i+didn%27t+see+it+on+the+actual+meat."}
