{"id":1780543374,"url":"http://farm3.staticflickr.com/2299/1780543374_9795e12445.jpg","path":"94b/080/94b0807ceff7eda82e9559843dc439b.jpg","date":"2007-10-06","year":2007,"month":10,"lon":12.389734,"lat":42.021362,"tags":"nikon+coolpix+p1,nuvole,panorami","S2CellId":"4797700000000000","result":3766,"accuracy":0.020977588,"title":"Earth+%26+Sky"}
{"id":319012446,"url":"http://farm1.staticflickr.com/137/319012446_52fc5dcd63.jpg","path":"2e8/662/2e86623f87a4752732bb58a2615492c.jpg","date":"2006-12-10","year":2006,"month":12,"lon":12.669038,"lat":42.778896,"tags":"italia,italy,padesig,paolo+del+signore,umbria","S2CellId":"132c400000000000","result":1049,"accuracy":0.07843791,"title":"Country+farm+-+Tree+and+horses","description":"Uncinano+-+Spoleto+-+Umbria+-+Italy%0AAgriturismo+Rivoli"}
{"id":2531305837,"url":"http://farm4.staticflickr.com/3042/2531305837_668833a644.jpg","path":"615/8d2/6158d29fabcdacc6be587dd92404269.jpg","date":"2008-05-04","year":2008,"month":5,"lon":12.299194,"lat":42.517536,"tags":"attigliano","S2CellId":"47fb000000000000","result":4734,"accuracy":0.015282175,"title":"Campo+Attigliano","description":"Giochi+d%27acqua+per+grandi+e+piccini"}
{"id":3504249557,"url":"http://farm4.staticflickr.com/3376/3504249557_2490e72f6a.jpg","path":"438/6f7/4386f7579e912d84996188916907fef.jpg","date":"2007-06-30","year":2007,"month":6,"lon":12.406482,"lat":42.782078,"tags":"%CF%84%CE%BF%CF%83%CE%BA%CE%AC%CE%BD%CE%B7,%D1%83%D0%BC%D0%B1%D1%80%D0%B8%D1%8F,%D7%90%D7%95%D7%9E%D7%91%D7%A8%D7%99%D7%94,%D7%98%D7%95%D7%A1%D7%A7%D7%A0%D7%94,%D8%A3%D9%88%D9%85%D8%A8%D8%B1%D9%8A%D8%A7,%D8%AA%D9%88%D8%B3%D9%83%D8%A7%D9%86%D8%A7,%E3%82%A6%E3%83%B3%E3%83%96%E3%83%AA%E3%82%A2%E5%B7%9E,%E3%83%88%E3%82%B9%E3%82%AB%E3%83%BC%E3%83%8A%E5%B7%9E,2007,eu,europe,italia,italy,perugia,todi,travel,tuscano,tuscany,umbria","S2CellId":"883b340000000000","result":8350,"accuracy":0.08797996,"title":"IT07+3029+Santuario+S.+Filippo+Benizi%2C+Todi"}
{"id":2004238857,"url":"http://farm3.staticflickr.com/2280/2004238857_5617080a7c.jpg","path":"43e/13b/43e13b6144d6e57a9329f8a33ca9b6a.jpg","date":"2007-11-09","year":2007,"month":11,"lon":12.421245,"lat":42.55248,"tags":"amelia","S2CellId":"8084100000000000","result":6905,"accuracy":0.11341647,"title":"galline+nelle+vigne"}
{"id":2183122399,"url":"http://farm3.staticflickr.com/2172/2183122399_7a14563ef5.jpg","path":"a9b/b4a/a9bb4acf4ff240fc91db2745b2cd6453.jpg","date":"2005-08-22","year":2005,"month":8,"lon":12.87059,"lat":42.225792,"tags":"chiesa+di+santa+vittoria,italy,monteleone+sabino,trebula+mutuesca","S2CellId":"0d56c00000000000","result":472,"accuracy":0.046659365,"title":"Roof+of+Sta.+Vittoria%2C+Monteleone+Sabino"}
{"id":7837792722,"url":"http://farm8.staticflickr.com/7119/7837792722_f250f793f6.jpg","path":"800/927/80092723d8a398bc362772b5220590.jpg","date":"2012-08-13","year":2012,"month":8,"lon":12.794394,"lat":42.618374,"tags":"2012,ferentillo,gnot,italia,lamp,lampione,lampioni,lampions,lamps,licht,lichts,light,lights,luce,luces,luci,luz,nacht,night,noche,nuit,umbria","S2CellId":"132e900000000000","result":1057,"accuracy":0.47403732,"title":"Light+in+the+night"}
{"id":447216777,"url":"http://farm1.staticflickr.com/237/447216777_e85c72ff3b.jpg","path":"cc3/0df/cc30df52365be293ed854f1fdeda0ee.jpg","date":"2007-03-31","year":2007,"month":3,"lon":12.81744,"lat":42.474693,"tags":"350d,laghetto,lake,oasi+wwf+rieti,rieti,ripasottile,wwf","S2CellId":"12bad00000000000","result":825,"accuracy":0.08474833,"title":"IMG_4044"}
{"id":1487053286,"url":"http://farm2.staticflickr.com/1263/1487053286_fd2271c7bf.jpg","path":"c00/1cd/c001cdeef48edc4c05198afecde62c4.jpg","date":"2007-09-30","year":2007,"month":9,"lon":12.370004,"lat":42.15698,"tags":"superbike,vallelunga","S2CellId":"4879e40000000000","result":5506,"accuracy":0.22104542,"title":"dscf3926"}
{"id":5159859991,"url":"http://farm2.staticflickr.com/1146/5159859991_67aa1a2792.jpg","path":"6e7/b76/6e7b765eb8dc11fac7f27a781bf8f6.jpg","date":"2010-10-04","year":2010,"month":10,"lon":12.57347,"lat":42.50382,"tags":"%E5%BA%9E%E8%B4%9D,%E6%84%8F%E5%A4%A7%E5%88%A9","S2CellId":"85d3400000000000","result":7492,"accuracy":0.103544794,"title":"Today+the+towns+of+Pompeii"}
{"id":5160271162,"url":"http://farm2.staticflickr.com/1421/5160271162_9c56ee2e29.jpg","path":"908/fbf/908fbff4c09bb0b8a13d5c6e0f1782a.jpg","date":"2010-10-04","year":2010,"month":10,"lon":12.57347,"lat":42.50382,"tags":"%E5%BA%9E%E8%B4%9D,%E6%84%8F%E5%A4%A7%E5%88%A9","S2CellId":"1325f40000000000","result":999,"accuracy":0.22676246,"title":"Pompeii+streets+and+buildings"}
{"id":5086260282,"url":"http://farm5.staticflickr.com/4127/5086260282_ae7a88e2c7.jpg","path":"6e2/eb7/6e2eb7cf889b1e6fe64d30cf58cb49ae.jpg","date":"2010-10-09","year":2010,"month":10,"lon":12.57347,"lat":42.50382,"tags":"2010,amazing,angle,art,artistic,attraction,beautiful,camera,clouds,color,composition,creation,creative,creativity,d40,dolomite,dramatic,dreamy,explore,filter,flickr,flickraward,forest,grass,hike,hiking,interesting,italia,italy,lake,land,lens,majestic,mist,morning,mountains,nature,nikon,north,outdoors,photograph,photographs,photography,photos,photoshop,picture,pictures,platinumheartaward,reflection,scape,scenery,sky,snow,supershot,surreal,theunforgettablepictures,tourist,trees,water,wide,world","S2CellId":"4778700000000000","result":3430,"accuracy":0.082958855,"title":"The+Fountain+of+Youth"}
{"id":6467732733,"url":"http://farm8.staticflickr.com/7174/6467732733_6bdc2454a3.jpg","path":"87a/4aa/87a4aa1f9e1c957ecf51e3d8789a1e.jpg","date":"2011-07-27","year":2011,"month":7,"lon":12.738707,"lat":42.873844,"tags":"affreschi,frescoes,lo+spagna,madonna,maria,trevi","S2CellId":"94ce585c00000000","result":9713,"accuracy":0.21716732,"title":"Cappella+dei+Magi","description":"Trevi%2C+Santuario+della+Madonna+delle+Lacrime%0A%0A%0APerugino+1521"}
{"id":2262639204,"url":"http://farm3.staticflickr.com/2293/2262639204_4cfa35c073.jpg","path":"879/cdf/879cdf19be51e245f312f7a72133efca.jpg","date":"2008-02-13","year":2008,"month":2,"lon":12.685775,"lat":42.267017,"tags":"2008,anticlericale,carnevalone+liberato,carnival,malamurga,mask,mirteto,murga,music,poggio,poggiomirteto","S2CellId":"12a3840000000000","result":681,"accuracy":0.03611289}
{"id":9338127650,"url":"http://farm3.staticflickr.com/2852/9338127650_97908fa7a3.jpg","path":"630/486/630486cb0c5c14932b99b6876cff696.jpg","date":"2012-08-15","year":2012,"month":8,"lon":12.19654,"lat":42.10583,"tags":"bracciano","S2CellId":"1325840000000000","result":989,"accuracy":0.030032398,"title":"Bracciano+dal+battello","description":"Approdo+verso+il+molo+di+Bracciano+col+Sabazia+II."}
{"id":2546949020,"url":"http://farm4.staticflickr.com/3060/2546949020_0fab42dc3a.jpg","path":"ba2/969/ba2969ee22754ecd0b9ed394985f3e.jpg","date":"2008-06-01","year":2008,"month":6,"lon":12.176713,"lat":42.225975,"tags":"roma+3,roma+3%C2%B0,scout","S2CellId":"132eff0000000000","result":1071,"accuracy":0.04893994,"title":"Giornata+Genitori+2008+-+0006","description":"Cerchio+iniziale"}
{"id":473538797,"url":"http://farm1.staticflickr.com/173/473538797_a07f0e0ab9.jpg","path":"509/2d7/5092d7dee7dccd6e7637e80d0ec725a.jpg","date":"2007-04-25","year":2007,"month":4,"lon":12.552652,"lat":42.89961,"tags":"25+aprile,bastardo,carne,scampagnata,thebiggestgroup","S2CellId":"132dc00000000000","result":1055,"accuracy":0.060056504,"title":"DSC02554.JPG"}
{"id":9485121057,"url":"http://farm8.staticflickr.com/7386/9485121057_22af1ecdf5.jpg","path":"7b3/db1/7b3db137e2bed3d591559fba2f17b6ce.jpg","date":"2009-08-06","year":2009,"month":8,"lon":12.403028,"lat":42.20115,"tags":"acqua,cascate,falls,fauna,fiume,flora,gelato,monte,natura,nature,parco,river,water","S2CellId":"4845400000000000","result":4817,"accuracy":0.035105344,"title":"Cascate+del+Monte+Gelato","description":"Mazzano+Romano+-+Lazio"}
{"id":2851361204,"url":"http://farm4.staticflickr.com/3126/2851361204_2d53ed1317.jpg","path":"44f/b9d/44fb9d77901b6a6929edd2cb67d79396.jpg","date":"2008-08-15","year":2008,"month":8,"lon":12.280654,"lat":42.103317,"tags":"18-55is,450d,abigfave,acqua,amore,anawesomeshot,arancio,barca,beach,best+flickr+photography,betterthangood,blu,blue,blueribbonwinner,boat,bracciano,canon,carmen+consoli,colline,effetto,esposizione,exposure,film,golddragon,goldenheartaward,hill,hills,italt,jediphotographer,l%27ultimo+bacio,lago,lake,landscape,lazio,long,love,lungo,movie,music,musica,mywinners,naturesfinest,pot-of-gold,reflection,riflessi,riva,roma,romance,romano,romantico,rome,seconds,sky,soe,song,spectacularsunsetsandsunrises,spiaggia,sunset,supershot,tearsandrain,tempo,theunforgettablepictures,tramonto,trevignano,ultimateshot","S2CellId":"8099700000000000","result":7111,"accuracy":0.03679407,"title":"Magica+quiete%2C+velata+indulgenza%2C+dopo+l%27ingrata+tempesta..","description":"%3Ca+href%3D%22http%3A%2F%2Fbighugelabs.com%2Fflickr%2Fonblack.php%3Fid%3D2851361204%26size%3Dlarge%22%3EView+On+Black%3C%2Fa%3E%0A%0ACanon+Eos+450D+18-55mm+f%2F3.5-5.6.+IS%0AISO+800%2C+F4.5+%2C+1%2F13sec%2C+29mm%0Ascattata+senza+cavalletto%0A-------------------------------------------------------%0A%0A%3Ci%3E....Mille+violini+suonati+dal+vento%0Al%27ultimo+abbraccio%0Amia+amata+bambina%0Anel+tenue+ricordo+di+una+pioggia%0Ad%27argento%0Ail+senso+spietato%0Adi+un+non+ritorno...%3C%2Fi%3E%0A%3Ca+href%3D%22http%3A%2F%2Fie.youtube.com%2Fwatch%3Fv%3D5OTTPes1dgc%22%3Eie.youtube.com%2Fwatch%3Fv%3D5OTTPes1dgc%3C%2Fa%3E%0A%0A%0A%0AEccoti+qui+decidi+che+la+fase+dell%27eterna+adolescenza+%C3%A8+finita+e+che+%C3%A8+ora+di+crescere+e+crescerai.+E+allora+tutto+cambia+e+questa+volta+cambier%C3%A0.+Avrai+una+casa+pi%C3%B9+grande%2C+la+piscina%2C+il+garage+col+posto+auto%2C+il+prato+sempre+curato%2C+il+portico+fiorito+e+le+porte+smaltate%2C+il+cane+che+chiamerai+Marx+e+la+barca+che+chiamerai+Giulia%2C+avrai+la+salute+assicurata%2C+la+vita+assicurata%2C+il+frigorifero+sempre+pieno+per+nn+sentirti+povero%2C+un+tappeto+etnico+per+continuare+a+sentirti+giovane+e+finestre+da+cui+entra+sempre+il+sole...+e+allora+avrai+la+tua+famiglia+felice+i+tuoi+bambini+in+salute+e+lui...+avrai+lui...+che+ti+ricorda+tutte+le+cose+belle+che+avete+avuto...+non+%C3%A8+questo+che+avevi+sempre+sognato%3F"}
{"id":2996179593,"url":"http://farm4.staticflickr.com/3243/2996179593_673343ecfe.jpg","path":"396/296/396296f2c988e41b21e690f145151391.jpg","date":"2008-11-02","year":2008,"month":11,"lon":12.577586,"lat":42.212288,"tags":"raccolta+olive+2008","S2CellId":"47d9bc0000000000","result":4479,"accuracy":0.008814377,"title":"Olive08_b_0013"}
{"id":5586797844,"url":"http://farm6.staticflickr.com/5021/5586797844_4f5ca57f9f.jpg","path":"3fe/272/3fe272b79b1449e9949ef289ba813c8a.jpg","date":"2011-04-02","year":2011,"month":4,"lon":12.11483,"lat":42.62806,"tags":"bagnoregio,civita+di+bagnoregio,italia,italie,italy,lazio,trattoria","S2CellId":"1495400000000000","result":1225,"accuracy":0.23156768,"title":"Trattoria+Antico+Forno","description":"The+best+joint+in+Civita+di+Bagnoregio.+The+owner%2C+Franco%2C+is+a+very+nice+person+to+talk+to."}
{"id":8393434088,"url":"http://farm9.staticflickr.com/8075/8393434088_c48d81026d.jpg","path":"581/09a/58109a756b49cf891fb4f39be5b121a.jpg","date":"2013-01-18","year":2013,"month":1,"lon":12.184953,"lat":42.37668,"tags":"cimina,cimini,freddo,italia,neve,traffico,viterbo","S2CellId":"47c3dc0000000000","result":4234,"accuracy":0.013141245,"title":"ZuMo_03Neve2013"}
{"id":12788035,"url":"http://farm1.staticflickr.com/11/12788035_f54c9a69ce.jpg","path":"da8/a27/da8a27c9be86532ab64098e0a2a51ce.jpg","date":"2004-07-15","year":2004,"month":7,"lon":12.128906,"lat":42.81152,"tags":"artists,italia,italy,nature,serenity,summer,sun,tuscany,vacation","S2CellId":"1458300000000000","result":1202,"accuracy":0.01322708,"title":"Under+the+Tuscan+Sun","description":"At+an+artists+refuge+B%26B+in+Tuscany+called+%3Ci%3EPeralta%3C%2Fi%3E"}
{"id":278915511,"url":"http://farm1.staticflickr.com/103/278915511_26c31aa166.jpg","path":"37d/2d6/37d2d6b1f8e046f0f4d0d9499b07ff4.jpg","date":"2006-09-08","year":2006,"month":9,"lon":12.103843,"lat":42.7194,"tags":"2006,architettura,italia,italie,italien,italy,orvieto,umbria","S2CellId":"477f5f5000000000","result":3505,"accuracy":0.15927456,"title":"Orvieto","description":"Orvieto%2C+settembre+2006"}
{"id":612255446,"url":"http://farm2.staticflickr.com/1122/612255446_754aa45011.jpg","path":"3ee/637/3ee637191b6742aa5dc4a57ac842ea0.jpg","date":"2006-07-12","year":2006,"month":7,"lon":12.246108,"lat":42.490643,"tags":"bomarzo,sacrobosco","S2CellId":"0d24c00000000000","result":270,"accuracy":0.07673387,"title":"Bomarzo"}
{"id":8567307371,"url":"http://farm9.staticflickr.com/8524/8567307371_3fa4df26a9.jpg","path":"6d5/a9a/6d5a9a53ff3344e92281f2992dc0d622.jpg","date":"2013-03-18","year":2013,"month":3,"lon":12.862243,"lat":42.757095,"tags":"artesacra,vallodinera,valnerina","S2CellId":"89c8049000000000","result":9190,"accuracy":0.01663805,"title":"Dormitio+Maria+-+Chiesa+di+S.+Giovanni+-+Vallo+di+Nera","description":"%3Ca+href%3D%22http%3A%2F%2Fwww.lavalnerina.it%22+rel%3D%22nofollow%22%3Ewww.lavalnerina.it%3C%2Fa%3E%0A%0A%3Ca+href%3D%22http%3A%2F%2Fwww.lavalnerina.it%2Fdett_luogo.php%3Fid_item%3D94%22+rel%3D%22nofollow%22%3Ewww.lavalnerina.it%2Fdett_luogo.php%3Fid_item%3D94%3C%2Fa%3E"}
{"id":2291131924,"url":"http://farm4.staticflickr.com/3036/2291131924_c6a8b9b66c.jpg","path":"527/f9f/527f9f93b9b42031a85e904caf48c9d6.jpg","date":"2008-02-16","year":2008,"month":2,"lon":12.804329,"lat":42.141552,"tags":"compleanno+carlo+claudia+montorio+romano","S2CellId":"54950a0100000000","result":6238,"accuracy":0.014328213,"title":"Montorio2008_0471"}
{"id":6786257782,"url":"http://farm8.staticflickr.com/7181/6786257782_bfb4d1de58.jpg","path":"b6a/6c7/b6a6c7df476999cbf119e4e37cbe27c.jpg","date":"2012-02-25","year":2012,"month":2,"lon":12.753206,"lat":42.87877,"tags":"b1,corciano,femminile,pallavolo,serie,serie+b1,sport,trevi,volley","S2CellId":"0d69940000000000","result":550,"accuracy":0.06178465,"title":"Trevi-Corciano_17+%5B_MB83075-25.02.12%5D.jpg","description":"Lucky+Wind+Trevi+-+Gecom+Security+Corciano+-+Volley+Femminile%2C+Serie+B1+girone+C%2C+17a+giornata+di+ritorno%2C+Regular+Season+2011%2F2012"}
{"id":5036866265,"url":"http://farm5.staticflickr.com/4131/5036866265_0893266073.jpg","path":"525/2b8/5252b8d96f2092596de69a941f5982d.jpg","date":"2010-09-11","year":2010,"month":9,"lon":12.151565,"lat":42.92488,"tags":"pergoletto","S2CellId":"132dc00000000000","result":1055,"accuracy":0.09290306,"title":"IMG_4183"}
{"id":7486155316,"url":"http://farm9.staticflickr.com/8009/7486155316_ca1af1cc77.jpg","path":"c85/1d4/c851d4ef8ce0dc91cd8333ad6f90b770.jpg","date":"2012-06-23","year":2012,"month":6,"lon":12.603549,"lat":42.67286,"tags":"calcio,calcio+a+5,calcio+femminile,girls,nikon+d90,soccer,soccer+girls,sport,tamron+70-300,torneo+fuori+dal+mondo+per+elena+-+macerino,umbria","S2CellId":"0d6a1c0000000000","result":557,"accuracy":0.2852739,"title":"Torneo+Fuori+dal+Mondo-110"}
{"id":2808596799,"url":"http://farm4.staticflickr.com/3247/2808596799_e31e32f6a0.jpg","path":"f72/c6e/f72c6e35fcc054b956ddb3dba81096ec.jpg","date":"2008-08-15","year":2008,"month":8,"lon":12.369832,"lat":42.156593,"tags":"14.+icccr,citroen,icccr,rom,rome,vallelunga","S2CellId":"47c0700000000000","result":4138,"accuracy":0.17025146,"title":"14.+ICCCR+Citroen+World+Meeting+Rom"}
{"id":5019675398,"url":"http://farm5.staticflickr.com/4106/5019675398_44cf804f32.jpg","path":"241/a5d/241a5d794a531e1a4d918e97adc46e9.jpg","date":"2010-07-16","year":2010,"month":7,"lon":12.282216,"lat":42.14376,"tags":"2010,art,bildhauerei,canoneos7d,deu,deutschland,italien,kunst,sculpture,skulptur,wolfenbuettel","S2CellId":"132f61ac00000000","result":1104,"accuracy":0.009957181,"title":"2010-07-16T11_27_59.JPG","description":"Italien%2FItaly%2FItalia%0ASteinmetz+am+Lago+Bracciano"}
{"id":8330074614,"url":"http://farm9.staticflickr.com/8502/8330074614_bba6e18991.jpg","path":"279/c9c/279c9ca429f8ed794d75deadb846daf6.jpg","date":"2012-12-09","year":2012,"month":12,"lon":12.686119,"lat":42.417694,"tags":"100,180mm,2012,2013,6x6,analogic,carl+zeiss,cottanello,f2.8,film,format,fuji,grass,lazio,maiali,medium,pellicola,pentacon+six+tl,pigs,prati,reala,sonnar","S2CellId":"12b3000000000000","result":802,"accuracy":0.09037267,"title":"For+a+happy+%5Band+fat%5D+2013","description":"The+2012+was+an+hard+and+caotic+year+for+me%2C+with+beautiful+daily+surprise+and+some+work+difficult.+Hope+the+next+will+be+vivid+and+full+of+new+thing+to+see.%0AHappy+new+year."}
{"id":1297394515,"url":"http://farm2.staticflickr.com/1222/1297394515_abec458520.jpg","path":"8e7/fec/8e7fecbd95b0b384262d7b1be6d4c834.jpg","date":"2006-10-23","year":2006,"month":10,"lon":12.521581,"lat":42.23396,"tags":"bugada,carrers,clothes,estesa,laundry,night,nit,poble,roba,sant%27oreste,soratte,spread,streets,town,widespread","S2CellId":"4716440000000000","result":3207,"accuracy":0.015451642,"title":"offered+secrets+%2F+secrets+oferts","description":"all+the+secrets+offereds+to+the+night+in+widespread+clothes.%0A.%0Atote+sels+secrets+oferts+a+la+nit+en+roba+estesa%0A."}
{"id":4843282378,"url":"http://farm5.staticflickr.com/4104/4843282378_b4e26878e7.jpg","path":"687/41b/68741bf424ecb369bdffd5b16e8e13.jpg","date":"2010-07-05","year":2010,"month":7,"lon":12.268847,"lat":42.09443,"tags":"2010,anguillara,canoneos7d,deu,deutschland,italien,spinne,wolfenbuettel","S2CellId":"4810100000000000","result":4787,"accuracy":0.05305981,"title":"2010-07-05T06_36_29a.png","description":"In+Anguillara"}
{"id":2891979080,"url":"http://farm4.staticflickr.com/3037/2891979080_1279dddc89.jpg","path":"2bd/c3b/2bdc3bf9558bd972ae79bf9cf28b12d7.jpg","date":"2008-09-13","year":2008,"month":9,"lon":12.717876,"lat":42.22254,"tags":"finestra,pubblicit%C3%A0,reclame","S2CellId":"4779c00000000000","result":3436,"accuracy":0.015823219,"title":"Old+Italian+advertising"}
{"id":4872688924,"url":"http://farm5.staticflickr.com/4099/4872688924_98706852bf.jpg","path":"b29/ec4/b29ec4cae1748f9fcbf5e78e5568ef3.jpg","date":"2010-05-29","year":2010,"month":5,"lon":12.685174,"lat":42.26645,"tags":"casa,comignolo,gatto,hdr,italy,latium,lazio,light,luce,mattoni,poggio+mirteto,rieti,sunset,tetto,tramonto","S2CellId":"132f614000000000","result":1098,"accuracy":0.022843141,"title":"Sunset+light+and+clouds"}
{"id":2822171575,"url":"http://farm4.staticflickr.com/3280/2822171575_499c355ceb.jpg","path":"701/529/7015298ac39aad6c3a506bb4d7308870.jpg","date":"2008-08-03","year":2008,"month":8,"lon":12.229027,"lat":42.239185,"tags":"italy,kitty,lazio,sutri","S2CellId":"133bbc0000000000","result":1153,"accuracy":0.028605025,"title":"Sutri-20080803_161.jpg"}
{"id":2189668743,"url":"http://farm3.staticflickr.com/2222/2189668743_2ccb60025a.jpg","path":"cf7/edd/cf7edd72761cfd85a485f91fedd39850.jpg","date":"2008-01-13","year":2008,"month":1,"lon":12.641143,"lat":42.567745,"tags":"emiliano,emilianoluciani,luciani","S2CellId":"8085640000000000","result":6913,"accuracy":0.001934223,"title":"Kospea","description":"Terni+Kospea"}
{"id":380731305,"url":"http://farm1.staticflickr.com/186/380731305_c9346396c2.jpg","path":"924/1de/9241dec5a298a9eec68c7711ed8d54d.jpg","date":"2007-02-05","year":2007,"month":2,"lon":12.575912,"lat":42.160603,"tags":"albero,anyhdranyphotoshop,artlibre,colorphotoaward,fuji,hdr,impressedbeauty,italia,italy,landscape,myfirsthdr,naturesfinest,panorama,prato,s6500,tree","S2CellId":"1329700000000000","result":1007,"accuracy":0.21166168,"title":"My+first+HDR","description":"Here+it+is+my+first+hdr...%0AIt+was+taken+near+Fiano+Romano.%0A%0AThank+you+so+much+to+EVERYONE+who+have+dedicated+even+30+second+to+look+at+this+photo.+It+is+so+much+appreciated...%21"}
{"id":2290338175,"url":"http://farm3.staticflickr.com/2369/2290338175_62ae576e8e.jpg","path":"d9c/ff4/d9cff42b8f15dbb3fccdba152c8581.jpg","date":"2008-02-16","year":2008,"month":2,"lon":12.804329,"lat":42.141552,"tags":"compleanno+carlo+claudia+montorio+romano","S2CellId":"14de400000000000","result":1335,"accuracy":0.102842264,"title":"Montorio2008_0470"}
{"id":9164401035,"url":"http://farm3.staticflickr.com/2872/9164401035_685a2077c8.jpg","path":"618/a8b/618a8b39ae2853c3cff98a740869750.jpg","date":"2013-06-28","year":2013,"month":6,"lon":12.737666,"lat":42.734833,"tags":"spoleto","S2CellId":"89d5400000000000","result":9263,"accuracy":0.01639485,"title":"Spoleto"}
{"id":9740186786,"url":"http://farm8.staticflickr.com/7333/9740186786_e125d57539.jpg","path":"4f8/c75/4f8c75e4249758264fdaa8992d79b830.jpg","date":"2008-04-05","year":2008,"month":4,"lon":12.103202,"lat":42.137646,"tags":"ascomycota,collema,collema+ryssoleum,collemataceae,fungi,lecanoromycetes,peltigerales","S2CellId":"465a400000000000","result":2886,"accuracy":0.047314715,"title":"Collema+ryssoleum+CM5408-D077"}
{"id":5104131287,"url":"http://farm5.staticflickr.com/4090/5104131287_3743129b9a.jpg","path":"720/486/720486ffb9dcc9c309714d1f2def6a0.jpg","date":"2010-10-20","year":2010,"month":10,"lon":12.218086,"lat":42.08513,"tags":"aeronautica,aviacion,braccio,italia,militar,museo,viaje,vigna+di+valle","S2CellId":"89b6440000000000","result":8829,"accuracy":0.34283438,"title":"p1070045"}
{"id":4815518848,"url":"http://farm5.staticflickr.com/4138/4815518848_685e9289be.jpg","path":"b4f/ca0/b4fca035584ecbf2e7855e44d667381.jpg","date":"2010-06-09","year":2010,"month":6,"lon":12.641272,"lat":42.54453,"tags":"5,calcetto,calcio,multiplayer.it,soccer","S2CellId":"47b7d00000000000","result":4036,"accuracy":0.304036}
{"id":7536858146,"url":"http://farm8.staticflickr.com/7124/7536858146_63d3e3e2d3.jpg","path":"ffa/a72/ffaa72a321d896233c344650e0156cef.jpg","date":"2012-06-23","year":2012,"month":6,"lon":12.603549,"lat":42.67286,"tags":"torneo+fuori+dal+mondo+per+elena,torneo+fuori+dal+mondo+per+elena+-+macerino","S2CellId":"1346c00000000000","result":1162,"accuracy":0.028960822,"title":"Torneo+Fuori+dal+Mondo-289"}
{"id":4842667733,"url":"http://farm5.staticflickr.com/4130/4842667733_22c586cd75.jpg","path":"5e6/9cc/5e69cc622919e598b681651a1d3e39e2.jpg","date":"2010-07-05","year":2010,"month":7,"lon":12.26868,"lat":42.094265,"tags":"2010,anguillara,canoneos7d,deu,deutschland,italien,spinne,wolfenbuettel","S2CellId":"80e9500000000000","result":7405,"accuracy":0.1624642,"title":"2010-07-05T06_41_20a.png","description":"In+Anguillara+-+Springspinne+-+Salticida"}
{"id":7415476454,"url":"http://farm8.staticflickr.com/7249/7415476454_a9de9be1da.jpg","path":"9dc/75c/9dc75c1e615771663c632f6b65ef931.jpg","date":"2012-06-06","year":2012,"month":6,"lon":12.1553,"lat":42.425934,"tags":"bagnaia,italy,lante,villa","S2CellId":"6d318a3000000000","result":6816,"accuracy":0.39098084,"title":"Garden+Villa+Lante"}
{"id":3906712528,"url":"http://farm3.staticflickr.com/2618/3906712528_55a8e1b626.jpg","path":"535/453/535453ad336aa65ed96a14dc1ed85c84.jpg","date":"2009-07-18","year":2009,"month":7,"lon":12.739527,"lat":42.735287,"tags":"duomo,spoleto","S2CellId":"477dc00000000000","result":3451,"accuracy":0.043067653,"title":"20090718_Spoleto+-+Duomo_008"}
{"id":4706466051,"url":"http://farm2.staticflickr.com/1296/4706466051_5d67ce3992.jpg","path":"21d/992/21d992a64b74221377ab1bcc6b56d597.jpg","date":"2010-06-05","year":2010,"month":6,"lon":12.271213,"lat":42.135277,"tags":"favorites,fosco+santini+2010","S2CellId":"4784700000000000","result":3559,"accuracy":0.5289975,"title":"IMG_3254.JPG"}
{"id":412569096,"url":"http://farm1.staticflickr.com/148/412569096_6cadbf725c.jpg","path":"793/efd/793efd3756f88bd9c3741919ad538e39.jpg","date":"2007-03-04","year":2007,"month":3,"lon":12.110452,"lat":42.718136,"tags":"italia,italy,orvieto","S2CellId":"12d5840000000000","result":920,"accuracy":0.017062346,"title":"IMGP4669"}
{"id":2512952026,"url":"http://farm3.staticflickr.com/2184/2512952026_25ff26e1d9.jpg","path":"6c3/bbc/6c3bbcd8965a53b68dd373911f2cd3fb.jpg","date":"2008-05-11","year":2008,"month":5,"lon":12.364844,"lat":42.70945,"tags":"18-200os,canon,grateful+clem,sigma,todi+2008,umbria","S2CellId":"487604ce50000000","result":5237,"accuracy":0.042627163,"title":"Intensely+focused","description":"On+me%21++I+hope+my+continuous+burst+of+430EX+power+foiled+his+snipes."}
{"id":3491541450,"url":"http://farm4.staticflickr.com/3624/3491541450_4204e6b465.jpg","path":"336/fd8/336fd85ef5069d592de519e6d8aeaf.jpg","date":"2008-05-01","year":2008,"month":5,"lon":12.709722,"lat":42.55466,"tags":"cascata,marmore,nature,terni,umbria,valnerina,waterfall","S2CellId":"132ef90000000000","result":1063,"accuracy":0.30518472,"title":"Cascata+02"}
{"id":1395457993,"url":"http://farm2.staticflickr.com/1283/1395457993_0b9aa26a84.jpg","path":"7d8/9fd/7d89fd101ed0eb29bc849c6fce1174c3.jpg","date":"2007-09-14","year":2007,"month":9,"lon":12.745578,"lat":42.878372,"tags":"attraversamenti,loveleft,ministero+della+grafica,storie+di+grafica,trevi,umbria","S2CellId":"47d9fc0000000000","result":4490,"accuracy":0.013630151,"title":"Storie+di+Grafica+exhibition"}
{"id":3442608444,"url":"http://farm4.staticflickr.com/3302/3442608444_7922605aeb.jpg","path":"108/218/108218b15259ca30647c7b1faa7eca57.jpg","date":"2009-04-11","year":2009,"month":4,"lon":12.740278,"lat":42.733112,"tags":"building,composition,palace,rocca,rocca+albornoziana,spoleto,umbria","S2CellId":"0d5d000000000000","result":499,"accuracy":0.02715257,"title":"La+sfida+del+potere+al+cielo"}
{"id":461978867,"url":"http://farm1.staticflickr.com/217/461978867_a1d526b39c.jpg","path":"ee2/0a1/ee20a13de27b178773c88f64913ceccb.jpg","date":"2007-04-09","year":2007,"month":4,"lon":12.596629,"lat":42.356506,"tags":"lazio,pasquetta,tarano","S2CellId":"132bb00000000000","result":1046,"accuracy":0.09238768,"title":"09042007744"}
{"id":612437076,"url":"http://farm2.staticflickr.com/1127/612437076_687faf2583.jpg","path":"95b/4d1/95b4d1b06e9091b6341fa144eb95ac0.jpg","date":"2006-07-12","year":2006,"month":7,"lon":12.246108,"lat":42.490643,"tags":"bomarzo,sacrobosco","S2CellId":"133ba40000000000","result":1150,"accuracy":0.23975408,"title":"Bomarzo"}
{"id":819466238,"url":"http://farm2.staticflickr.com/1131/819466238_2db8fb8dc2.jpg","path":"65c/ade/65cade6c8ec320171620983dc0bb6051.jpg","date":"2007-07-11","year":2007,"month":7,"lon":12.112716,"lat":42.717545,"tags":"italy,orvieto,umbria","S2CellId":"8f4e440000000000","result":9520,"accuracy":0.046115756,"title":"So+terribly+hungry","description":"A+long+wait+for+food"}
{"id":6858081834,"url":"http://farm7.staticflickr.com/6235/6858081834_ef8bdf3640.jpg","path":"cf5/9bf/cf59bf46cba5efe85e96342d6d67761.jpg","date":"2011-12-01","year":2011,"month":12,"lon":12.73736,"lat":42.73576,"tags":"architettura,bianco+e+nero,black+and+white,spoleto,street,turismo","S2CellId":"132f605c00000000","result":1086,"accuracy":0.018775612,"title":"Particolare+-+Fontana+Sarcofago+Piazza+Duomo"}
{"id":3224128134,"url":"http://farm4.staticflickr.com/3534/3224128134_043c0e352d.jpg","path":"1d9/8cd/1d98cdeae997a8d583a3686c381e3f3.jpg","date":"2008-09-24","year":2008,"month":9,"lon":12.608786,"lat":42.851727,"tags":"bastardo,italy,lustrum,pandemonium,rome,umbria,villa","S2CellId":"12d5840000000000","result":920,"accuracy":0.049857866,"title":"Villa+in+Umbria","description":"%3Ci%3E%C2%A92008+Thomas+van+Ardenne%3C%2Fi%3E"}
{"id":8148751230,"url":"http://farm9.staticflickr.com/8044/8148751230_35eabaa2c0.jpg","path":"efa/884/efa884c2366a187fd8d4352c2645b1.jpg","date":"2012-11-01","year":2012,"month":11,"lon":12.351722,"lat":42.14062,"tags":"casa+di+montagna,chalet,mountain+house,my_gear_and_me,my_gear_and_me_premium,remember+that+moment+level+1,remember+that+moment+level+2,remember+that+moment+level+3,remember+that+moment+level+4,remember+that+moment+level+5","S2CellId":"6d2f000000000000","result":6810,"accuracy":0.0108301295,"title":"Chalet","description":"%3Ca+href%3D%22http%3A%2F%2Fwww.cameralenscompare.com%2FphotoAwardsCounterDetails.aspx%3FPhotoId%3D8148751230%26user%3DF4brizio%22+rel%3D%22nofollow%22%3EAwardsCounter%3C%2Fa%3E"}
{"id":2528654536,"url":"http://farm4.staticflickr.com/3035/2528654536_2bfac1f99a.jpg","path":"fdf/13f/fdf13f731afcfa131976f1af3a985524.jpg","date":"2008-05-14","year":2008,"month":5,"lon":12.35404,"lat":42.70506,"tags":"18-200os,canon,sigma,todi+2008,todi+castle,umbria","S2CellId":"808de6c000000000","result":6994,"accuracy":0.019908756,"title":"I+just+loved+the+colors","description":"%3Cs%3EI+don%27t+recall+whose+bag+this+was%2C+but+I+loved+it.%3C%2Fs%3E%0A%0AAnnie%27s+bag+is+so+photogenic%21"}
{"id":6274405836,"url":"http://farm7.staticflickr.com/6110/6274405836_cfdabd0c6e.jpg","path":"db8/472/db84728c0f555ca21da3b527eacfff4.jpg","date":"2011-10-24","year":2011,"month":10,"lon":12.650329,"lat":42.56452,"tags":"instagram+app,iphoneography,square,square+format,x-pro+ii","S2CellId":"4440000000000000","result":2748,"accuracy":0.0060318196,"title":"Buonanotte+%3A%29"}
{"id":8489555229,"url":"http://farm9.staticflickr.com/8369/8489555229_19e2b5abff.jpg","path":"bfe/083/bfe083b7173ed89b79839de3b772aee3.jpg","date":"2013-02-13","year":2013,"month":2,"lon":12.370833,"lat":42.012333,"tags":"cupcake,cupcakes,cupcakes+in+rome,san+valentino,valentines+day","S2CellId":"14caf00000000000","result":1323,"accuracy":0.014512397}
{"id":3081739149,"url":"http://farm4.staticflickr.com/3133/3081739149_4f7bc30e54.jpg","path":"8e4/e2d/8e4e2dafaf8bc12a11e28280dfaa9dcf.jpg","date":"2008-03-09","year":2008,"month":3,"lon":12.248897,"lat":42.493366,"tags":"bomarzo","S2CellId":"4867500000000000","result":4904,"accuracy":0.019721456,"title":"IMG_7342"}
{"id":473379304,"url":"http://farm1.staticflickr.com/200/473379304_9d0c8269c3.jpg","path":"ffd/df9/ffddf9e5d13bb5b1a1d27e4e44b575e.jpg","date":"2007-04-26","year":2007,"month":4,"lon":12.048557,"lat":42.322746,"tags":"naturalmente,thebiggestgroup","S2CellId":"842ac00000000000","result":7427,"accuracy":0.0036835605,"title":"Grass","description":"Vetralla%2C+Italy+%28April%2C+2006%29"}
{"id":8683042739,"url":"http://farm9.staticflickr.com/8385/8683042739_719f887992.jpg","path":"87d/2f8/87d2f86ad148a1d74cbd3b37cb48a2e.jpg","date":"2013-04-25","year":2013,"month":4,"lon":12.602538,"lat":42.21291,"tags":"anas+platyrhynchos,aprile,europe,fiume,germano+reale,italia,italy,lazio,natura,nazzano,nuvoloso,palude,pomeriggio,primavera,riserva+naturale+tevere-farfa,tevere","S2CellId":"88d0a631cabb5071","result":8563,"accuracy":0.036560785,"title":"Germano+reale","description":"Il+germano+reale+%28Anas+platyrhynchos+Linnaeus%2C+1758%29+%C3%A8+un+uccello+della+famiglia+delle+Anatidae%2C+di+gradevole+aspetto+e+noto+in+Italia+anche+come+capoverde.+Viene+considerato+il+capostipite+della+maggior+parte+delle+razze+domestiche+dell%27anatra+%28eccetto+quelle+derivate+dall%27anatra+muta+o+muschiata+e+gli+incroci+zootecnici+con+quest%27ultima%29."}
{"id":5762417244,"url":"http://farm3.staticflickr.com/2605/5762417244_7d1ef23bdf.jpg","path":"30c/5c2/30c5c2cb5c2c6067a04a7eaf98c4bc.jpg","date":"2011-05-17","year":2011,"month":5,"lon":12.750891,"lat":42.461926,"tags":"greccio","S2CellId":"132e900000000000","result":1057,"accuracy":0.0498267,"title":"20110517_Greccio_053","description":"Greccio"}
{"id":5086828414,"url":"http://farm5.staticflickr.com/4150/5086828414_9b6e7e162a.jpg","path":"3db/d73/3dbd7327d2ca3b18aedd5f4b5e482b.jpg","date":"2010-08-25","year":2010,"month":8,"lon":12.250185,"lat":42.491844,"tags":"bomarzo,giampaolosquarcina,nikond200,parcodeimostri","S2CellId":"89c2589300000000","result":8971,"accuracy":0.036522374,"title":"Bomarzo%2C+Parco+dei+Mostri","description":"L%27Orco."}
{"id":4000626688,"url":"http://farm3.staticflickr.com/2521/4000626688_fd85d0ecc5.jpg","path":"e0b/92a/e0b92a3f1b198f8e78bae87d7a41dfcd.jpg","date":"2009-10-05","year":2009,"month":10,"lon":12.419271,"lat":42.986816,"tags":"ceramics,deruta,guitar,italy,umbria","S2CellId":"487604ce50000000","result":5237,"accuracy":0.030631457,"title":"Deruta+Ceramic+Guitar_++015"}
{"id":4814899549,"url":"http://farm5.staticflickr.com/4143/4814899549_e38bedcfcb.jpg","path":"ff9/0b1/ff90b13af38e526e47932d89ce97b32.jpg","date":"2010-06-09","year":2010,"month":6,"lon":12.641272,"lat":42.54453,"tags":"5,calcetto,calcio,multiplayer.it,soccer","S2CellId":"4781700000000000","result":3532,"accuracy":0.06310506}
{"id":461956286,"url":"http://farm1.staticflickr.com/181/461956286_e529385499.jpg","path":"a6e/74c/a6e74c5c09a348f999f80344c1233ce.jpg","date":"2007-04-09","year":2007,"month":4,"lon":12.596629,"lat":42.356506,"tags":"lazio,pasquetta,tarano","S2CellId":"80dd317000000000","result":7376,"accuracy":0.018142058,"title":"09042007738"}
{"id":1396382246,"url":"http://farm2.staticflickr.com/1412/1396382246_a87cff3de4.jpg","path":"486/0f9/4860f9b8522477222146684c4a643.jpg","date":"2007-09-14","year":2007,"month":9,"lon":12.745578,"lat":42.878372,"tags":"attraversamenti,loveleft,ministero+della+grafica,storie+di+grafica,trevi,umbria","S2CellId":"89b7b78500000000","result":8853,"accuracy":0.0063813375,"title":"Storie+di+Grafica+exhibition"}
{"id":4420088056,"url":"http://farm5.staticflickr.com/4071/4420088056_ee8d91e908.jpg","path":"adf/b6c/adfb6c2bcf6c371a9f56428d41fb531.jpg","date":"2010-03-09","year":2010,"month":3,"lon":12.293615,"lat":42.8795,"tags":"snow,snow+march+9+2010","S2CellId":"864e7c0000000000","result":7626,"accuracy":0.019059177,"title":"Snow+March+9+2010+002"}
{"id":4488790445,"url":"http://farm3.staticflickr.com/2776/4488790445_e915b5e195.jpg","path":"c4a/8b4/c4a8b4623f7ceffe31c4c75ef386d.jpg","date":"2010-04-02","year":2010,"month":4,"lon":12.672257,"lat":42.99479,"tags":"adalberto+tiburzi","S2CellId":"8085814000000000","result":6961,"accuracy":0.005752958,"title":"wired+Christ"}
{"id":2642663098,"url":"http://farm4.staticflickr.com/3126/2642663098_258595246f.jpg","path":"718/8c6/7188c662ac9ccf1f2e57a6b982ad8772.jpg","date":"2008-05-24","year":2008,"month":5,"lon":12.415752,"lat":42.555355,"tags":"macro","S2CellId":"465a400000000000","result":2886,"accuracy":0.013335615,"title":"MacroVespa","description":"Primo+approccio+di+macro+animalistica+%28termine+coniato+da+me+medesimo%29"}
{"id":5415523099,"url":"http://farm5.staticflickr.com/4101/5415523099_6bc1949d30.jpg","path":"a4f/54e/a4f54ee6432c5c339a93bf86639e8997.jpg","date":"2010-05-01","year":2010,"month":5,"lon":12.715988,"lat":42.223686,"tags":"arte+contemporanea,emanuele+sbardella,provincia+rieti,sabina","S2CellId":"94ce59f000000000","result":9723,"accuracy":0.0045410614,"description":"Radice+di+3+%0A%0AVuoti+di+memoria%0A%0AFara+Sabina+%28RI%29"}
{"id":5754279277,"url":"http://farm3.staticflickr.com/2363/5754279277_1981c3532f.jpg","path":"e3b/dd7/e3bdd7ee69dc3065b7e2a899309ebba1.jpg","date":"2011-05-14","year":2011,"month":5,"lon":12.374666,"lat":42.014668,"tags":"may+14th+2011","S2CellId":"4871500000000000","result":5036,"accuracy":0.010989994}
{"id":2552868115,"url":"http://farm4.staticflickr.com/3024/2552868115_299969a9a2.jpg","path":"59c/dff/59cdff9ff98b968fc248aee6a833df.jpg","date":"2008-05-11","year":2008,"month":5,"lon":12.870247,"lat":42.05589,"tags":"bike,giro+del+follettoso,montagna,monte,mountain,mountainbike,mtb,ruotegrasse","S2CellId":"0d36d00000000000","result":317,"accuracy":0.26591378,"title":"Giro+del+Follettoso","description":"%3Ca+href%3D%22http%3A%2F%2Fruotegrasse.yepa.com%2Fblog%2F%22%3Eruotegrasse.yepa.com%2Fblog%2F%3C%2Fa%3E%0AFoto+fornita+su+gentile+concessione+di+Carlo+%3A%29"}
{"id":2845604622,"url":"http://farm4.staticflickr.com/3222/2845604622_074b068964.jpg","path":"2f1/68c/2f168ceab6f3abedd1082fe41551895.jpg","date":"2008-09-08","year":2008,"month":9,"lon":12.362279,"lat":42.13144,"tags":"eliana,moto,motociclismo,motocilismo,motociliste,pezzili,vallelunga","S2CellId":"48771c4000000000","result":5410,"accuracy":0.22823627}
{"id":3038538297,"url":"http://farm4.staticflickr.com/3192/3038538297_76c6acb508.jpg","path":"4ed/545/4ed545e36aa91cada8cdf0ec7d624bad.jpg","date":"2005-08-14","year":2005,"month":8,"lon":12.718884,"lat":42.54851,"tags":"marmore,umbria,vacanze","S2CellId":"7953b00000000000","result":6865,"accuracy":0.33378223,"title":"Marmore+falls"}
{"id":2547107246,"url":"http://farm3.staticflickr.com/2144/2547107246_2f5dd4296e.jpg","path":"fbe/288/fbe288cdc83a2699792328e42e69ee24.jpg","date":"2008-06-01","year":2008,"month":6,"lon":12.176713,"lat":42.225975,"tags":"roma+3,roma+3%C2%B0,scout","S2CellId":"43f0000000000000","result":2747,"accuracy":0.08789073,"title":"Giornata+Genitori+2008+-+0091","description":"...magari+un+po%27+pi%C3%B9+basso%21"}
{"id":3108043653,"url":"http://farm4.staticflickr.com/3168/3108043653_98b69c8cea.jpg","path":"2f7/d82/2f7d825b33f51ad9646b20b478f0c.jpg","date":"2008-12-10","year":2008,"month":12,"lon":12.348632,"lat":42.008488,"tags":"2008,italy,italy2008,rome,travel","S2CellId":"89b7b7ec00000000","result":8879,"accuracy":0.028236445,"title":"22_+%28193%29"}
{"id":2743443309,"url":"http://farm4.staticflickr.com/3188/2743443309_72c93423ca.jpg","path":"d66/cef/d66cef52ede645ba53e9f8d136144c57.jpg","date":"2008-07-17","year":2008,"month":7,"lon":12.037582,"lat":42.593517,"tags":"il+regalo,italia,italy,lazio,lizard,lucertola,montefiascone,reptile,viterbo","S2CellId":"2bfc000000000000","result":1527,"accuracy":0.053644963,"title":"Lucertola","description":"%3Ca+href%3D%22http%3A%2F%2Floc.alize.us%2F%23%2Fflickr%3A2743443309%22%3ESee+where+this+picture+was+taken.%3C%2Fa%3E+%3Ca+href%3D%22http%3A%2F%2Fwww.flickr.com%2Fgroups%2Fgeotagging%2Fdiscuss%2F72157594165549916%2F%22%3E%5B%3F%5D%3C%2Fa%3E"}
{"id":2443904695,"url":"http://farm3.staticflickr.com/2181/2443904695_ab7759a2b7.jpg","path":"ad4/f9b/ad4f9bbb4b31411c1f9785460dcd191.jpg","date":"2008-04-26","year":2008,"month":4,"lon":12.233276,"lat":42.08271,"tags":"kite+surf,sport,surf,vigna+di+valle","S2CellId":"537dc00000000000","result":6064,"accuracy":0.3813699,"title":"IMG_3095"}
{"id":2816618213,"url":"http://farm4.staticflickr.com/3232/2816618213_29e2a79594.jpg","path":"9b8/634/9b86348a26939db62e6be0d8c95826ed.jpg","date":"2008-08-31","year":2008,"month":8,"lon":12.152423,"lat":42.30514,"tags":"anzisi,carlino,gaetano,gaetano+anzisi","S2CellId":"86d5000000000000","result":7692,"accuracy":0.0030823012,"title":"Mondo+Cane","description":"Ginevra"}
{"id":6200805124,"url":"http://farm7.staticflickr.com/6162/6200805124_2c916dc79d.jpg","path":"521/01a/52101a73593fab1f38f47d89a5690.jpg","date":"2011-09-04","year":2011,"month":9,"lon":12.769203,"lat":42.822792,"tags":"clitunno,italia,italy,umbria,water","S2CellId":"47e6d00000000000","result":4688,"accuracy":0.21316306,"title":"100G+Fonti+del+Clitunno"}
{"id":7890078162,"url":"http://farm9.staticflickr.com/8297/7890078162_9ebb7ea803.jpg","path":"f7c/ad3/f7cad3889698a0cb1a1683f6d8632a4b.jpg","date":"2012-08-26","year":2012,"month":8,"lon":12.766349,"lat":42.409492,"tags":"albero,contigliano,hdr,long+exposure,lunga+esposizione,night,notte,rieti,tree","S2CellId":"8717000000000000","result":7728,"accuracy":0.025760464,"title":"The+same+tree","description":"%5B...%5D+All+religions%2C+arts+and+sciences+are+branches+of+the+same+tree.+All+these+aspirations+are+directed+toward+ennobling+man%27s+life%2C+lifting+it+from+the+sphere+of+mere+physical+existence+and+leading+the+individual+towards+freedom+%5B...%5D%0A--+Quote+by+Albert+Einstein+%28German+born+American+Physicist+who+developed+the+special+and+general+theories+of+relativity.+Nobel+Prize+for+Physics+in+1921.+1879-1955%29%0A%0ANikon+D200%2C+Tokina+12-24+f%2F4%2C+12mm+-+f%2F4+-+30s+-+HDR+4xp+-2%2F%2B1EV%0A%0AContigliano%2C+Italy+%28August%2C+2012%29"}
{"id":9670305735,"url":"http://farm4.staticflickr.com/3749/9670305735_fa20eb3b64.jpg","path":"6a5/35d/6a535d79527b479511335303995de3.jpg","date":"2013-08-24","year":2013,"month":8,"lon":12.218459,"lat":42.085007,"tags":"aerei,aereo,aircraft,airplanes,ami,aviazione+militare,bracciano,italian+air+force,italian+air+force+museum,lago+di+bracciano,militare,military,museo+storico+aeronautica+militare,vigna+di+valle,vintage,ww1,ww2","S2CellId":"470bf00000000000","result":3178,"accuracy":0.1233359,"title":"Macchi-Castoldi+M.C.72+-+Need+for+Speed+2"}
{"id":4014007448,"url":"http://farm3.staticflickr.com/2504/4014007448_baab1ac313.jpg","path":"fc3/a23/fc3a23364ac4a3c7c375c5794ae911da.jpg","date":"2009-10-11","year":2009,"month":10,"lon":12.748346,"lat":42.87873,"tags":"italy,umbria","S2CellId":"132a3c0000000000","result":1013,"accuracy":0.21352027,"title":"Trevi+views_042"}
{"id":5036874111,"url":"http://farm5.staticflickr.com/4112/5036874111_b3d35ed23c.jpg","path":"6a0/8c9/6a08c920cc989ef4884a52f8a5a43.jpg","date":"2010-09-11","year":2010,"month":9,"lon":12.151565,"lat":42.92488,"tags":"pergoletto","S2CellId":"46524c0000000000","result":2849,"accuracy":0.021370903,"title":"IMG_4208"}
{"id":8682522145,"url":"http://farm9.staticflickr.com/8126/8682522145_d1273e154f.jpg","path":"f82/ea4/f82ea4607129ef8c2b048a7cf8ec4d1.jpg","date":"2013-04-25","year":2013,"month":4,"lon":12.618586,"lat":42.216106,"tags":"aprile,europe,fiume,italia,italy,lazio,natura,nazzano,nuvoloso,palude,pomeriggio,primavera,riserva+naturale+tevere-farfa,terra,tevere","S2CellId":"16c0000000000000","result":1414,"accuracy":0.006514084,"title":"Terra+spaccata"}
{"id":6220518770,"url":"http://farm7.staticflickr.com/6045/6220518770_10e3832ec4.jpg","path":"842/314/842314c6a34ca2ff9d49e11da08a8.jpg","date":"2011-09-05","year":2011,"month":9,"lon":12.406525,"lat":42.78044,"tags":"italia,italy,todi,umbria","S2CellId":"132f605500000000","result":1084,"accuracy":0.045548547,"title":"315+Todi"}
{"id":4863244762,"url":"http://farm5.staticflickr.com/4114/4863244762_971e1c0cda.jpg","path":"e1d/585/e1d585e4ba25ee26552cd208064d067.jpg","date":"2010-07-20","year":2010,"month":7,"lon":12.648441,"lat":42.56508,"tags":"bazzucchini,fucito,greco,magliette,modelli,multiplayer.it,redazione,tanzen","S2CellId":"47d8a81000000000","result":4442,"accuracy":0.020438366}
{"id":2996906112,"url":"http://farm4.staticflickr.com/3022/2996906112_1d258e695f.jpg","path":"65a/d55/65ad55adc5c5c31ac8fb7f6c814b9e2b.jpg","date":"2008-11-02","year":2008,"month":11,"lon":12.577586,"lat":42.212288,"tags":"raccolta+olive+2008","S2CellId":"4787c00000000000","result":3614,"accuracy":0.06217011,"title":"Olive08_b_0003"}
{"id":11895819806,"url":"http://farm3.staticflickr.com/2836/11895819806_7d9ddf95fd.jpg","path":"a94/d76/a94d765fb5833d26b51b65b5edbf7d45.jpg","date":"2014-01-11","year":2014,"month":1,"lon":12.114143,"lat":42.62853,"tags":"citta+che+muore,civita+di+bagnoregio,hdr,landscape,post+production,travel,turist","S2CellId":"864e640000000000","result":7620,"accuracy":0.0067911386,"title":"CBR_136","description":"Civita+di+Bagnoregio%2C+VT+%2FItaly%29"}
{"id":8489552949,"url":"http://farm9.staticflickr.com/8505/8489552949_457eff1f08.jpg","path":"edc/572/edc572f2558beb9137de715d5791b92.jpg","date":"2013-02-13","year":2013,"month":2,"lon":12.370666,"lat":42.0125,"tags":"cupcake,cupcakes,cupcakes+in+rome,san+valentino,valentines+day","S2CellId":"47a2c00000000000","result":3876,"accuracy":0.035177853}
{"id":429495580,"url":"http://farm1.staticflickr.com/145/429495580_c10deda82f.jpg","path":"b33/349/b3334976153363dbf43b7e51f9635bb.jpg","date":"2007-03-21","year":2007,"month":3,"lon":12.763366,"lat":42.83242,"tags":"bucher+global,castel+ritaldi,clituno,italia,italie,italien,italy,spoletino,spoleto,tempio+%2Bfonti+del+clituno,umbria,umbria-perugia%2Fpg%2Fspoletino,umbrien","S2CellId":"1329700000000000","result":1007,"accuracy":0.17768699,"title":"CLITUNO+6848+%28Kopie%29.JPG"}
{"id":4096544342,"url":"http://farm3.staticflickr.com/2786/4096544342_4efe3620d4.jpg","path":"8f2/83e/8f283ee989f918d6cc139d16892758a.jpg","date":"2009-07-23","year":2009,"month":7,"lon":12.74414,"lat":42.09822,"tags":"urban+.+rome+.paris.+ireland.+uk.+germany,wildlife.architecture.landscape.people.travel.","S2CellId":"89c2444000000000","result":8937,"accuracy":0.012039202,"title":"next+stop+rome","description":"rome."}
{"id":8012043054,"url":"http://farm9.staticflickr.com/8438/8012043054_8db3b194e8.jpg","path":"dcf/0d8/dcf0d8473aa09dd0d029c7a9887a2c3f.jpg","date":"2012-09-01","year":2012,"month":9,"lon":12.749826,"lat":42.24987,"tags":"italy,mompeo,photography","S2CellId":"5494c00000000000","result":6235,"accuracy":0.03211156}
{"id":2584797405,"url":"http://farm4.staticflickr.com/3091/2584797405_b07774986a.jpg","path":"19a/f16/19af1696c50c0a90c3d2f7bc24fc7.jpg","date":"2006-02-26","year":2006,"month":2,"lon":12.370605,"lat":42.000324,"tags":"350d,canon,eos,lumarla","S2CellId":"132f606500000000","result":1089,"accuracy":0.48926026,"title":"Museo+vaticano","description":"Techo+de+una+de+las+salas+de+los+museos+vaticanos"}
{"id":5473850772,"url":"http://farm6.staticflickr.com/5133/5473850772_e88e2c343e.jpg","path":"1ac/671/1ac671fcbe7594643e8aaa6fb873dc1a.jpg","date":"2011-02-24","year":2011,"month":2,"lon":12.316545,"lat":42.75681,"tags":"instagram+app,iphoneography,nashville,square,square+format","S2CellId":"4780c00000000000","result":3528,"accuracy":0.005519099,"title":"In+between+%28365+year+2+%2F+Feb+24th%29"}
{"id":4607081196,"url":"http://farm2.staticflickr.com/1362/4607081196_eaa77c806e.jpg","path":"27d/6ff/27d6ff1c480e51336e7941393417a1.jpg","date":"2010-05-09","year":2010,"month":5,"lon":12.513427,"lat":42.521603,"tags":"2010,all%27anello,corsa,narni","S2CellId":"488fc00000000000","result":5777,"accuracy":0.05470091,"title":"_MG_0216"}
{"id":4921458816,"url":"http://farm5.staticflickr.com/4099/4921458816_0df4f1e1b7.jpg","path":"44d/185/44d185d3daf32f82712e0f15c25e37.jpg","date":"2010-07-08","year":2010,"month":7,"lon":12.17763,"lat":42.10481,"tags":"2010,bracciano,canoneos7d,deu,deutschland,italien,wolfenbuettel","S2CellId":"135b400000000000","result":1184,"accuracy":0.02256114,"title":"2010-07-08T17_22_25.JPG","description":"Bracciano+-+Italien%2FItaly%2FItalia%0ACastello+Odescalchi+di+Bracciano"}
{"id":279776309,"url":"http://farm1.staticflickr.com/100/279776309_b56023be81.jpg","path":"894/192/894192c2f318e514ba7458fea2fa5264.jpg","date":"2006-09-06","year":2006,"month":9,"lon":12.747573,"lat":42.883007,"tags":"2006,italia,italie,italien,italy,religione,trevi,umbria","S2CellId":"133bbc0000000000","result":1153,"accuracy":0.35398614,"title":"Trevi","description":"Trevi%2C+settembre+2006"}
{"id":2183936410,"url":"http://farm3.staticflickr.com/2097/2183936410_eb9a23a095.jpg","path":"f0a/1fe/f0a1fe8f6b956934be6d3eea732834f.jpg","date":"2005-08-25","year":2005,"month":8,"lon":12.951314,"lat":42.208893,"tags":"castel+di+tora,italy,lago+turano,lazio","S2CellId":"132fc00000000000","result":1118,"accuracy":0.04891532,"title":"Castel+di+Tora"}
{"id":1486551220,"url":"http://farm2.staticflickr.com/1187/1486551220_53337cc6c0.jpg","path":"f13/33f/f1333f6af16a8e08e4e6fab39117db.jpg","date":"2007-09-29","year":2007,"month":9,"lon":12.370004,"lat":42.15698,"tags":"superbike,vallelunga","S2CellId":"88d0a631cabb5071","result":8563,"accuracy":0.030074792,"title":"dscf3812"}
{"id":4386626519,"url":"http://farm5.staticflickr.com/4069/4386626519_69885603e9.jpg","path":"8c5/058/8c5058238a1d495e879b7eb1b49e674a.jpg","date":"2010-02-25","year":2010,"month":2,"lon":12.293615,"lat":42.8795,"tags":"italy+san+venanzo+works,san+venanzo,umbria","S2CellId":"40d4ce4000000000","result":2701,"accuracy":0.021327054,"title":"Main+street+San+Venanzo"}
{"id":12158171583,"url":"http://farm6.staticflickr.com/5517/12158171583_2a4b412512.jpg","path":"15e/02c/15e02c94f6f7eeff7f5071fc87bfaa9.jpg","date":"2014-01-26","year":2014,"month":1,"lon":12.593572,"lat":42.566196,"tags":"hefe,instagram+app,iphoneography,square,square+format","S2CellId":"4794900000000000","result":3732,"accuracy":0.011515115,"title":"Campioni+d%27Italia+89%2F90+%238bit"}
{"id":5836110725,"url":"http://farm4.staticflickr.com/3600/5836110725_e0eae11349.jpg","path":"433/313/433313b5d542725dd8d7b0859cd9cb.jpg","date":"2011-06-14","year":2011,"month":6,"lon":12.413295,"lat":42.04204,"tags":"gabri","S2CellId":"6018d00000000000","result":6526,"accuracy":0.018937215,"title":"selvotta11"}
{"id":7534791508,"url":"http://farm9.staticflickr.com/8006/7534791508_aa210f7eac.jpg","path":"b77/585/b77585a2eac58a1ae38477693955cf0.jpg","date":"2012-06-12","year":2012,"month":6,"lon":12.7518,"lat":42.737,"tags":"35mm,colour,cross-processed,holidays,lomo+x-pro,olympus+trip35,slide","S2CellId":"85cd000000000000","result":7450,"accuracy":0.0027821842,"title":"Lomo+X-Pro+CR100+Trip35+Spoleto+Sat+04960013","description":"Olympus+Trip35%2C+Lomography+X-Pro+CR100+film%2C+cross-processed.+Somewhere+in+Umbria%2C+Italy."}
{"id":3268524483,"url":"http://farm4.staticflickr.com/3486/3268524483_8a55003858.jpg","path":"847/777/84777762c6ac7376a04da7acbdd7d536.jpg","date":"2009-02-08","year":2009,"month":2,"lon":12.102427,"lat":42.0053,"tags":"ancient,archaeology,civilization,etruscans,italy,tourism","S2CellId":"1325f40000000000","result":999,"accuracy":0.06896786,"title":"Etruscan+tomb"}
{"id":4823943743,"url":"http://farm5.staticflickr.com/4134/4823943743_5010abd7f9.jpg","path":"90a/68f/90a68f4af8deb7c3e938c52f5811d28.jpg","date":"2010-07-04","year":2010,"month":7,"lon":12.26773,"lat":42.092964,"tags":"2010,anguillara,canoneos7d,deu,deutschland,italien,lagodibracciano,wolfenbuettel","S2CellId":"1329300000000000","result":1005,"accuracy":0.07546114,"title":"2010-07-04T06_10_27.JPG","description":"Anguillara"}
{"id":5104116727,"url":"http://farm2.staticflickr.com/1321/5104116727_81ff8b6ed2.jpg","path":"cb5/16d/cb516d5334b8129699b219d27ea298b.jpg","date":"2010-10-20","year":2010,"month":10,"lon":12.218086,"lat":42.08513,"tags":"aeronautica,aviacion,braccio,italia,militar,museo,viaje,vigna+di+valle","S2CellId":"4876114000000000","result":5296,"accuracy":0.25325054,"title":"p1060855","description":"Fiat+CR.42+Falco%2C+MM5643+%2F+162-6%2C+Regia+Aeron%C3%A1utica+Italiana.+Museo+de+Vigna+di+Valle%2C+20%2F10%2F2010"}
{"id":6519878121,"url":"http://farm8.staticflickr.com/7164/6519878121_4bec046fff.jpg","path":"a0e/7e4/a0e7e45e924d538e85b774d634156aea.jpg","date":"2011-12-15","year":2011,"month":12,"lon":12.592391,"lat":42.170216,"tags":"fiano+romano","S2CellId":"132a530000000000","result":1017,"accuracy":0.036424927,"title":"15.12.2011","description":"Via+Tiberina+sotto+il+cavalcavia+di+via+Togliatti"}
{"id":8526276180,"url":"http://farm9.staticflickr.com/8519/8526276180_2cc43625cc.jpg","path":"943/4d5/9434d588619326037f9b97c52179dab.jpg","date":"2013-03-03","year":2013,"month":3,"lon":12.101811,"lat":42.416588,"tags":"elections,elezioni,italia,italy,lazio,manifesti,poster,viterbo","S2CellId":"94bd000000000000","result":9682,"accuracy":0.011471163,"title":"Manifesti+elettorali"}
{"id":2570328132,"url":"http://farm4.staticflickr.com/3277/2570328132_5f2c808162.jpg","path":"ec4/696/ec4696ad7a43d6f2bf9637483d747b.jpg","date":"2008-06-08","year":2008,"month":6,"lon":12.738153,"lat":42.735825,"tags":"anawesomeshot,escaleras,granchius,hccity,hdr,italy,narrow+street,perugia,spoleto,umbria","S2CellId":"1333000000000000","result":1123,"accuracy":0.048506085,"title":"Spoleto+-+narrow+street"}
{"id":5107545236,"url":"http://farm2.staticflickr.com/1356/5107545236_0c1611c500.jpg","path":"cef/885/cef8852fc538d869adc1864b91891d1.jpg","date":"2010-08-21","year":2010,"month":8,"lon":12.105678,"lat":42.41375,"tags":"archi,bianconero,chiesa,fisheye,italia,lazio,nikon,pellicola,piazza,viterbo","S2CellId":"0d2ef00000000000","result":293,"accuracy":0.058176007,"title":"Viterbo","description":"Viterbo+-+21+agosto+2010"}
{"id":5338585761,"url":"http://farm6.staticflickr.com/5290/5338585761_02ebde1658.jpg","path":"e6c/00a/e6c00a7f97891771a3fa1b97219bd6.jpg","date":"2010-12-31","year":2010,"month":12,"lon":12.83878,"lat":42.009937,"tags":"bruner,emiliano,fine+anno,fred,isa,mirko,onyx,san+polo+dei+cavalieri","S2CellId":"4782100000000000","result":3540,"accuracy":0.107217476,"title":"31_12_2010+San+Polo+dei+Cavalieri+-+19","description":"Visioni+di+San+Polo+dei+Cavalieri"}
{"id":4812705483,"url":"http://farm5.staticflickr.com/4098/4812705483_407eaee58d.jpg","path":"d6f/aee/d6faee7bfba65a99b47752f3d2021d8.jpg","date":"2010-07-09","year":2010,"month":7,"lon":12.0029,"lat":42.95496,"tags":"2010,campagna,campi,cielo,citt%C3%A0+della+pieve,citta%27+della+pieve,collage,colline,esterno,giorno,italy,monti,noknownpeople,nopeople,panorama,paolo_cst,pixmakerpro,trasferta,trasfertapietrafittapt2010,umbria,vitalavorativa","S2CellId":"8084500000000000","result":6907,"accuracy":0.018178707,"title":"4+Panorama+umbro"}
{"id":4966798957,"url":"http://farm5.staticflickr.com/4105/4966798957_92995a6eb0.jpg","path":"43e/44a/43e44a9871881c76ee398fd3888b523c.jpg","date":"2010-07-12","year":2010,"month":7,"lon":12.267688,"lat":42.09145,"tags":"2010,anguillara,canoneos7d,deu,deutschland,italien,wolfenbuettel","S2CellId":"2bfc000000000000","result":1527,"accuracy":0.027429657,"title":"2010-07-12T21_45_32a.png","description":"Anguillara+-+Italien%2FItaly%2FItalia%0AEintagsfliege+-+Ephemeroptera"}
{"id":2795762744,"url":"http://farm4.staticflickr.com/3201/2795762744_bf0c7f8451.jpg","path":"922/7bf/9227bf4958e14b977e3f523aecb71869.jpg","date":"2008-07-29","year":2008,"month":7,"lon":12.304687,"lat":42.051468,"tags":"2008,europe,european+vacation,green,italy,rome,summer,summer2008,turtles,vacation,water","S2CellId":"009bd5c000000000","result":41,"accuracy":0.054568235,"title":"more+turtles%21"}
{"id":2391084222,"url":"http://farm3.staticflickr.com/2159/2391084222_bf49aa2c1e.jpg","path":"9f1/bc9/9f1bc97ebcae9bafc445f9893ced0f5.jpg","date":"2008-03-30","year":2008,"month":3,"lon":12.795258,"lat":42.067047,"tags":"monte+gennaro+torretta+domenico+samanta+claudia+carlo","S2CellId":"134f000000000000","result":1176,"accuracy":0.040540036,"title":"Torretta_0094","description":"Monte+Gennaro+-+Gita+alla+Torretta"}
{"id":2898909717,"url":"http://farm4.staticflickr.com/3110/2898909717_251e11998c.jpg","path":"c38/ef8/c38ef86210a911c54a4bd68cf44be.jpg","date":"2008-09-11","year":2008,"month":9,"lon":12.602605,"lat":42.220955,"tags":"fabio+pierboni,fabiofotografie,fauna,natura,nazzano,nazzano+tevere+farfa,riserva,tevere,tevere+farfa","S2CellId":"4879440000000000","result":5477,"accuracy":0.01317529,"title":"la+ghiandaia","description":"Nazzano+Tevere-Farfa%2C+Estate+2008%2C+Nikon+D80"}
{"id":2018227611,"url":"http://farm3.staticflickr.com/2283/2018227611_b68ed2c0e2.jpg","path":"152/5b5/1525b522438f4c1ad7c07172492c41.jpg","date":"2007-11-14","year":2007,"month":11,"lon":12.689497,"lat":42.361374,"tags":"italy,montasolo,olive+harvest","S2CellId":"8815400000000000","result":8188,"accuracy":0.01404059,"title":"European+Tour+2537"}
{"id":2248706749,"url":"http://farm3.staticflickr.com/2043/2248706749_b8bac3457a.jpg","path":"687/6b7/6876b793e5abd2e020f63ee74e5c14.jpg","date":"2008-02-02","year":2008,"month":2,"lon":12.101392,"lat":42.415543,"tags":"piazza+san+lorenzo,viterbo","S2CellId":"132e900000000000","result":1057,"accuracy":0.03839584,"title":"Viterbo+-+Una+sera+in+Piazza+San+Lorenzo"}
{"id":428636544,"url":"http://farm1.staticflickr.com/165/428636544_9f919b1e64.jpg","path":"1a1/d89/1a1d8955b1be24bbbd2bed2af1a2e.jpg","date":"2007-03-21","year":2007,"month":3,"lon":12.642517,"lat":42.892063,"tags":"bucher+global,folignate,italia,italie,italien,italy,montefalco,piazza%2Fpalazzo+del+comune,the+balcony+of+umbria,umbria,umbria%2Fperugia%2Fpg%2Ffolignate,umbrien","S2CellId":"0d6a1c0000000000","result":557,"accuracy":0.54327214,"title":"MONTEFALCO+6208+%28Kopie%29.JPG","description":"-"}
{"id":2949663998,"url":"http://farm4.staticflickr.com/3215/2949663998_c99d4f21a1.jpg","path":"294/81b/29481b9a92f7c6b6b9089c44c5304c.jpg","date":"2008-10-11","year":2008,"month":10,"lon":12.233362,"lat":42.622337,"tags":"2008,burning,burningman,italian,italy,man,weekend","S2CellId":"133b085000000000","result":1137,"accuracy":0.01474581,"title":"_MG_0096"}
{"id":469500182,"url":"http://farm1.staticflickr.com/213/469500182_270fbdabcd.jpg","path":"44f/1c7/44f1c747a48c6e19ff1c9288e83bd6.jpg","date":"2007-04-22","year":2007,"month":4,"lon":12.670326,"lat":42.989704,"tags":"italy,spello,umbria","S2CellId":"1329c00000000000","result":1008,"accuracy":0.13206117,"title":"spello"}
{"id":4297934039,"url":"http://farm3.staticflickr.com/2594/4297934039_532888d6e6.jpg","path":"a59/77a/a5977af3b4bf0c8df862d291cc1ff.jpg","date":"2010-01-23","year":2010,"month":1,"lon":12.265945,"lat":42.091225,"tags":"anguillara,laghi,lago,lago+di+bracciano,lucette,notte,sera","S2CellId":"12cdf00000000000","result":889,"accuracy":0.16147192,"title":"lago+di+Bracciano+di+sera","description":"no%2C+non+sono+carboni+ardenti"}
{"id":3754520363,"url":"http://farm4.staticflickr.com/3532/3754520363_2384234bfe.jpg","path":"e36/bd8/e36bd8495dfef4b218d79b1b96b3f26.jpg","date":"2009-07-01","year":2009,"month":7,"lon":12.102121,"lat":42.00686,"tags":"cerveteri,etruscans,tombs","S2CellId":"133bbc0000000000","result":1153,"accuracy":0.055262547,"title":"Cerveteri+%3A+Tomb+of+the+Reliefs","description":"Cerveteri%2C+Banditaccia+necropolis%2C+Hypogeum+of+the+Reliefs+-"}
{"id":373169452,"url":"http://farm1.staticflickr.com/164/373169452_f9630041fe.jpg","path":"1c2/869/1c28692b7bf4a6afaaada66ff1a670.jpg","date":"2007-01-29","year":2007,"month":1,"lon":12.244606,"lat":42.152332,"tags":"trevignano+romano","S2CellId":"4786100000000000","result":3572,"accuracy":0.20233987,"title":"dall%27acqua","description":"Trevignano+visto+dall%27acqua...il+modo+migliore+di+vederlo%0ATrevignano%27s+view+from+the+water%2C+probably+the++best+view"}
{"id":3931649204,"url":"http://farm3.staticflickr.com/2473/3931649204_40c63b1850.jpg","path":"f91/b43/f91b4388b624fcd32eb9249e68c6fc.jpg","date":"2009-08-09","year":2009,"month":8,"lon":12.110366,"lat":42.719273,"tags":"angels,cathedral,frescoes,orvieto,painting,paradise,umbria","S2CellId":"47e67db000000000","result":4682,"accuracy":0.1707029,"title":"Orvieto+Duomo%2C+chapel+of+San+Brizio.+Paradise","description":"Decoration+of+this+chapel+was+begun+by+Fra+Angelico+in+1447%2C+but+the+main+panels+were+painted+by+Luca+Signorelli+between+1499+and+1504."}
{"id":4981737805,"url":"http://farm5.staticflickr.com/4112/4981737805_1eb60a59a4.jpg","path":"8f3/c06/8f3c063dccb4a3ddda3f92531cf10d0.jpg","date":"2010-09-11","year":2010,"month":9,"lon":12.713155,"lat":42.548386,"tags":"35mm,analog,lomo,plustek,rullino,scanner,supersampler","S2CellId":"1dcdc00000000000","result":1459,"accuracy":0.02255137}
{"id":2253144286,"url":"http://farm3.staticflickr.com/2026/2253144286_d00612d2fb.jpg","path":"8ef/a21/8efa21ba6ca964c3e284a34bf9b6b63.jpg","date":"2008-01-24","year":2008,"month":1,"lon":12.998714,"lat":42.059746,"tags":"di,edicole,riofreddo,sacre","S2CellId":"80c2bcc000000000","result":7169,"accuracy":0.010300297,"title":"IMG_1387"}
{"id":768467177,"url":"http://farm2.staticflickr.com/1433/768467177_70c96f6deb.jpg","path":"46f/acf/46facf96a8fa243f52ad1940176e454b.jpg","date":"2007-07-10","year":2007,"month":7,"lon":12.35375,"lat":42.55395,"tags":"art,di,facolt%C3%A0,facolt%C3%A0+di+tessere,porchiano+del+monte,tessere+tessitura+telaio+handweaving+fiber","S2CellId":"80dd317000000000","result":7376,"accuracy":0.010205962,"title":"P1010061.JPG"}
{"id":3999272664,"url":"http://farm3.staticflickr.com/2546/3999272664_6bdf36ac55.jpg","path":"184/618/18461870213872ede752e6581cc1a8b.jpg","date":"2009-10-04","year":2009,"month":10,"lon":12.236902,"lat":42.32884,"tags":"caprarola,italy,lazio,palazzo+farnese,s710","S2CellId":"0d3f400000000000","result":332,"accuracy":0.18422633,"title":"Palazzo+Farnese","description":"Caprarola%0A---%0A%3Ca+href%3D%22http%3A%2F%2Fwww.flickr.com%2Fphotos%2Fmauro_orlando%2F3332001127%22+target%3D%22_blank%22%3E%3Cb%3EMy+photo+index%3C%2Fb%3E%3C%2Fa%3E"}
{"id":2152295694,"url":"http://farm3.staticflickr.com/2076/2152295694_db28af3167.jpg","path":"a8e/75f/a8e75fc14899128557e02265266d5c1.jpg","date":"2007-12-31","year":2007,"month":12,"lon":12.651051,"lat":42.56993,"tags":"acciaierie,archeologia,archeologia+industriale,industria,pressa,terni,umbria","S2CellId":"808586d000000000","result":6968,"accuracy":0.020989094,"title":"Pressa+da+12000+tonnellate%2C+Terni","description":"Pressa+da+12.000+tonnellate%2C+posta+davanti+alla+stazione+di+Terni.+Donata+dalle+vecchie+acciaierie%2C+%C3%A8+esempio+di+archeologia+industriale."}
{"id":9164364475,"url":"http://farm6.staticflickr.com/5465/9164364475_447989253f.jpg","path":"fe9/a24/fe9a248e7b40067c72060ff4706361.jpg","date":"2013-06-28","year":2013,"month":6,"lon":12.735166,"lat":42.733665,"tags":"spoleto","S2CellId":"478c7c0000000000","result":3668,"accuracy":0.004058732,"title":"Spoleto"}
{"id":1151618190,"url":"http://farm2.staticflickr.com/1076/1151618190_93ae77ab0a.jpg","path":"ffd/96c/ffd96c4f67f1ba128c6c8ac1baed95.jpg","date":"2007-08-11","year":2007,"month":8,"lon":12.375766,"lat":42.176167,"tags":"exposure,first-theearth,fiume,green,icomei,long,long+exposure,muschio,natura,nature,naturesfinest,river,verde","S2CellId":"5495f00000000000","result":6276,"accuracy":0.055639114,"title":"MonteGelato+%284%29","description":"icomei%40Yahoo.it"}
{"id":220499976,"url":"http://farm1.staticflickr.com/69/220499976_dd0a4c4eb2.jpg","path":"9bf/b5e/9bfb5e2f876454892bbd5aa5ea71b3f.jpg","date":"2006-08-15","year":2006,"month":8,"lon":12.237396,"lat":42.164677,"tags":"2006,august,bracchiano,family,italy,rome,tevignano,travel,vacation","S2CellId":"47c4500000000000","result":4265,"accuracy":0.050207235,"title":"More+Yoga"}
{"id":2716213465,"url":"http://farm4.staticflickr.com/3280/2716213465_733611ac2d.jpg","path":"5ac/487/5ac487986c9aa4bbf3a2229fe1d576.jpg","date":"2008-07-19","year":2008,"month":7,"lon":12.123735,"lat":42.481182,"tags":"650bc,acqua+rossa,ancient,archaology,archeaology,etruscan,ruins,stone,temple","S2CellId":"877c000000000000","result":7905,"accuracy":0.0093178395,"title":"Zona+Archeologica+dell%27Acqua+Rossa","description":"%3Ca+href%3D%22http%3A%2F%2Floc.alize.us%2F%23%2Fflickr%3A2716213465%22%3ESee+where+this+picture+was+taken.%3C%2Fa%3E+%3Ca+href%3D%22http%3A%2F%2Fwww.flickr.com%2Fgroups%2Fgeotagging%2Fdiscuss%2F72157594165549916%2F%22%3E%5B%3F%5D%3C%2Fa%3E"}
{"id":2844774919,"url":"http://farm4.staticflickr.com/3011/2844774919_f4b57f128e.jpg","path":"6f7/f59/6f7f59f98fa252cc523cb3b956e75bbe.jpg","date":"2008-09-10","year":2008,"month":9,"lon":12.362279,"lat":42.13144,"tags":"eliana,moto,motociclismo,motocilismo,motociliste,pezzili,vallelunga","S2CellId":"4879e40000000000","result":5506,"accuracy":0.25477716}
{"id":9590624583,"url":"http://farm4.staticflickr.com/3768/9590624583_6f45bf9086.jpg","path":"151/4b9/1514b9242528d1264f21cb6b20803c.jpg","date":"2013-08-19","year":2013,"month":8,"lon":12.738046,"lat":42.734516,"tags":"italia,italy,spoleto,umbria","S2CellId":"132e900000000000","result":1057,"accuracy":0.27537018,"title":"Spoleto+-+Ponte+delle+Torri"}
{"id":5761871205,"url":"http://farm3.staticflickr.com/2579/5761871205_55b82f3804.jpg","path":"4ab/ac3/4abac3699560abe214a443cddda85a63.jpg","date":"2011-05-17","year":2011,"month":5,"lon":12.750652,"lat":42.461735,"tags":"greccio","S2CellId":"477b300000000000","result":3440,"accuracy":0.044032313,"title":"20110517_Greccio_050","description":"Greccio"}
{"id":375763472,"url":"http://farm1.staticflickr.com/138/375763472_9e0e68b5ae.jpg","path":"e75/c21/e75c2192d495820d621f5651f9d9b7c.jpg","date":"2007-01-31","year":2007,"month":1,"lon":12.177411,"lat":42.10356,"tags":"body+language,fotofresco,invisibile,mythoskitty,quando+bacerei+la+luce","S2CellId":"809f000000000000","result":7130,"accuracy":0.012171432,"description":"Model+%3Ca+href%3D%22http%3A%2F%2Fwww.flickr.com%2Fphotos%2F18467811%40N00%2F%22%3EMythosKitty%3C%2Fa%3E"}
{"id":1230934677,"url":"http://farm2.staticflickr.com/1328/1230934677_c1d84d4c9d.jpg","path":"426/aef/426aefe8ced54ebd3e358dcb94a1bec.jpg","date":"2007-08-16","year":2007,"month":8,"lon":12.718241,"lat":42.550076,"tags":"cameraphone,sony+ericsson+w800i,w800i","S2CellId":"477ac00000000000","result":3438,"accuracy":0.1565062,"title":"Cascata+delle+marmore"}
{"id":3528550252,"url":"http://farm3.staticflickr.com/2059/3528550252_1a54f83f73.jpg","path":"f07/76a/f0776a11a97d9b4448f525a8488f61d.jpg","date":"2008-05-13","year":2008,"month":5,"lon":12.36608,"lat":42.70642,"tags":"50mm,canon,f%2F1.8,fiddy,todi+2008,umbria,villa+pianesante","S2CellId":"8859400000000000","result":8434,"accuracy":0.034860734,"title":"Just+a+morning+at+Villa+Pianesante","description":"Espresso+in+hand%2C+there+is+no+place+like+Umbria+in+the+morning."}
{"id":4057929609,"url":"http://farm4.staticflickr.com/3525/4057929609_380a68f4b9.jpg","path":"ec4/eae/ec4eae53d33691a677a1596d67be2f0.jpg","date":"2009-10-30","year":2009,"month":10,"lon":12.228384,"lat":42.239956,"tags":"chiesa,francigena,lazio,mitreo,sutri,tufo,via","S2CellId":"4776907000000000","result":3414,"accuracy":0.011378361,"title":"sutri","description":"%3Ca+href%3D%22http%3A%2F%2Fit.wikipedia.org%2Fwiki%2FChiesa_della_Madonna_del_Parto%22+rel%3D%22nofollow%22%3EMitreo+%2F+Chiesa+della+Madonna+del+Parto%3C%2Fa%3E+-+parco+archeologico+di+Sutri"}
{"id":6858073744,"url":"http://farm8.staticflickr.com/7217/6858073744_7ab6f07d41.jpg","path":"433/af6/433af668b266f881ee275abffb6bff8.jpg","date":"2011-12-01","year":2011,"month":12,"lon":12.73736,"lat":42.73576,"tags":"architettura,bianco+e+nero,black+and+white,spoleto,street,turismo","S2CellId":"4692934000000000","result":3009,"accuracy":0.026869547,"title":"Scorcio+fronte+Duomo"}
{"id":281233676,"url":"http://farm1.staticflickr.com/113/281233676_83a60544ed.jpg","path":"8b1/1c4/8b11c4fe959a313766eb571f8ee76f3.jpg","date":"2006-10-28","year":2006,"month":10,"lon":12.608871,"lat":42.93657,"tags":"2006,bevagna,italia,italie,italien,italy,umbria","S2CellId":"1329700000000000","result":1007,"accuracy":0.124979764,"title":"Bevagna"}
{"id":818869649,"url":"http://farm2.staticflickr.com/1346/818869649_202dad0978.jpg","path":"86f/608/86f608be0ba73b6e35c1a4ca4185b88.jpg","date":"2007-07-11","year":2007,"month":7,"lon":12.112716,"lat":42.717545,"tags":"italy,orvieto,umbria","S2CellId":"132e900000000000","result":1057,"accuracy":0.2215072,"title":"Orvieto"}
{"id":5036881227,"url":"http://farm5.staticflickr.com/4154/5036881227_903887515c.jpg","path":"b43/821/b43821356a47efa4ecd8d4731471dc.jpg","date":"2010-09-11","year":2010,"month":9,"lon":12.151565,"lat":42.92488,"tags":"pergoletto","S2CellId":"132e900000000000","result":1057,"accuracy":0.032123987,"title":"IMG_4242"}
{"id":5807984749,"url":"http://farm4.staticflickr.com/3589/5807984749_588e62bed1.jpg","path":"4cf/cfa/4cfcfa6867d924846a733ae603cd1a.jpg","date":"2010-12-08","year":2010,"month":12,"lon":12.577698,"lat":42.19794,"tags":"mouse,natural+selection,selezione+naturale,serpente,snake,topo","S2CellId":"80d9549000000000","result":7295,"accuracy":0.023690715,"title":"Natural+Selection..","description":"%5B...%5D+Historians+will+have+to+face+the+fact+that+natural+selection+determined+the+evolution+of+cultures+in+the+same+manner+as+it+did+that+of+species+%5B...%5D%0A--+Quote+by+Konrad+Lorenz+%28Austrian+Zoologist%2C+1903-1989%29%0A%0ANikon+D70%2C+Sigma+70-300+f%2F4.5-5.6+APO%2FMacro%2C+170mm+-+f%2F5.6+-+1%2F125s+-+Internal+flash%0A%0ACivitella+S.Paolo%2C+Italy+%28December%2C+2010%29"}
{"id":2057838757,"url":"http://farm3.staticflickr.com/2109/2057838757_5c94ffad15.jpg","path":"6c3/359/6c3359795b223f70bbe4d27fec0969f.jpg","date":"2007-08-12","year":2007,"month":8,"lon":12.57347,"lat":42.50382,"tags":"cat,cup,kitchen,konica+minolta+dimage+x50,miao,not_my_cat,table","S2CellId":"8834f3c000000000","result":8313,"accuracy":0.10186527,"title":"Cat+in+the+cup","description":"Dopo+lungo+tempo%2C+una+foto+che+non+ho+fatto+a+Morecambe%21%0ANon+l%27ho+fatta+neanche+in+Inghilterra+a+dire+la+verit%C3%A0%2C+%C3%A8+una+foto+vecchia..%0A%0ANotare+che+al+gatto+non+vengono+gli+occhi+rossi+ma+verdi...+e+quindi+non+%C3%A8+cos%C3%AC+facile+sistemarli.."}
{"id":3952415673,"url":"http://farm4.staticflickr.com/3510/3952415673_c10c393899.jpg","path":"7a6/545/7a654594c8a274de661e857c24ada670.jpg","date":"2009-08-20","year":2009,"month":8,"lon":12.747058,"lat":42.87785,"tags":"altar,church,hilltown,umbria","S2CellId":"85cfd00000000000","result":7456,"accuracy":0.039539494,"title":"Trevi%2C+Chiesa+di+San+Francesco","description":"The+decoration+so+over-+the-+top+I+couldn%27t+focus%3F..or+just+too+dark%21"}
{"id":6832395787,"url":"http://farm8.staticflickr.com/7145/6832395787_60a2528c02.jpg","path":"126/c94/126c94f6f1ae8dc2e37bb0714b67c91.jpg","date":"2012-02-04","year":2012,"month":2,"lon":12.370666,"lat":42.012333,"tags":"la+neve+a+roma,mdpd2012,mdpd2012%2F02,neve,snow","S2CellId":"8718400000000000","result":7729,"accuracy":0.027361326}
{"id":3527254258,"url":"http://farm3.staticflickr.com/2404/3527254258_f44a9bdb18.jpg","path":"7d1/a72/7d1a726d77d223dedc9b7de320c6b065.jpg","date":"2007-06-30","year":2007,"month":6,"lon":12.406482,"lat":42.782078,"tags":"%CF%84%CE%BF%CF%83%CE%BA%CE%AC%CE%BD%CE%B7,%D1%83%D0%BC%D0%B1%D1%80%D0%B8%D1%8F,%D7%90%D7%95%D7%9E%D7%91%D7%A8%D7%99%D7%94,%D7%98%D7%95%D7%A1%D7%A7%D7%A0%D7%94,%D8%A3%D9%88%D9%85%D8%A8%D8%B1%D9%8A%D8%A7,%D8%AA%D9%88%D8%B3%D9%83%D8%A7%D9%86%D8%A7,%E3%82%A6%E3%83%B3%E3%83%96%E3%83%AA%E3%82%A2%E5%B7%9E,%E3%83%88%E3%82%B9%E3%82%AB%E3%83%BC%E3%83%8A%E5%B7%9E,2007,cathedral,church,duomo,eu,europe,italia,italy,palazzo+del+popolo,perugia,piazza+del+popolo,plaza,todi,travel,tuscano,tuscany,umbria","S2CellId":"132f605500000000","result":1084,"accuracy":0.042116378,"title":"IT07+3237+Duomo%2C+Piazza+del+Popolo%2C+Todi"}
{"id":786526891,"url":"http://farm2.staticflickr.com/1069/786526891_5be42c7a0b.jpg","path":"c43/7c6/c437c690ac5bf2226d1b4cf3b0eadec2.jpg","date":"2007-07-12","year":2007,"month":7,"lon":12.584023,"lat":42.548115,"tags":"14-45mm,a,blue,catchy+colors,e500,estate,giallo,girasole,olympus,polarizer,summer,sunflower,wowiekazowie,yellow,zd","S2CellId":"132ee40000000000","result":1060,"accuracy":0.007694806,"title":"Lo+sapevate+che+il+girasole%2C+come+l%27oppio+e+la+cannabis%2C+pu%C3%B2+diventare+una+droga%3F","description":"...o+quanto+meno+crea+dipendenza...+%3B%29"}
{"id":9653418921,"url":"http://farm6.staticflickr.com/5446/9653418921_038842dc8c.jpg","path":"431/236/431236adb8f2e8beb9dfe6dfdaa8a055.jpg","date":"2013-08-27","year":2013,"month":8,"lon":12.013893,"lat":42.528133,"tags":"bolsena,italien,urlaub","S2CellId":"1329c00000000000","result":1008,"accuracy":0.060761716,"title":"Lago+di+Bolsena%2C+VT","description":"The+Lake+and+Sunset"}
{"id":4014578730,"url":"http://farm3.staticflickr.com/2528/4014578730_ca7cdd214b.jpg","path":"bb6/919/bb691932cb54c93cd43c853b5174fdd.jpg","date":"2009-10-10","year":2009,"month":10,"lon":12.233362,"lat":42.622337,"tags":"2009,burning,burningman,italian,italy,man,weekend","S2CellId":"465f9d7000000000","result":2928,"accuracy":0.0026923346,"title":"_MG_4190"}
{"id":5882081786,"url":"http://farm6.staticflickr.com/5022/5882081786_7620f6c740.jpg","path":"948/1d4/9481d4e136781fc413120a64970af72.jpg","date":"2011-05-16","year":2011,"month":5,"lon":12.544839,"lat":42.692963,"tags":"farm","S2CellId":"47fb000000000000","result":4734,"accuracy":0.044258554,"title":"farm046"}
