{"id":2726557976,"url":"http://farm4.staticflickr.com/3207/2726557976_22a4faf10f.jpg","path":"83d/602/83d6024ef5c425e9b5d6277c92c443.jpg","date":"2008-07-20","year":2008,"month":7,"lon":-95.554016,"lat":44.79353,"tags":"americana,smalltown","S2CellId":"880fd24000000000","result":8163,"accuracy":0.021546893,"title":"Sunday+in+Granite+Falls"}
{"id":402556718,"url":"http://farm1.staticflickr.com/138/402556718_e2b9039145.jpg","path":"84c/607/84c6073ba893b27e1c235383f6e2f9.jpg","date":"2007-01-22","year":2007,"month":1,"lon":-95.20781,"lat":44.791405,"tags":"deliver+us+not%21,minnesota,one-act+play,rcw,renville,renville+county+west,theatre","S2CellId":"808f770000000000","result":7015,"accuracy":0.39429596,"title":"Cast"}
{"id":2067762434,"url":"http://farm3.staticflickr.com/2180/2067762434_10cd83c7bf.jpg","path":"4a6/c70/4a6c70e7cea137dbe773669db74096c0.jpg","date":"2007-11-23","year":2007,"month":11,"lon":-95.247215,"lat":44.672527,"tags":"creek,minnesota,rock,scenery,stream,water","S2CellId":"87c5000000000000","result":7979,"accuracy":0.030355757,"title":"Downstream+We+Go","description":"Taken+at+bridge+deck+level+just+before+the+series+of+rapids+and+small+drops.%0A%0ASacred+Heart+Creek%2C+Renville+County%2C+Minnesota"}
{"id":2077176390,"url":"http://farm3.staticflickr.com/2299/2077176390_265f937b1a.jpg","path":"59c/a4c/59ca4c18ebd9573c798c65e9615d5b84.jpg","date":"2007-11-30","year":2007,"month":11,"lon":-95.35103,"lat":44.600674,"tags":"canon,cat,ears,eyes,gray,grey,house,kitty+cat,meow,not+my+cat,powershot+s3+is,steps,whiskers","S2CellId":"8893000000000000","result":8521,"accuracy":0.0096635325,"title":"Tater+Tot","description":"shes+soooo+cute+lol+but+she+can+b+a+lil+monster...%0Athis+was+taken+right+before+she+reached+up+to+swat+my+camera"}
{"id":4412038626,"url":"http://farm3.staticflickr.com/2765/4412038626_b09dc6daa2.jpg","path":"f26/a5e/f26a5edcaba93e807b5fab89194980bf.jpg","date":"2010-03-06","year":2010,"month":3,"lon":-95.787476,"lat":44.43971,"tags":"marshall","S2CellId":"87ac000000000000","result":7929,"accuracy":0.15732546,"title":"Flood+of+1993"}
{"id":402496237,"url":"http://farm1.staticflickr.com/137/402496237_18266b4c2d.jpg","path":"6b9/94d/6b994dc0c06bbba4afb74f8b2cf4b8.jpg","date":"2007-01-22","year":2007,"month":1,"lon":-95.20781,"lat":44.791405,"tags":"deliver+us+not%21,minnesota,one-act+play,rcw,renville,renville+county+west,theatre","S2CellId":"6b73154000000000","result":6736,"accuracy":0.07894888,"title":"%233+Intro"}
{"id":402737346,"url":"http://farm1.staticflickr.com/169/402737346_0eb72feab2.jpg","path":"f74/fa0/f74fa0adcd836c52cbe35d3e33681.jpg","date":"2004-02-01","year":2004,"month":2,"lon":-95.20781,"lat":44.791405,"tags":"diary+of+adam+and+eve,minnesota,one-act+play,rcw,renville,renville+county+west,theatre","S2CellId":"89c2240000000000","result":8932,"accuracy":0.5491456,"title":"Tiger+%26+Adam"}
{"id":4918031835,"url":"http://farm5.staticflickr.com/4136/4918031835_c4f80196ae.jpg","path":"d11/d95/d11d95b6193b112b967bea7a59c835.jpg","date":"2010-08-22","year":2010,"month":8,"lon":-95.27344,"lat":44.684277,"tags":"clouds,field,minnesota,mn,rural,sky","S2CellId":"89c9b00000000000","result":9209,"accuracy":0.0135663,"title":"more"}
{"id":402521883,"url":"http://farm1.staticflickr.com/150/402521883_4910362f2e.jpg","path":"643/ba2/643ba23f7151369c6e86a797b2374b.jpg","date":"2007-01-22","year":2007,"month":1,"lon":-95.20781,"lat":44.791405,"tags":"deliver+us+not%21,minnesota,one-act+play,rcw,renville,renville+county+west,theatre","S2CellId":"808f770000000000","result":7015,"accuracy":0.47642553,"title":"Hi%2C+Everybody%21"}
