{"id":5720027785,"url":"http://farm3.staticflickr.com/2363/5720027785_d5cf65ecea.jpg","path":"6bd/847/6bd847a76c15fa762debd96b5afce22.jpg","date":"2011-04-29","year":2011,"month":4,"lon":-81.79905,"lat":26.142548,"tags":"29.04.11,florida,main+street,naples,sculpture","S2CellId":"80857c4000000000","result":6918,"accuracy":0.036602505,"title":"Palm+Dog","description":"Sculpture%2C+made+of+bronze%2C+with+the+limbs%2C+ears%2C+head+and+tail+appearing+to+be+from+palm+leaves.+%0A%0ATaken+at+Naples%2C+Florida"}
{"id":3373306598,"url":"http://farm4.staticflickr.com/3655/3373306598_617a01c3a7.jpg","path":"3d1/afd/3d1afdcfbd8bb0fc95d86fac368dd0db.jpg","date":"2009-03-21","year":2009,"month":3,"lon":-81.79488,"lat":26.148176,"tags":"365random,children,dailyphoto09,edtech3652009,fun,reading,sculpture","S2CellId":"8620a5c000000000","result":7508,"accuracy":0.0458404,"title":"MAR212009","description":"Adjacent+to+the+Neighborhood+Health+Clinic%2C+where+I+volunteer%2C+is+a+new+preschool%2C+appropriately+named+%3Ca+href%3D%22http%3A%2F%2Fwww.naplesnews.com%2Fnews%2F2008%2Fdec%2F07%2Fcommunity-celebrates-opening-new-fun-time-preschoo%2F%22%3EFun+Time%3C%2Fa%3E.++Since+it+is+Saturday%2C+the+preschool+is+closed%2C+but+the+young+readers+on+the+park+bench+continue+to+explore%2C+share%2C+and+reflect+in+the+entryway.++Frozen+in+time%2C+they+exemplify+the+ongoing%2C+ubiquitous+intensity%2C+innocence+and+joy+that+lifelong+learning+advocates.++Imagine+the+freshness+and+innate+curiosity+that+this+pair+possess+-+we+can+all+grab+that+back+again+-+it%27s+just+a+matter+of+perspective%21+++%0A%0AI+need+to+go+back+and+get+the+sculptor%27s+name+-+I+believe+s%2Fhe+has+a+number+of+them+displayed+in+town...and+yes%2C+the+piece+allows+enough+room+for+others+to+sit+on+the+park+bench+with+them+-+a+very+friendly+and+interactive+invitation%21++Fun+Time+Preschool%2C+Naples%2C+FL"}
{"id":5720043161,"url":"http://farm3.staticflickr.com/2681/5720043161_3ef833edea.jpg","path":"b13/f2b/b13f2b1b95ab54bba44127e48ca29076.jpg","date":"2011-04-29","year":2011,"month":4,"lon":-81.85034,"lat":26.341782,"tags":"29.04.11,dusk,florida,fort+myers,fort+myers+beach,sunset","S2CellId":"1333000000000000","result":1123,"accuracy":0.015199124,"title":"Setting+Sun","description":"The+sun+sinks+down+to+the+horizon%2C+tinting+the+sky+and+touching+the+sea+and+wet+beach.+%0A%0ATaken+at+Fort+Myers+Beach"}
{"id":444577198,"url":"http://farm1.staticflickr.com/209/444577198_af2835c390.jpg","path":"92b/76a/92b76a40e2474fb527f4919e383833a.jpg","date":"2007-03-05","year":2007,"month":3,"lon":-81.7715,"lat":24.551485,"tags":"03-2007,florida,keys,vacation","S2CellId":"88d3000000000000","result":8571,"accuracy":0.04740043,"title":"IMG_3514"}
{"id":1879984836,"url":"http://farm3.staticflickr.com/2382/1879984836_08f379d505.jpg","path":"2c5/0dd/2c50ddcff5d0606234ac2abb71dc5a7.jpg","date":"2007-10-21","year":2007,"month":10,"lon":-82.74805,"lat":24.628527,"tags":"civial+war,dry+tortugas,florida+keys,fort+jefferson+and+the+dry+tortugas+national+park,national+park+service,national+parks","S2CellId":"88fb400000000000","result":8743,"accuracy":0.112595305,"title":"70IMG_7847aa"}
{"id":4211455863,"url":"http://farm5.staticflickr.com/4055/4211455863_f87d9e5e4a.jpg","path":"dcf/f52/dcff52eed18c140f8363fa20486b14.jpg","date":"2009-01-03","year":2009,"month":1,"lon":-81.805374,"lat":24.56045,"tags":"design,graphic,haeck,haeckdesign,haeckdesign.com,key+west,keys,nc,raleigh","S2CellId":"6f00000000000000","result":6856,"accuracy":0.0375061,"title":"DSC_0141"}
{"id":5734354588,"url":"http://farm4.staticflickr.com/3422/5734354588_9a1660a129.jpg","path":"dbb/761/dbb76134df77abe2eb14727736bbd.jpg","date":"2011-05-01","year":2011,"month":5,"lon":-82.26502,"lat":26.754885,"tags":"boca+grande,gasparilla,gasparilla+island","S2CellId":"1346c00000000000","result":1162,"accuracy":0.0313474,"title":"Swimming+With+the+Dogs+in+Boca+Grande%2C+Florida","description":"Please+feel+free+to+use+this+photo+according+to+the+%3Ca+href%3D%22http%3A%2F%2Fwww.flickr.com%2Fpeople%2F63057306%40N04%2F%22%3Eimage+license+terms%3C%2Fa%3E"}
{"id":227527489,"url":"http://farm1.staticflickr.com/79/227527489_9a8e0824bd.jpg","path":"1b6/fd8/1b6fd82fab4537b885c85a1969e8e82.jpg","date":"2006-07-08","year":2006,"month":7,"lon":-82.19953,"lat":26.550758,"tags":"bbqmoments,captiva,family,southseas,vacation","S2CellId":"809f000000000000","result":7130,"accuracy":0.021703394,"title":"IMG_0178"}
{"id":1308279342,"url":"http://farm2.staticflickr.com/1171/1308279342_871605dff9.jpg","path":"a7e/6a9/a7e6a9fe958f9aad59b277cafc167d8.jpg","date":"2007-09-01","year":2007,"month":9,"lon":-81.37462,"lat":24.647875,"tags":"florida,keys,little+palm+island","S2CellId":"88d0a631cabb5071","result":8563,"accuracy":0.013048716,"title":"IMG_3387-1"}
{"id":164433346,"url":"http://farm1.staticflickr.com/59/164433346_31f3ebe152.jpg","path":"289/d92/289d92ee5292cba3e2d73b2aa7ef1c6.jpg","date":"2006-06-07","year":2006,"month":6,"lon":-81.620346,"lat":26.60779,"tags":"lehigh,nature","S2CellId":"88e6c00000000000","result":8660,"accuracy":0.09755882,"title":"by+the+pool"}
{"id":4392500920,"url":"http://farm5.staticflickr.com/4009/4392500920_d365a248c0.jpg","path":"a74/64d/a7464dddb92f49da645d7b45d845ae7.jpg","date":"2010-02-27","year":2010,"month":2,"lon":-81.88222,"lat":26.392447,"tags":"atlantic,carl+e+johnson+state+park,dead+tree,dead+wood,digital,driftwood,florida,florida+beach,florida+ecosystem,florida+nature,florida+seascape,geotag,gulf,gulf+of+mexico,gulf+of+mexico+beach,landscape,lee+county+florida,natural,natural+beach,nature,nature+photography,nature+scene,ocean,olympus+camera,outdoor,recreation,self-taught+photographer,state+park,wild+beach,wild+florida,wildlife","S2CellId":"88db300000000000","result":8609,"accuracy":0.07196714,"title":"Overturned+Tree+in+Big+Carlos+Pass%2C+Lover%27s+Key+State+Park+Florida","description":"This+trunk+is+lodged+in+Big+Carlos+Pass+at+Lover%27s+Key+State+Park."}
{"id":5185329862,"url":"http://farm2.staticflickr.com/1033/5185329862_3130b2d579.jpg","path":"4d9/1f5/4d91f532d44df6605542a934779d88fb.jpg","date":"2010-11-12","year":2010,"month":11,"lon":-81.81093,"lat":26.431202,"tags":"4th+annual+koreshan+unity+settlement,tct,tin+can+tourists,vintage+trailer","S2CellId":"88fd000000000000","result":8754,"accuracy":0.1354631,"title":"100_3539"}
{"id":6353441137,"url":"http://farm7.staticflickr.com/6224/6353441137_3622785707.jpg","path":"1a2/0a7/1a20a747d238214c6f5a12d220e597a.jpg","date":"2011-11-15","year":2011,"month":11,"lon":-81.83055,"lat":26.281755,"tags":"beach,delnorwiggins,florida,seabirds","S2CellId":"88db300000000000","result":8609,"accuracy":0.1625177,"title":"Delnor+Wiggins+birds","description":"We+went+back+to+our+favourite+beach+and+there+were+so+many+sea+birds%2C+mostly+only+slightly+wary+of+humans."}
{"id":166592988,"url":"http://farm1.staticflickr.com/74/166592988_9c80b39aa3.jpg","path":"904/5f6/9045f63a5945a9ea3552e92a7d5e1b.jpg","date":"2006-05-12","year":2006,"month":5,"lon":-81.81955,"lat":26.436724,"tags":"camping,estero,florida,ftmyers,hollowearth,koreshan,newjerusalem,settlement,statepark,swamp,unity","S2CellId":"80d9549000000000","result":7295,"accuracy":0.016880246,"title":"concrete"}
{"id":5397018296,"url":"http://farm5.staticflickr.com/4074/5397018296_37bed15a3e.jpg","path":"bca/ec6/bcaec6c0f74b66d5cb2944b17a132247.jpg","date":"2011-01-27","year":2011,"month":1,"lon":-82.08431,"lat":26.455935,"tags":"darling,ding,florida,j.n.,j.n.+ding+darling+national+wildlife+refuge,life,refuge,sanibel+island,sanibel+island%2C+florida,wild","S2CellId":"88d0a631cabb5071","result":8563,"accuracy":0.53428626,"title":"Wood+Stork"}
{"id":5479301543,"url":"http://farm6.staticflickr.com/5098/5479301543_9b6522ed13.jpg","path":"6b5/917/6b5917b40712fc342b8d512b75ffaff.jpg","date":"2011-02-26","year":2011,"month":2,"lon":-81.78935,"lat":26.167725,"tags":"llt,naples+zoo,zoo","S2CellId":"52b7000000000000","result":5997,"accuracy":0.0241345,"title":"At+The+Panther+Display"}
{"id":2527797205,"url":"http://farm4.staticflickr.com/3208/2527797205_a793e98539.jpg","path":"a64/5b2/a645b2f0d5dba521b782e47636496be.jpg","date":"2008-05-19","year":2008,"month":5,"lon":-82.04624,"lat":26.45482,"tags":"club,clubs,course,danperry,danperry.com,fl,fl+golf,florida,florida+golf,fort+myers,ft+myers,golf,golf+course,golf+courses,golf+image,golf+images,golf+photo,golf+photography,golf+photos,golf+picture,golf+pictures,golfing,grass,green,landscape,photography,playing+golf,sanibel,sanibel+island,sky,tree,trees","S2CellId":"864e640000000000","result":7620,"accuracy":0.013767438,"title":"Dunes+Golf+and+Tennis+Club%2C+Sanibel+Island%2C+Florida"}
{"id":3321994968,"url":"http://farm4.staticflickr.com/3648/3321994968_66c67ffd8e.jpg","path":"9c5/dbc/9c5dbcb06243d3babc061c82a2296.jpg","date":"2009-02-27","year":2009,"month":2,"lon":-82.18168,"lat":26.998905,"tags":"2009,baseball,boston,port+charlotte,rays,red+sox,spring+training,tampa+bay,tampa+bay+rays","S2CellId":"88d9b5c000000000","result":8598,"accuracy":0.10461251,"title":"In+the+Cage"}
{"id":8196883645,"url":"http://farm9.staticflickr.com/8058/8196883645_491300ddf5.jpg","path":"1cb/25a/1cb25ae431f30d373952861235ad3db.jpg","date":"2012-11-18","year":2012,"month":11,"lon":-81.77335,"lat":26.106005,"tags":"naples+botanical+garden","S2CellId":"47c5ef0000000000","result":4303,"accuracy":0.015236249,"title":"Interesting+Blossom+on+Bare+Succulent"}
{"id":10250834393,"url":"http://farm9.staticflickr.com/8274/10250834393_c7ec53b094.jpg","path":"35b/017/35b017662a9636f946e27a3aad41185e.jpg","date":"2012-06-10","year":2012,"month":6,"lon":-82.03302,"lat":26.513592,"tags":"cape,coral,everglades,florida,usa","S2CellId":"1ed0000000000000","result":1478,"accuracy":0.011702516,"title":"_DSC2595"}
{"id":6738644687,"url":"http://farm8.staticflickr.com/7171/6738644687_374b6da095.jpg","path":"82a/fc9/82afc9229be668660656aee80eb2f5d.jpg","date":"2012-01-21","year":2012,"month":1,"lon":-81.74604,"lat":25.962217,"tags":"instagram+app,iphoneography,lord+kelvin,square,square+format","S2CellId":"88c3100000000000","result":8541,"accuracy":0.04684314,"title":"Gulf+Sunset"}
{"id":6891511455,"url":"http://farm8.staticflickr.com/7039/6891511455_ac1ce1c97d.jpg","path":"3d8/0fc/3d80fc4ec04ee922798ab17c9fa02014.jpg","date":"2012-02-14","year":2012,"month":2,"lon":-81.53467,"lat":26.484,"tags":"florida,florida+master+naturalist,lehigh+acres+florida,south+west+florida","S2CellId":"88da400000000000","result":8606,"accuracy":0.032908417}
{"id":2187664422,"url":"http://farm3.staticflickr.com/2028/2187664422_94f3302a9f.jpg","path":"a32/af9/a32af95cc279a52aef1b83bd7722a7d7.jpg","date":"2008-01-04","year":2008,"month":1,"lon":-81.812096,"lat":24.546654,"tags":"florida,key+west,kw,travel,vacation","S2CellId":"88d0a631cabb5071","result":8563,"accuracy":0.066051684,"title":"IMG_4952.JPG"}
{"id":3659966841,"url":"http://farm4.staticflickr.com/3552/3659966841_beb4d25458.jpg","path":"42f/c59/42fc59b557722d20de16abcf7b503e97.jpg","date":"2009-06-24","year":2009,"month":6,"lon":-82.15571,"lat":26.470602,"tags":"nikkor300mm28,turtle","S2CellId":"88d0a631cabb5071","result":8563,"accuracy":0.15826665,"title":"Turtle","description":"J.+N.+%22Ding%22+Darling+National+Wildlife+Refuge%2C+Sanibel+Island%2C+Florida"}
{"id":6065356636,"url":"http://farm7.staticflickr.com/6184/6065356636_0483357278.jpg","path":"f7e/858/f7e85861e5ea84a336137aa8e7f52f.jpg","date":"2011-08-10","year":2011,"month":8,"lon":-81.79017,"lat":24.547533,"tags":"%C3%AEles,cloudy,coucher,florida,floride,island,islands,key,leica,mer,night,oc%C3%A9an,sea,soleil,states,sunset,united,usa,west,x1","S2CellId":"88d1c00000000000","result":8570,"accuracy":0.11920899,"title":"Sunset","description":"Key+West%2C+Florida%2C+USA."}
{"id":6976358149,"url":"http://farm8.staticflickr.com/7177/6976358149_0515bb71c0.jpg","path":"553/97f/55397fbc3e922cab8ae1ae82d61601c.jpg","date":"2012-03-09","year":2012,"month":3,"lon":-81.774734,"lat":26.149023,"tags":"30psi,700%2Bhp,air+force,airport,cap,car,car+meet,car+show,civil+air+patrol,cruise-in,fl,florida,fly-in,gtr,meet,municipal,naples,nissan,nma,r33,show,skyline,usaf","S2CellId":"80c8f00000000000","result":7255,"accuracy":0.08384293,"title":"_DSC0023","description":"Don%27t+forget+to+like+our+Facebook+page%3A+%3Ca+href%3D%22http%3A%2F%2Fwww.facebook.com%2FBlacklightPropaganda%22+rel%3D%22nofollow%22%3EBlacklight+Propaganda%3C%2Fa%3E"}
{"id":8450743232,"url":"http://farm9.staticflickr.com/8238/8450743232_f0a417a1d8.jpg","path":"265/06c/26506ce62ca297f2a4ffc194f7919fb2.jpg","date":"2013-01-30","year":2013,"month":1,"lon":-82.107,"lat":26.456491,"tags":"birds,ding+darling+national+wildlife+refuge,sanibel+island%2C+florida","S2CellId":"88d9300000000000","result":8584,"accuracy":0.09071281,"title":"Immature+Black+Crowned+Night+Heron"}
{"id":5707919097,"url":"http://farm4.staticflickr.com/3467/5707919097_da692aaf8a.jpg","path":"276/f10/276f10b5fb8062860bc986251bfdb9b.jpg","date":"2011-04-28","year":2011,"month":4,"lon":-81.901726,"lat":26.41206,"tags":"27.04.11,florida,fort+myers,fort+myers+beach,sunset","S2CellId":"88c3100000000000","result":8541,"accuracy":0.023493133,"title":"The+Lagoon","description":"The+lagoon+at+Fort+Myers+Beach+at+dusk."}
{"id":6182878884,"url":"http://farm7.staticflickr.com/6176/6182878884_6bc7e8d14c.jpg","path":"cf6/bec/cf6bece462c4f59625db364550281f.jpg","date":"2011-01-22","year":2011,"month":1,"lon":-82.227516,"lat":24.55204,"tags":"2011,arbutus,dry+tortugas,fall,florida,key+west,seaplane","S2CellId":"133b700000000000","result":1147,"accuracy":0.025179695,"title":"wreck+of+the+arbutus","description":"the+mast+is+still+sticking+up+above+the+surface."}
{"id":3960600358,"url":"http://farm4.staticflickr.com/3425/3960600358_98638d597e.jpg","path":"4c4/2d7/4c42d74ef8dac77ba338233a4c14fdb.jpg","date":"2009-09-16","year":2009,"month":9,"lon":-81.40748,"lat":24.661516,"tags":"climate+change,florida+keys,glee,green,ramrod+key,sea+level+rise","S2CellId":"88db300000000000","result":8609,"accuracy":0.0979091,"title":"Ramrod09160900109","description":"09+16+09%0AAddress+unknown%0AWater+in+backyard%0ARamrod+Key%0AFlorida+Keys"}
{"id":5728225276,"url":"http://farm6.staticflickr.com/5126/5728225276_9f27c7b943.jpg","path":"948/860/948860d9ad9f748bc581337fb7a6899.jpg","date":"2011-04-30","year":2011,"month":4,"lon":-81.81225,"lat":26.61699,"tags":"30.04.11,brown+pelicans,calusa+nature+center+%26+planetarium,florida,fort+myers,pelecanus+occidentalis","S2CellId":"80d9549000000000","result":7295,"accuracy":0.048765607,"title":"Brown+Pelican","description":"The+Calusa+Nature+Center+%26+Planetarium+with+a+selection+of+birds+in+aviaries+outside.+%0A%0A%0AIn+the+collection+of+birds+are+a+couple+of+brown+pelicans+%28pelecanus+occidentalis%29+including+this+one+contorting+and+preening."}
{"id":6896505502,"url":"http://farm8.staticflickr.com/7119/6896505502_a4a2f9032a.jpg","path":"571/bc5/571bc5635061ef1ed71b94bfe1976b36.jpg","date":"2012-04-03","year":2012,"month":4,"lon":-81.77152,"lat":26.106968,"tags":"naples+botanical+garden","S2CellId":"88d0a631cabb5071","result":8563,"accuracy":0.13941301,"title":"Framing"}
{"id":35184178,"url":"http://farm1.staticflickr.com/31/35184178_75c349f018.jpg","path":"668/815/668815efec8c43e2fdf998551c63ea1.jpg","date":"2005-08-16","year":2005,"month":8,"lon":-82.01118,"lat":26.486092,"tags":"florida,sanibel,usa","S2CellId":"88d7000000000000","result":8573,"accuracy":0.085024305,"title":"sunset+over+sanibel+island"}
{"id":209471204,"url":"http://farm1.staticflickr.com/77/209471204_61517d6d36.jpg","path":"8fb/cd8/8fbcd8857fcec24574a5876f6f9729c.jpg","date":"2006-08-07","year":2006,"month":8,"lon":-82.26529,"lat":26.75783,"tags":"my+favorites,the+ones+i+like","S2CellId":"8f4c400000000000","result":9516,"accuracy":0.055452432,"title":"kiya"}
{"id":3179309205,"url":"http://farm4.staticflickr.com/3132/3179309205_82d5ea0eb2.jpg","path":"b15/cf9/b15cf99aba192e97b82224438f74c613.jpg","date":"2009-01-07","year":2009,"month":1,"lon":-81.777,"lat":24.559666,"tags":"2009%2F365,365,365photos,carlaarena,flickr365,iphone,iphone_carlaarena,jan09,keywest,keywest09,trash,waste","S2CellId":"7100000000000000","result":6857,"accuracy":0.018695548,"title":"Trash+in+Paradise+-+Day+8","description":"Ecology.+Tons+of+awareness+campaigns+worldwide+and+in+Key+West.+Sad.+Disrespectful+tourists+and+boaters.%0A%0AA+common+scene+when+the+sea+water+lowers.+My+kids+have+collected+bags+full+of+trash.%0A%0AParadise+or+waste+disposal%3F"}
{"id":5834049671,"url":"http://farm3.staticflickr.com/2690/5834049671_d8ea166f60.jpg","path":"95d/b5d/95db5d4aec49a07a1888313a35fd98d4.jpg","date":"2011-06-14","year":2011,"month":6,"lon":-81.82733,"lat":26.5705,"tags":"florida,fort+myers,nature+preserve,six+mile+cypress+slough","S2CellId":"88d0a631cabb5071","result":8563,"accuracy":0.09166445,"title":"2011-06-14_10-36-44"}
{"id":3602804992,"url":"http://farm4.staticflickr.com/3397/3602804992_6876d6223d.jpg","path":"82d/5b1/82d5b1d2df92ea331d78ee3cdc113f5.jpg","date":"2009-05-31","year":2009,"month":5,"lon":-81.729,"lat":25.91892,"tags":"marco+island","S2CellId":"88d0a631cabb5071","result":8563,"accuracy":0.08051799,"title":"holding+fish.","description":"Osprey+%28Pandion+haliaetus%29%2C+sometimes+known+as+the+sea+hawk..."}
{"id":3322041328,"url":"http://farm4.staticflickr.com/3645/3322041328_f7950db901.jpg","path":"315/ed3/315ed344ac3222550c2345778ade2.jpg","date":"2009-02-27","year":2009,"month":2,"lon":-82.18168,"lat":26.998905,"tags":"2009,baseball,boston,evan+longoria,port+charlotte,rays,red+sox,spring+training,tampa+bay,tampa+bay+rays","S2CellId":"89c1c00000000000","result":8931,"accuracy":0.16081205,"title":"Longoria"}
{"id":8384276706,"url":"http://farm9.staticflickr.com/8225/8384276706_6afea68bd4.jpg","path":"589/e8d/589e8de68624f441ac105280cec54638.jpg","date":"2013-01-12","year":2013,"month":1,"lon":-81.820045,"lat":26.253279,"tags":"cyclist,florida,hits,img_2703a,naples,trek,triathlon,zipp","S2CellId":"346835c000000000","result":2148,"accuracy":0.031201605,"title":"Diego+Corredor","description":"HITS+Triathlon+Series%2C+Naples+2013++FULL+3rd+Place"}
{"id":369190438,"url":"http://farm1.staticflickr.com/131/369190438_402eb316e6.jpg","path":"9b5/b5b/9b5b5b899bc97c5657f4b8f63bcb41.jpg","date":"2007-01-20","year":2007,"month":1,"lon":-81.79702,"lat":24.547533,"tags":"butterfly,florida,key+west","S2CellId":"94f7000000000000","result":9773,"accuracy":0.009183663,"title":"Butterfly+Conservatory"}
{"id":4773866636,"url":"http://farm5.staticflickr.com/4075/4773866636_4318e88095.jpg","path":"6a3/98c/6a398c7059c48d5fe5e787e9ce85b2bd.jpg","date":"2010-06-04","year":2010,"month":6,"lon":-82.748184,"lat":24.628819,"tags":"dry+tortugas,ft+jefferson","S2CellId":"1367000000000000","result":1190,"accuracy":0.22830874,"title":"DSC09632"}
{"id":4874628762,"url":"http://farm5.staticflickr.com/4080/4874628762_4c26fce910.jpg","path":"67d/ceb/67dcebdef724af894dbc4d46cb37a3.jpg","date":"2010-08-08","year":2010,"month":8,"lon":-81.75695,"lat":26.172346,"tags":"florida,florida+public+relations+association,fpra,golf+tournament,naples","S2CellId":"7f00000000000000","result":6901,"accuracy":0.101545036,"title":"C10_3876"}
{"id":5165357130,"url":"http://farm2.staticflickr.com/1391/5165357130_dfd75f246f.jpg","path":"60c/811/60c811b9443b3ef11a85f27b76db968.jpg","date":"2010-11-10","year":2010,"month":11,"lon":-81.78849,"lat":26.175467,"tags":"freedom+park","S2CellId":"88d0a631cabb5071","result":8563,"accuracy":0.027981896,"title":"Berry+Starburst"}
{"id":40028474,"url":"http://farm1.staticflickr.com/23/40028474_94c47fab4f.jpg","path":"3db/e06/3dbe063b1ee91ddc1b33a40b1e6d5c9.jpg","date":"2005-08-13","year":2005,"month":8,"lon":-82.13825,"lat":26.467306,"tags":"aligator,ding+darling,gator,i+love+nature,ken+douglas,nature,sanibel,tiagd,today+is+a+good+day","S2CellId":"88fb990000000000","result":8747,"accuracy":0.84141093,"title":"Gator+%E2%80%93+sat+and+watched","description":"%E2%80%A6after+he+hauled+himself+out+he+sat+and+watched.+%5B%3Ca+href%3D%22http%3A%2F%2Fflickr.com%2Fphotos%2Fgood_day%2F40028475%2Fin%2Fphotostream%2F%22%3Esee+previous+shot%3C%2Fa%3E%5D%0A%0AThen+the+%E2%80%9Cproblem%E2%80%9D+became+clear.++%0AHe%E2%80%99d+been+fed+by+tourists.++Thus+signing+his+death+warrant.+With+no+fear%2C+he%E2%80%99ll+become+a+danger+%28two+people+died+last+year+in+gator+attacks+on+the+island%29+and+will+have+to+be+shot.+++%0A%0AThat%27s+not+good%21"}
{"id":2515491082,"url":"http://farm4.staticflickr.com/3139/2515491082_0ffcd4277b.jpg","path":"b8b/525/b8b52526d97de163acc704fcd8b2ea.jpg","date":"2008-05-18","year":2008,"month":5,"lon":-82.87334,"lat":24.62861,"tags":"florida","S2CellId":"88cf000000000000","result":8562,"accuracy":0.069936566,"title":"Arch","description":"Do+you+know+why+there+are+so+many+arches%3F"}
{"id":6822276472,"url":"http://farm8.staticflickr.com/7052/6822276472_6a64212884.jpg","path":"7cb/421/7cb42136cb58fc27a96de6241966f9e.jpg","date":"2012-03-07","year":2012,"month":3,"lon":-81.6319,"lat":26.328537,"tags":"alligator,crew+rookery","S2CellId":"88fb990000000000","result":8747,"accuracy":0.11678113,"title":"Crew+Rookery+Excursion","description":"West+Naples+Florida+-+March+7%2C+2012%0AAlligator%0A%0AAlligator+mississippiensis"}
{"id":7305170064,"url":"http://farm8.staticflickr.com/7072/7305170064_43b237fa91.jpg","path":"a81/23c/a8123cd9e4b97bbff667a4db6f1c1e7b.jpg","date":"2012-05-30","year":2012,"month":5,"lon":-81.6315,"lat":26.602,"tags":"flowers,home,lehigh,lehigh+acres+florida,nature,south+west+florida,sunflowers","S2CellId":"88d9d00000000000","result":8604,"accuracy":0.017346218}
{"id":10332315626,"url":"http://farm8.staticflickr.com/7335/10332315626_25bbf4c766.jpg","path":"a51/34f/a5134f2c9d19d8561e354b9debc46ce0.jpg","date":"2012-05-14","year":2012,"month":5,"lon":-81.10073,"lat":25.861385,"tags":"cape+coral,everglades,florida,usa","S2CellId":"88d0a631cabb5071","result":8563,"accuracy":0.016140675,"title":"_DSC3060"}
{"id":496754213,"url":"http://farm1.staticflickr.com/220/496754213_c77f78f7e0.jpg","path":"14e/0d1/14e0d165eb2e308616eb21268a752f5.jpg","date":"2007-05-06","year":2007,"month":5,"lon":-81.76437,"lat":26.249775,"tags":"carlton,club,course,dan+perry,danperry.com,fl,florida,florida+golf,gold,golf,golf+course,golf+course+photography,golf+courses,golf+photo,golf+photography,golf+photos,golf+picture,golf+pictures,golf+resort,golf+resorts,grass,green,greg+norman,landscape,naples,naples+fl,naples+florida,naples+golf,play+golf,playing+golf,ritz,ritz+carlton,shark,shark+shootout,shootout,sky,tiburon,tree,trees","S2CellId":"7c006f0000000000","result":6890,"accuracy":0.07592022,"title":"Tiburon+Golf+Club%2C+Gold+Course%2C+Ritz+Carlton+Golf+Resort%2C+Naples%2C+Florida","description":"Tiburon+Golf+Club%2C+Gold+Course%2C+Ritz+Carlton+Golf+Resort%2C+Naples%2C+Florida"}
{"id":5095221017,"url":"http://farm5.staticflickr.com/4111/5095221017_69495c67f5.jpg","path":"827/73e/82773e0ffe3c510483769af85f6979d.jpg","date":"2010-09-05","year":2010,"month":9,"lon":-81.80167,"lat":24.56133,"tags":"key+west+florida,sunset+dinner+cruise","S2CellId":"892c000000000000","result":8771,"accuracy":0.35717797,"title":"20100905_Dinner+Cruise+Key+West_0042"}
{"id":3708155343,"url":"http://farm4.staticflickr.com/3478/3708155343_9fafac6b1c.jpg","path":"83b/7f9/83b7f9e9ae1e647f28e741cabf2821.jpg","date":"2009-01-08","year":2009,"month":1,"lon":-81.31153,"lat":26.93217,"tags":"black+and+white,bullfrogphoto,crocodile,florida,jeremiah+john+mcbride,reptile","S2CellId":"48761b3240000000","result":5320,"accuracy":0.004412214,"title":"snaggle+tooth","description":"ole+croc+with+some+dental+issues%0A%0Afollow+me+on+facebook+%40++%3Ca+href%3D%22http%3A%2F%2Fwww.facebook.com%2FBullfrogphoto%22+rel%3D%22nofollow%22%3EBullfrogphoto%3C%2Fa%3E"}
{"id":5947315362,"url":"http://farm7.staticflickr.com/6022/5947315362_bec677918b.jpg","path":"7a3/51e/7a351ef8e7883f4670309ebd7567026.jpg","date":"2011-07-17","year":2011,"month":7,"lon":-81.80042,"lat":24.561205,"tags":"instagram+app,iphoneography,normal,square,square+format,sxse2011","S2CellId":"7c00500000000000","result":6879,"accuracy":0.09532193,"title":"Sending+%40gopalo+a+Cuban+Coffee+%23sxse"}
{"id":7160698109,"url":"http://farm8.staticflickr.com/7237/7160698109_7b7e1ef2fe.jpg","path":"875/764/875764853ba46d7f3b895633f24929.jpg","date":"2012-02-16","year":2012,"month":2,"lon":-81.803,"lat":24.554,"tags":"iphone","S2CellId":"88dd7ef000000000","result":8627,"accuracy":0.0373618,"title":"iPhone+143"}
{"id":2382041853,"url":"http://farm3.staticflickr.com/2279/2382041853_ee4c2a02f9.jpg","path":"395/b47/395b47106a1fdb147fc0d2257bce4567.jpg","date":"2008-04-02","year":2008,"month":4,"lon":-81.81015,"lat":26.16475,"tags":"naples,travel","S2CellId":"88c3500000000000","result":8543,"accuracy":0.11143913,"title":"IMG_4284.jpg"}
{"id":3669334825,"url":"http://farm3.staticflickr.com/2564/3669334825_4fbeb840f6.jpg","path":"9df/ef5/9dfef5b5d22bf62577956ed9535b8d.jpg","date":"2009-06-28","year":2009,"month":6,"lon":-82.03063,"lat":26.896353,"tags":"car,chevelle,chevrolet,d700,florida,muscle+car,muscle+car+city+museum,nikon,nikon+d700,punta+gorda+fl","S2CellId":"87c5000000000000","result":7979,"accuracy":0.03679402,"title":"Muscle+Car+City+Museum","description":"Punta+Gorda%2C+FL"}
{"id":3810515076,"url":"http://farm4.staticflickr.com/3430/3810515076_01cf411dc1.jpg","path":"cbf/64d/cbf64dfb4e8ca21e1fd3b6ebfec63576.jpg","date":"2009-08-05","year":2009,"month":8,"lon":-82.260635,"lat":26.675243,"tags":"cayo+costa+state+park,coast,ferry,florida,gulf,lacosta+island,parks,southwest,star,tropic","S2CellId":"88db300000000000","result":8609,"accuracy":0.24048148,"title":"DSC02307"}
{"id":4003159428,"url":"http://farm3.staticflickr.com/2605/4003159428_5541d19144.jpg","path":"904/312/9043129252e7facf3ca9a218fb2ffd79.jpg","date":"2009-08-17","year":2009,"month":8,"lon":-81.8646,"lat":26.380426,"tags":"beach,biome,bonita,canine,corgi,cute,cute+dog,dog,dog+beach,dogs,estero+bay,fl,florida,forest,herd,herding,landscape,lovers+key,mangrove,off+leash,park,pembroke,pembroke+welsh+corgi,pet,pets,red,red+%26+white,sable,sampson,samson,sand,springs,tidal,water,welsh,white","S2CellId":"89fb400000000000","result":9399,"accuracy":0.021831585,"title":"Sampson+zooming+down+Dog+Beach","description":"Sampson+has+been+our+buddy+since+2004.+In+the+winter+of+2008%2C+he+suffered+a+severe+perineal+hernia+that+required+a+%242000+surgery+to+repair+it.+At+the+time+of+the+surgery%2C+we+were+told+that+due+to+the+severity+of+the+hernia+that+it+was+likely+to+reoccur.+As+predicted%2C+it+has+reoccurred+and+he+desperately+needs+more+surgery.+Other+than+the+hernia%2C+he+is+a+happy%2C+healthy+and+active+dog+who+should+live+to+his+mid+to+late+teens.+Therefore%2C+I+cannot+in+good+conscience+end+his+life+prematurely.+I+have+also+contacted+a+Corgi+rescue+in+hopes+that+he+could+be+adopted+to+a+family+that+is+more+financially+able+to+care+for+him.+However%2C+since+my+husband+and+I+can%27t+have+children%2C+giving+him+up+for+adoption+because+of+health+issues+seems+as+ridiculous+to+us+as+giving+up+our+9+year+old+child+for+adoption+because+we+can%27t+keep+up+with+the+medical+expenses.+We+work+in+the+service+industry%2C+living+paycheck+to+paycheck+and+our+credit+is+not+good+enough+to+get+a+care+credit+card+that+would+allow+us+to+make+payments.+To+help+us+pay+for+Sampson%27s+surgery%2C+we+have+set+up+a+ChipIn+donation+site+to+raise+funds+for+Sampson%27s+surgery.+So+please+consider+donating+whatever+small+amount+you+can+to+help+keep+Sampson+with+the+family+that+loves+him.+If+you+can%27s+make+a+donation%2C+please+pass+this+info+along+to+friends+who+may+be+able+to+help.+Sampson%2C+his+Corgi+buddies+Shiloh+%26+Rusty+and+his+human+family+thank+you%21+Click+on+the+link+below+to+go+to+Sampson%27s+ChipIn.com+page+to+make+your+donation.+THANK+YOU%21%21%0A%3Ca+href%3D%22http%3A%2F%2Fcorgisampson.chipin.com%2Fsampson-the-corgis-hernia-surgery-fund%22+rel%3D%22nofollow%22%3Ecorgisampson.chipin.com%2Fsampson-the-corgis-hernia-surgery...%3C%2Fa%3E"}
{"id":5717234884,"url":"http://farm3.staticflickr.com/2315/5717234884_a3c66d0ca3.jpg","path":"a98/e2e/a98e2e5c5159f2f5b7a3b6bc4f9807d.jpg","date":"2011-04-28","year":2011,"month":4,"lon":-81.87929,"lat":26.63511,"tags":"28.04.11,edison+and+ford+winter+residence,edison+winter+residence,florida,ford+winter+residence,fort+myers,henry+ford,model+a+ford,model+t+ford,thomas+edison","S2CellId":"47f4ebc000000000","result":4722,"accuracy":0.32016423,"title":"In+the+Garage","description":"The+Ford+Winter+Estate%27s+garage%2C+in+which+are+two+of+Ford%27s+cars%2C+the+Model+T+and+Model+A.%0A%0ATaken+in+the+Edison+and+Ford+Winter+Residence."}
{"id":2506316437,"url":"http://farm3.staticflickr.com/2189/2506316437_f241d803e3.jpg","path":"6cf/e32/6cfe327eac2fcfd866a1c34f3c663616.jpg","date":"2008-05-19","year":2008,"month":5,"lon":-82.19303,"lat":26.52838,"tags":"captiva,captiva+sisummit+search+insider+summit+mediapost+siscaptiva+sismay08+florida+captiva+captiva+island,florida,mediapost,search+insider+summit,sismay08,sisummit,sisummit+search+insider+summit+mediapost+siscaptiva+sismay08,south+seas+island+resort","S2CellId":"88d0a631cabb5071","result":8563,"accuracy":0.03720604,"title":"IMG_3516","description":"Photos+from+MediaPost%27s+Search+Insider+Summit%2C+May+08%2C+Captiva+Island%2C+FL"}
{"id":5727481769,"url":"http://farm3.staticflickr.com/2137/5727481769_472863dcfa.jpg","path":"7e7/3b0/7e73b0d2fb3efa3729f52f285e27e6e5.jpg","date":"2011-04-30","year":2011,"month":4,"lon":-81.81225,"lat":26.61699,"tags":"30.04.11,calusa+nature+center+%26+planetarium,duck+porn,florida,fort+myers","S2CellId":"88d0a631cabb5071","result":8563,"accuracy":0.025635915,"title":"Hot+Duck+Action","description":"The+Calusa+Nature+Center+%26+Planetarium+with+a+selection+of+birds+in+aviaries+outside.+%0A%0A%0AIt+must+be+mating+season%2C+the+male+had+decided+to+go+for+it+with+the+female%2C+gripping+her+neck+and+clambering+on+her+back."}
{"id":7150176029,"url":"http://farm8.staticflickr.com/7262/7150176029_cf49b0b70d.jpg","path":"6ad/b7c/6adb7c17c573c6688b4264548a67ba67.jpg","date":"2012-03-28","year":2012,"month":3,"lon":-82.05551,"lat":26.420158,"tags":"march+29+5d,osprey,sannibel+island","S2CellId":"88d0a631cabb5071","result":8563,"accuracy":0.025685772,"title":"march+29+5d+058"}
{"id":9523140597,"url":"http://farm8.staticflickr.com/7367/9523140597_8c8af3dcd3.jpg","path":"939/9f9/9399f9906f6fc4bf83a95266d3558424.jpg","date":"2012-04-02","year":2012,"month":4,"lon":-81.75567,"lat":24.554,"tags":"automator","S2CellId":"89b9400000000000","result":8914,"accuracy":0.04401064,"title":"2012-04-02+10.49.34+HDR"}
{"id":2528616042,"url":"http://farm4.staticflickr.com/3106/2528616042_bf06d8746f.jpg","path":"32a/97f/32a97f6479fc54273d3cc46f5a0172f.jpg","date":"2008-05-19","year":2008,"month":5,"lon":-82.04624,"lat":26.45482,"tags":"club,clubs,course,danperry,danperry.com,fl,fl+golf,florida,florida+golf,fort+myers,ft+myers,golf,golf+course,golf+courses,golf+image,golf+images,golf+photo,golf+photography,golf+photos,golf+picture,golf+pictures,golfing,grass,green,landscape,photography,playing+golf,sanibel,sanibel+island,sky,tree,trees","S2CellId":"8893000000000000","result":8521,"accuracy":0.02171722,"title":"Dunes+Golf+Course%2C+Sanibel+Island%2C+Florida"}
{"id":3078963572,"url":"http://farm4.staticflickr.com/3177/3078963572_1f053ce2eb.jpg","path":"266/7fb/2667fb38feb727ff39e99115e413b49.jpg","date":"2008-11-25","year":2008,"month":11,"lon":-81.73081,"lat":25.949554,"tags":"america,florida,holiday,http%3A%2F%2Fwww.nordictouch.co.uk,key+west,marco+island,miami,south+beach,usa,vacation","S2CellId":"0c6a940000000000","result":154,"accuracy":0.029248957,"title":"View+of+the+canal+in+the+morning","description":"From+the+O%27Kelleys+balcony"}
{"id":5735834592,"url":"http://farm3.staticflickr.com/2291/5735834592_9114b20e27.jpg","path":"f8d/5d9/f8d5d9218b5c99b4d4d2a644bf12fdb.jpg","date":"2011-05-09","year":2011,"month":5,"lon":-81.25845,"lat":25.75488,"tags":"everglades+national+park","S2CellId":"88da400000000000","result":8606,"accuracy":0.22041823,"title":"Andy%27s+portrait"}
{"id":10249898675,"url":"http://farm3.staticflickr.com/2821/10249898675_6d044bb3a3.jpg","path":"5c7/4d4/5c74d49a961cec91c6b4588c97dde8b.jpg","date":"2012-06-09","year":2012,"month":6,"lon":-82.032135,"lat":26.548952,"tags":"cape,coral,everglades,florida,usa","S2CellId":"8f5d000000000000","result":9533,"accuracy":0.05174449,"title":"_DSC2529"}
{"id":3175491768,"url":"http://farm4.staticflickr.com/3086/3175491768_960215d8ce.jpg","path":"94d/f2e/94df2ec4a47268f8c9b1e3471fb061.jpg","date":"2008-12-28","year":2008,"month":12,"lon":-81.784,"lat":24.559166,"tags":"carnival+cruise,florida,key+west,triumph,united+states","S2CellId":"0d422f0000000000","result":384,"accuracy":0.007407486,"title":"DSC_0017"}
{"id":4737743189,"url":"http://farm5.staticflickr.com/4117/4737743189_22a10bd639.jpg","path":"b29/2e2/b292e26f13843534a192c13281d91b5.jpg","date":"2010-06-25","year":2010,"month":6,"lon":-81.80686,"lat":24.55251,"tags":"animal,animal+planet,cat+key+west,florida,hemingway,hemingway+home,planet,polydactyl+cat","S2CellId":"1495400000000000","result":1225,"accuracy":0.009663756,"title":"keywest062010+-+37.jpg","description":"Hemingway+cat+here"}
{"id":7020772781,"url":"http://farm8.staticflickr.com/7193/7020772781_bf89f84bb8.jpg","path":"809/5f9/8095f97013dd4f4d2892a24bdba471d.jpg","date":"2012-03-23","year":2012,"month":3,"lon":-81.2911,"lat":26.918856,"tags":"032612,alligator,animal,bird,crocodile,florida,florida+panther,gator,gator+farm,gatorama,palm+tree,palmdale,palmetto,parrot,pond,reptile,zoo","S2CellId":"12aebb0000000000","result":788,"accuracy":0.012576268,"title":"Gatorama+-+Palmdale%2C+Florida","description":"Gatorama+-+Palmdale%2C+Florida"}
{"id":2049948153,"url":"http://farm3.staticflickr.com/2178/2049948153_05259f0b88.jpg","path":"a74/fbb/a74fbbff8a9f647f94b3f8f83d928.jpg","date":"2007-11-08","year":2007,"month":11,"lon":-82.74834,"lat":24.62919,"tags":"dry+tortugas,florida,fort+jefferson,garden+key,national+park","S2CellId":"8f5d000000000000","result":9533,"accuracy":0.024187999,"title":"DryTortugas-2","description":"Fort+Jefferson+on+Garden+Key+%28Dry+Tortugas+NP%29+from+the+seaplane."}
{"id":2256543250,"url":"http://farm3.staticflickr.com/2330/2256543250_18821e07fd.jpg","path":"dbd/6c3/dbd6c3873897a5cb8e97d8b2c70a323.jpg","date":"2008-02-10","year":2008,"month":2,"lon":-81.80858,"lat":26.150084,"tags":"beach,pier,sunrise","S2CellId":"88db300000000000","result":8609,"accuracy":0.028163815,"title":"Pier+from+a+Distance"}
{"id":9277137573,"url":"http://farm3.staticflickr.com/2840/9277137573_64f417a7c5.jpg","path":"6a7/6af/6a76af9d13891fdb76c1b92d4c5bc72c.jpg","date":"2013-07-13","year":2013,"month":7,"lon":-82.19193,"lat":26.51631,"tags":"beach,captiva+island,ft+myers,ocean,sanibel+island,south+seas+resort,southwest+florida,storm,sunset","S2CellId":"88db300000000000","result":8609,"accuracy":0.062074244,"title":"Sunset+%2B+Palm+Trees","description":"Captiva%2C+Florida"}
{"id":6053890627,"url":"http://farm7.staticflickr.com/6078/6053890627_7069449240.jpg","path":"105/0b7/1050b7a4912c99885d6f368f5a7fc49c.jpg","date":"2011-07-02","year":2011,"month":7,"lon":-81.72918,"lat":25.928097,"tags":"4th,beach,covered,florida,fourth,holidays,island,july,marco,ocean,sand,vacations,water","S2CellId":"8f4ec00000000000","result":9525,"accuracy":0.027577188,"title":"DSC_6448"}
{"id":7049115175,"url":"http://farm8.staticflickr.com/7245/7049115175_daf9e7d0d3.jpg","path":"741/bab/741bab1a80ed954bd6d320a9e4ef8b.jpg","date":"2011-12-27","year":2011,"month":12,"lon":-81.80901,"lat":24.55109,"tags":"florida+keys,key+west,manatee,nature","S2CellId":"88e77e4000000000","result":8673,"accuracy":0.030376408,"title":"IMG_4249"}
{"id":10380040335,"url":"http://farm6.staticflickr.com/5488/10380040335_55bb2d741d.jpg","path":"1da/e94/1dae942fae525530b9154d315299929.jpg","date":"2012-05-15","year":2012,"month":5,"lon":-81.90651,"lat":26.41989,"tags":"cape+coral,everglades,florida,usa","S2CellId":"876bef0000000000","result":7875,"accuracy":0.037124526,"title":"_DSC3167"}
{"id":8569639618,"url":"http://farm9.staticflickr.com/8112/8569639618_02dd558c80.jpg","path":"13f/a65/13fa65b2f43e8c9e2985baf5255d2fc.jpg","date":"2013-03-10","year":2013,"month":3,"lon":-81.800644,"lat":24.55295,"tags":"2013,duval,florida,key,march,street,west","S2CellId":"88d1c00000000000","result":8570,"accuracy":0.027234128,"title":"Duval+Street+-+Key+West%2C+Florida","description":"Duval+Street+-+Key+West%2C+Florida"}
{"id":260467992,"url":"http://farm1.staticflickr.com/105/260467992_4f67c2f476.jpg","path":"623/28f/62328fdbe59ef8d8d07a70e422b4eda6.jpg","date":"2006-09-24","year":2006,"month":9,"lon":-81.38736,"lat":25.869843,"tags":"florida,miami,vacation","S2CellId":"88da400000000000","result":8606,"accuracy":0.3456985,"title":"MiamiVacation+019"}
{"id":6594671597,"url":"http://farm8.staticflickr.com/7008/6594671597_123d792a62.jpg","path":"983/378/9833781dfbebadbcef1430547ffb6fb4.jpg","date":"2011-09-20","year":2011,"month":9,"lon":-81.79678,"lat":24.54764,"tags":"2011,500d,butterfly,canon,canon+eos+500d,eos,florida,florida+keys,green,key+west,keys,moon+moth,road+trip","S2CellId":"883c400000000000","result":8355,"accuracy":0.018615665,"title":"Moon+moth","description":"Road+Trip+Florida%2C+September+20+2011.%0A%0AToday%2C+we+started+out+on+the+island+where+we+stayed%3A+Marathon.+We+decided+to+visit+Sombrero+beach.+%0A%0AAfter+Sombrero+beach%2C+we+drove+to+Key+West.+We+first+visited+the+Little+White+House%2C+where+president+Harry+Truman+lived+for+short+period+of+time.+%0A%0AWe+took+a+walk+to+get+to+know+Key+West+%28was+smaller+than+I+imagined%29.+After+a+nice+walk%2C+it+started+to+rain+a+bit+so+we+went+to+the+Butterfly+and+Nature+Observatory.+Had+a+great+time%21+The+Observatory+has+a+lot+of+great+animals+to+watch+and+take+pictures+of+%3A%29"}
{"id":7758556924,"url":"http://farm8.staticflickr.com/7122/7758556924_1e8722dce3.jpg","path":"112/95b/11295b5ebabf601f924eca9fe13879.jpg","date":"2012-07-18","year":2012,"month":7,"lon":-81.261925,"lat":25.888262,"tags":"2012+july,tamiami","S2CellId":"54bf400000000000","result":6299,"accuracy":0.0062303008,"title":"July+16%2C+2012+Alligator","description":"A+day+drive+along+Tamiami+Trail.%0A%0AAn+aligator+at+a+rest+stop+on+the+side+of+the+road."}
{"id":2116360993,"url":"http://farm3.staticflickr.com/2386/2116360993_9e62bf9db0.jpg","path":"f03/f1d/f03f1d48f14e9538ae8976ea9aea9540.jpg","date":"2007-12-04","year":2007,"month":12,"lon":-81.89209,"lat":26.592325,"tags":"christmas,family,fun,group,photos,portraits,teen,thesalvationarmy","S2CellId":"39fc000000000000","result":2503,"accuracy":0.009743509,"title":"_MG_8612"}
{"id":2209123225,"url":"http://farm3.staticflickr.com/2289/2209123225_696d68f25e.jpg","path":"da3/762/da376225c4e4797ad64c1b6d400ab.jpg","date":"2008-01-13","year":2008,"month":1,"lon":-81.82102,"lat":24.543015,"tags":"beach,caribbean,costa,costa+mediterranea,cruise,florida,key+west,ship,vacation","S2CellId":"8924000000000000","result":8770,"accuracy":0.09727274,"title":"beach+in+key+west"}
{"id":3532769820,"url":"http://farm4.staticflickr.com/3616/3532769820_3bcab95bac.jpg","path":"879/8d0/8798d029f2069eeeb4b18e1391035.jpg","date":"2009-05-07","year":2009,"month":5,"lon":-81.79707,"lat":24.548223,"tags":"butterfly,butterfly+conservatory,key+west","S2CellId":"4cc91d0000000000","result":5899,"accuracy":0.05736661,"title":"IMG_3413"}
{"id":2537354247,"url":"http://farm4.staticflickr.com/3162/2537354247_ae19f88a2a.jpg","path":"16f/7f6/16f7f67897d03f8abb4b0a354916cec.jpg","date":"2008-05-17","year":2008,"month":5,"lon":-81.805916,"lat":26.131754,"tags":"florida,naples,palm,tree","S2CellId":"2300000000000000","result":1490,"accuracy":0.029297806,"title":"Palms","description":"Palm+trees+near+the+Naples+Pier+at+Naples%2C+Florida."}
{"id":4689457012,"url":"http://farm5.staticflickr.com/4059/4689457012_8ff40c092e.jpg","path":"9e2/9be/9e29be3aa2471ad6a776b66502a73e.jpg","date":"2009-08-03","year":2009,"month":8,"lon":-82.09553,"lat":26.444908,"tags":"%27ding,darling%27,nature,reserve","S2CellId":"2cb0000000000000","result":1530,"accuracy":0.21511921,"title":"Mangroves"}
{"id":4360835943,"url":"http://farm5.staticflickr.com/4049/4360835943_7b69bfa60c.jpg","path":"664/ab1/664ab16c7ae21d852d7f14d0fd812763.jpg","date":"2010-02-15","year":2010,"month":2,"lon":-81.631714,"lat":26.602037,"tags":"chihuahua,chihuahuas","S2CellId":"88f5010000000000","result":8705,"accuracy":0.018816542,"title":"Sleepy+Luna","description":"By+the+fire"}
{"id":5479890270,"url":"http://farm6.staticflickr.com/5011/5479890270_3cdf09921f.jpg","path":"8da/0b6/8da0b666b8782362eac5813d1b323a.jpg","date":"2011-02-26","year":2011,"month":2,"lon":-81.78935,"lat":26.167725,"tags":"naples,naples+zoo,zoo","S2CellId":"8620a4c000000000","result":7506,"accuracy":0.07266897,"title":"2011-02-26+at+12-14-56"}
{"id":5731957324,"url":"http://farm3.staticflickr.com/2034/5731957324_43964f3f84.jpg","path":"158/ab6/158ab666872fee51f18dc3f9aa53e.jpg","date":"2008-11-07","year":2008,"month":11,"lon":-81.99646,"lat":26.6315,"tags":"florida,restaurant+captiva+dining+food,southwest+florida","S2CellId":"80c8c43b00000000","result":7240,"accuracy":0.011121206,"title":"Bubble+Room+dessert"}
{"id":4003128866,"url":"http://farm3.staticflickr.com/2563/4003128866_5b7de79be6.jpg","path":"832/4aa/8324aafb0f7ceac80968143d1f41ce.jpg","date":"2009-08-17","year":2009,"month":8,"lon":-81.864716,"lat":26.380508,"tags":"beach,biome,bonita,canine,corgi,cute,cute+dog,dog,dog+beach,dogs,estero+bay,fl,florida,forest,herd,herding,landscape,lovers+key,mangrove,off+leash,park,pembroke,pembroke+welsh+corgi,pet,pets,red,red+%26+white,sable,sampson,samson,sand,springs,tidal,water,welsh,white","S2CellId":"488e400000000000","result":5768,"accuracy":0.019271368,"title":"Sampson+at+Dog+Beach","description":"Sampson+has+been+our+buddy+since+2004.+In+the+winter+of+2008%2C+he+suffered+a+severe+perineal+hernia+that+required+a+%242000+surgery+to+repair+it.+At+the+time+of+the+surgery%2C+we+were+told+that+due+to+the+severity+of+the+hernia+that+it+was+likely+to+reoccur.+As+predicted%2C+it+has+reoccurred+and+he+desperately+needs+more+surgery.+Other+than+the+hernia%2C+he+is+a+happy%2C+healthy+and+active+dog+who+should+live+to+his+mid+to+late+teens.+Therefore%2C+I+cannot+in+good+conscience+end+his+life+prematurely.+I+have+also+contacted+a+Corgi+rescue+in+hopes+that+he+could+be+adopted+to+a+family+that+is+more+financially+able+to+care+for+him.+However%2C+since+my+husband+and+I+can%27t+have+children%2C+giving+him+up+for+adoption+because+of+health+issues+seems+as+ridiculous+to+us+as+giving+up+our+9+year+old+child+for+adoption+because+we+can%27t+keep+up+with+the+medical+expenses.+We+work+in+the+service+industry%2C+living+paycheck+to+paycheck+and+our+credit+is+not+good+enough+to+get+a+care+credit+card+that+would+allow+us+to+make+payments.+To+help+us+pay+for+Sampson%27s+surgery%2C+we+have+set+up+a+ChipIn+donation+site+to+raise+funds+for+Sampson%27s+surgery.+So+please+consider+donating+whatever+small+amount+you+can+to+help+keep+Sampson+with+the+family+that+loves+him.+If+you+can%27s+make+a+donation%2C+please+pass+this+info+along+to+friends+who+may+be+able+to+help.+Sampson%2C+his+Corgi+buddies+Shiloh+%26+Rusty+and+his+human+family+thank+you%21+Click+on+the+link+below+to+go+to+Sampson%27s+ChipIn.com+page+to+make+your+donation.+THANK+YOU%21%21%0A%3Ca+href%3D%22http%3A%2F%2Fcorgisampson.chipin.com%2Fsampson-the-corgis-hernia-surgery-fund%22+rel%3D%22nofollow%22%3Ecorgisampson.chipin.com%2Fsampson-the-corgis-hernia-surgery...%3C%2Fa%3E"}
{"id":5723213946,"url":"http://farm6.staticflickr.com/5262/5723213946_c19d490d18.jpg","path":"745/f47/745f4721c2a88e5e7d42b58d9fc8fd9.jpg","date":"2011-04-30","year":2011,"month":4,"lon":-81.81225,"lat":26.61699,"tags":"30.04.11,calusa+nature+center+%26+planetarium,florida,fort+myers,herpe,herpetology","S2CellId":"89c8037000000000","result":9187,"accuracy":0.012795204,"title":"Ambhibians","description":"The+Calusa+Nature+Center+%26+Planetarium+holds+various+reptiles+and+amphibians+in+the+main+building%2C+as+well+as+a+selection+of+birds+in+aviaries+outside.+%0A%0AThe+Calusa+centre+holds+an+aquarium+with+small+Florida+softshell+turtles+%28Apalone+ferox%29+as+well+as+other%2C+unidentified+types.+%0A%0AIt+was+tricky+at+times+taking+shots+-+getting+close+enough+to+reduce+reflection+on+the+glass%2C+not+close+enough+lose+focus+%28although+at+times+the+background+gravel+is+clearer+than+the+beastie%29."}
{"id":2270465160,"url":"http://farm3.staticflickr.com/2062/2270465160_3a5ebb6f67.jpg","path":"2ff/ba5/2ffba5141cfd03b8517dd113394e98.jpg","date":"2008-02-16","year":2008,"month":2,"lon":-81.801155,"lat":26.153069,"tags":"dailyphoto08,dogs,husky","S2CellId":"89d4d40000000000","result":9260,"accuracy":0.016850283,"title":"FEB162008","description":"You+are+waking+me+up+for+what%3F++...+All+in+the+day%27s+routine+-+sleep%2C+eat%2C+outside%2C+treat%2C+nap%2C+outside%2C+treat%2C+sleep%2C+eat%2C+outside%2C+treat%2C+sleep...hey%2C+what+do+you+expect%3F++Naples%2C+FL"}
{"id":2382858550,"url":"http://farm3.staticflickr.com/2191/2382858550_777c624d8b.jpg","path":"a9b/dd1/a9bdd108423fb7386d9f5ff38c49593.jpg","date":"2008-04-02","year":2008,"month":4,"lon":-81.81015,"lat":26.16475,"tags":"family,naples,travel","S2CellId":"8893000000000000","result":8521,"accuracy":0.05059767,"title":"MVI_4454.jpg"}
{"id":4336726200,"url":"http://farm3.staticflickr.com/2715/4336726200_6960479682.jpg","path":"ff1/ad0/ff1ad0c5d1c5e42281c3e72dae8f187.jpg","date":"2009-11-24","year":2009,"month":11,"lon":-81.07741,"lat":24.7231,"tags":"crane+house,crane+point,florida,florida+keys,key+vaca,keys,marathon,vaca+key","S2CellId":"479e7c0000000000","result":3861,"accuracy":0.038130082,"title":"Crane+House+ramp","description":"Crane+House%2C+Crane+Point+Museum%2C+Nature+Center+and+Historic+Site%2C+Key+Vaca%2C+Marathon%2C+FL+%28Florida+Keys%29"}
{"id":2506320611,"url":"http://farm3.staticflickr.com/2064/2506320611_0663367f73.jpg","path":"8c5/0f0/8c50f042b7b762868f420df7fd545f9.jpg","date":"2008-05-19","year":2008,"month":5,"lon":-82.19303,"lat":26.52838,"tags":"captiva,captiva+sisummit+search+insider+summit+mediapost+siscaptiva+sismay08+florida+captiva+captiva+island,florida,mediapost,search+insider+summit,sismay08,sisummit,sisummit+search+insider+summit+mediapost+siscaptiva+sismay08,south+seas+island+resort","S2CellId":"88d0a631cabb5071","result":8563,"accuracy":0.11902241,"title":"IMG_3523","description":"Photos+from+MediaPost%27s+Search+Insider+Summit%2C+May+08%2C+Captiva+Island%2C+FL"}
{"id":4656996687,"url":"http://farm5.staticflickr.com/4068/4656996687_c1af05449b.jpg","path":"177/f6d/177f6d42f5441d3494f861bc969610.jpg","date":"2010-05-22","year":2010,"month":5,"lon":-81.8646,"lat":26.380426,"tags":"beach,biome,boating,bonita+springs,canine,carl+e+johnson+county+park,corgi,cute,day,dog,dog+beach,estero+bay,fishing,fl,florida,forest,gulf+of+mexico,leash,lovers+key,mangrove,off,off-leash,park,pembroke,red,rusty,sable,sampson,sand,shiloh,south,sun,sunny,swim,tidal,water,welsh,west,white","S2CellId":"2bfc000000000000","result":1527,"accuracy":0.041121364,"title":"20100522+145"}
{"id":78281769,"url":"http://farm1.staticflickr.com/43/78281769_dd29c50985.jpg","path":"fb6/02d/fb602d1f1de14dd9c3de12aa3f8446f.jpg","date":"2005-12-27","year":2005,"month":12,"lon":-81.80782,"lat":24.559975,"tags":"key+west,sunset","S2CellId":"8810c00000000000","result":8173,"accuracy":0.037754513,"title":"Sunset+%2812.27.2005%29","description":"Mallory+Square%2C+Key+West%2C+Fla.+Everyday%2C+there%27s+a+celebration+marking+the+sunset.+This+is+why."}
{"id":5708482174,"url":"http://farm4.staticflickr.com/3179/5708482174_8a1321c3a8.jpg","path":"1e3/c63/1e3c63d8e035d6327afedf9fec436fef.jpg","date":"2011-04-28","year":2011,"month":4,"lon":-81.901726,"lat":26.41206,"tags":"27.04.11,florida,fort+myers,fort+myers+beach","S2CellId":"1ed0000000000000","result":1478,"accuracy":0.014997738,"title":"The+Lagoon","description":"The+lagoon+at+Fort+Myers+Beach+at+dusk."}
{"id":4526501345,"url":"http://farm5.staticflickr.com/4024/4526501345_9a23e3dfd7.jpg","path":"26f/c48/26fc48cb9ab79fc8541deacc9fa4c43.jpg","date":"2010-04-16","year":2010,"month":4,"lon":-81.77204,"lat":26.45891,"tags":"eye-fi,florida,lehigh+acres,united+states","S2CellId":"1ed0000000000000","result":1478,"accuracy":0.017032705,"title":"IMG_0288.JPG"}
{"id":4688720415,"url":"http://farm2.staticflickr.com/1273/4688720415_8ff0cd975b.jpg","path":"991/917/991917285447f11a174b50cdead13de0.jpg","date":"2009-08-05","year":2009,"month":8,"lon":-82.02444,"lat":26.478563,"tags":"florida,fort+myers,palm+trees,sanibel+causeway","S2CellId":"88d7000000000000","result":8573,"accuracy":0.1103485,"title":"Sanibel+Causeway","description":"Palm+Trees%2C+Sanibel+Causeway%2C+Fort+Myers%2C+Florida"}
{"id":7622164458,"url":"http://farm9.staticflickr.com/8009/7622164458_a337f6f968.jpg","path":"ee6/b58/ee6b58fea1bcb85d76a1e162725b75c.jpg","date":"2011-04-16","year":2011,"month":4,"lon":-82.26314,"lat":26.753658,"tags":"australian+shephard,beach,boca+grande,d700,dogs,fl,yorkie","S2CellId":"8f4c400000000000","result":9516,"accuracy":0.031696126,"title":"Boca+Grande"}
{"id":444714707,"url":"http://farm1.staticflickr.com/179/444714707_734a7c9ed9.jpg","path":"afb/2cc/afb2cc41d087c9ff8de234d83afdbebb.jpg","date":"2007-03-06","year":2007,"month":3,"lon":-81.083405,"lat":24.692167,"tags":"03-2007,florida,keys,vacation","S2CellId":"9aab000000000000","result":9926,"accuracy":0.08292678,"title":"IMG_3783","description":"Exposed+coral+reef+at+Sombrero+Beach%2C+Marathon+Key%2C+Florida+on+March+6th%2C+2007."}
{"id":3724154482,"url":"http://farm4.staticflickr.com/3453/3724154482_a924f26971.jpg","path":"ed7/61c/ed761ceebb71b53d0241e39d4256dd2.jpg","date":"2009-07-13","year":2009,"month":7,"lon":-81.7975,"lat":26.14259,"tags":"2009,birthday,florida,july,naples,restaurant,seafood,steak,summer,trulucks","S2CellId":"8620a60c00000000","result":7510,"accuracy":0.0036146326,"title":"Truluck%27s+Bottled+Water"}
{"id":4675054832,"url":"http://farm5.staticflickr.com/4040/4675054832_ebbebe2143.jpg","path":"ea6/ff5/ea6ff5562946a2543c8d212eb61d3e8d.jpg","date":"2010-05-29","year":2010,"month":5,"lon":-82.74829,"lat":24.629091,"tags":"cactus,dry+tortugas+national+park,florida,fort+jefferson,garden+key,key+west,keys,officers+quarters,paradise,tropical,united+states+of+america,usa","S2CellId":"6af0000000000000","result":6658,"accuracy":0.025717955,"title":"Cactus+and+Officers+Quarters+inside+Fort+Jefferson"}
{"id":5817936531,"url":"http://farm6.staticflickr.com/5109/5817936531_f27bd116b2.jpg","path":"261/486/261486283248de98cce29e13c451bc1.jpg","date":"2011-06-07","year":2011,"month":6,"lon":-82.19981,"lat":26.55025,"tags":"%23csst2011,capitva,florida,sociotechnical","S2CellId":"89acec0000000000","result":8792,"accuracy":0.009923719,"title":"CSST2011Day2-+Chip%27s+research+unplugged"}
{"id":7223328326,"url":"http://farm8.staticflickr.com/7083/7223328326_33bf159c0c.jpg","path":"aad/9c1/aad9c16bcecb88ec294c68249242fe65.jpg","date":"2011-11-06","year":2011,"month":11,"lon":-81.75611,"lat":26.332375,"tags":"bonita+springs,florida","S2CellId":"87d5000000000000","result":7996,"accuracy":0.01005022,"title":"PB068280","description":"OSU+Booth+at+Flea+Market+in+Bonita+Springs%2C+Florida"}
{"id":3935706932,"url":"http://farm3.staticflickr.com/2650/3935706932_511cf2a1e4.jpg","path":"91a/28e/91a28ed9a6cb38dae7876927ba48ff5.jpg","date":"2009-07-25","year":2009,"month":7,"lon":-81.853,"lat":26.63369,"tags":"agriculture,city,community,farm,farming,florida,fort+myers,garden,lee+county,organic,service,sown+together,stars+complex,urban,vegetable,volunteer","S2CellId":"8f73000000000000","result":9550,"accuracy":0.48410738,"title":"Stars+Complex+Urban+Garden","description":"Stars+Complex+Urban+Garden%3A+7%2F25%2F09%2Cday+three+of+three.%0A%0ASown+Together+partners+with+Ft.+Myers%E2%80%99+STARS+Complex%2C+The+Boys+and+Girls+Clubs+of+Lee+County%2C+and+Key+Club+Volunteers+to+construct+an+urban+vegetable+garden."}
{"id":5699315815,"url":"http://farm6.staticflickr.com/5107/5699315815_75322f5b66.jpg","path":"488/2b9/4882b9522e5599ca19d85ea8e67f.jpg","date":"2011-04-06","year":2011,"month":4,"lon":-81.74874,"lat":24.572695,"tags":"boat,cuban,florida,holiday,key+west,refugee,usa,uv+filter","S2CellId":"80c7000000000000","result":7223,"accuracy":0.013340364,"title":"IMG_1414.jpg"}
{"id":11127468135,"url":"http://farm3.staticflickr.com/2863/11127468135_fbcc6f5bcb.jpg","path":"1da/07b/1da07b15e83616638bbc8f726923167b.jpg","date":"2013-11-29","year":2013,"month":11,"lon":-82.03481,"lat":26.440138,"tags":"365in2013,beach+at+sanibel+moorings,sanibel","S2CellId":"89a4000000000000","result":8776,"accuracy":0.06711527,"title":"333%2F365%3A+Farewell+View"}
{"id":4975835532,"url":"http://farm5.staticflickr.com/4088/4975835532_0fc6b8bb42.jpg","path":"53a/b5a/53ab5a2df528cf976febe22a8369f5d.jpg","date":"2010-09-09","year":2010,"month":9,"lon":-81.80154,"lat":24.55173,"tags":"art,beach,clouds,coast,dusk,florida,halloween,key+west,landscape,moon,orange,scary,stars,sun,sunny,sunrise,sunset,texture,water,waterline","S2CellId":"88d7000000000000","result":8573,"accuracy":0.06800211,"title":"keywestsunset+038"}
{"id":5916840212,"url":"http://farm7.staticflickr.com/6007/5916840212_9820705211.jpg","path":"993/2a9/9932a9d0c4a95d9ae846b32db16ee1f0.jpg","date":"2011-02-16","year":2011,"month":2,"lon":-81.795456,"lat":24.548279,"tags":"butterfly+and+nature+conservatory,florida,florida+keys,key+west,united+states+of+america","S2CellId":"8085874300000000","result":6973,"accuracy":0.069107346,"title":"Iguana+in+the+Key+West+Butterly+Conservatory"}
{"id":3676808329,"url":"http://farm4.staticflickr.com/3602/3676808329_7d9b08fb79.jpg","path":"552/a5e/552a5e277c897410327117684a9f92c.jpg","date":"2009-06-27","year":2009,"month":6,"lon":-81.823524,"lat":26.261612,"tags":"bay,canon+ef-s+18-55mm+f%2F3.5-5.6+usm,continents,florida,lenses+and+flashes,naples,north+america,panorama,places,type+of+shot,united+states,usa","S2CellId":"88d9b44000000000","result":8592,"accuracy":0.08373221,"title":"The+View+from+my+Naples+Balcony","description":"Made+from+6+images+in+Hugin"}
{"id":5492787509,"url":"http://farm6.staticflickr.com/5140/5492787509_89c60c5702.jpg","path":"53a/83f/53a83f974d72e7da8c6f2af4022ee8e.jpg","date":"2011-02-22","year":2011,"month":2,"lon":-81.32741,"lat":24.69001,"tags":"daily+ray+of+hope,key+deer,no+name+key+flordia","S2CellId":"182d000000000000","result":1421,"accuracy":0.13859962,"title":"Key+Deer","description":"In+the+1950s%2C+only+25+Key+Deer+remained+%28due+to+hunting+pressure%29.+Listed+as+an+endangered+species+in+1967%2C+today+there+are+estimated+to+be+about+800.+This+photo+was+taken+on+No+Name+Key."}
{"id":9840242146,"url":"http://farm8.staticflickr.com/7326/9840242146_3cf8aec593.jpg","path":"33b/bab/33bbab7c10c672549e66c3fb66417ab4.jpg","date":"2013-07-11","year":2013,"month":7,"lon":-81.1253,"lat":24.707045,"tags":"america,boat,bridge,coastal,florida,florida+keys,keys,knights+key-pigeon+key-moser+channel-pacet+channel+bridge,marathon,overseas+highway,panorama,places,sea,seven+mile+bridge,united+states,usa","S2CellId":"47ab400000000000","result":3956,"accuracy":0.016659409,"title":"Seven+Mile+Bridge.","description":"The+new+and+old+Seven+Mile+Bridges%2C+part+of+the+Overseas+Highway+in+the+Florida+Keys."}
{"id":4676202221,"url":"http://farm5.staticflickr.com/4071/4676202221_e6677235f3.jpg","path":"314/f73/314f739636f0bd433575ab80be8bea5.jpg","date":"2010-05-16","year":2010,"month":5,"lon":-81.38636,"lat":25.845129,"tags":"animals,birds,florida,landscapes,nature,water","S2CellId":"07f0000000000000","result":124,"accuracy":0.041286115,"title":"Royal+terns","description":"%3Ci%3EThalasseus+maximus%3C%2Fi%3E.+10%2C000+Islands%2C+near+Everglade+City%2C+Florida."}
{"id":5452034722,"url":"http://farm6.staticflickr.com/5017/5452034722_30eecf9a1d.jpg","path":"d8b/b93/d8bb9394c2d919f8226da83a10c53e7e.jpg","date":"2011-02-16","year":2011,"month":2,"lon":-81.766975,"lat":26.173529,"tags":"2011365,architecture,dailyphoto11,edtech3652011,embellishment,overpass","S2CellId":"80c2c0c000000000","result":7186,"accuracy":0.021992464,"title":"02.16.11","description":"Architectural+embellishment+of+crossed+palms+for%2C+an+otherwise+plain%2C+overpass+bridge.+Its+solid+colors+are+both+stark+and+simple%2C+appealing+in+a+comforting+way.+The+lines+and+shapes+echo+that+simplicity...and+yet+there%27s+an+element+of+elegance+when+you+think+about+this+being+a+highway+overpass%21++It+seems+contradictory+and+yet+has+been+deemed+appropriate+in+this+particular+environment.+Golden+Gate+Parkway+%26+Airport+Pulling+Road%2C+Naples%2C+FL"}
{"id":12663549933,"url":"http://farm6.staticflickr.com/5501/12663549933_9943eb67f3.jpg","path":"7a2/510/7a25104fecba5e6cea6c87b709f16b4.jpg","date":"2014-02-20","year":2014,"month":2,"lon":-81.38898,"lat":24.665474,"tags":"instagram+app,iphoneography,lo-fi,square,square+format","S2CellId":"0d1ac00000000000","result":238,"accuracy":0.035765886,"title":"Still+enjoying+the+pool+today.+%23februaryvacation+%23floridakeys+%40emma_ballerina14"}
{"id":650701860,"url":"http://farm2.staticflickr.com/1092/650701860_88bf19e934.jpg","path":"6a5/ea4/6a5ea4bec168bda3d7a56bfeaee211.jpg","date":"2004-03-09","year":2004,"month":3,"lon":-81.735985,"lat":26.71325,"tags":"alice,fl,florida,fort,fort+myers,ft,myers,shuttersparks,technorati,tom","S2CellId":"88dd900000000000","result":8636,"accuracy":0.080794774,"title":"040309_017","description":"Tom+and+Alice+working+with+the+special+doggie+ladder."}
{"id":2113775240,"url":"http://farm3.staticflickr.com/2298/2113775240_71835bcb64.jpg","path":"3ca/362/3ca362bdabfe5623a10e9b11684822.jpg","date":"2007-12-15","year":2007,"month":12,"lon":-81.7273,"lat":25.941973,"tags":"bird,birds,florida,ibis,marco+island,path,pink,sigma+dg+28-300mm,white","S2CellId":"88db300000000000","result":8609,"accuracy":0.17827815,"title":"marching","description":"like+a+police+line+combing+for+evidence.+they+were+very+thorough"}
{"id":4917662913,"url":"http://farm5.staticflickr.com/4075/4917662913_d42b6d525b.jpg","path":"7ea/e19/7eae1919a324d73659b9ca32fd59c.jpg","date":"2010-08-16","year":2010,"month":8,"lon":-81.8106,"lat":24.544907,"tags":"key+west","S2CellId":"34e4c00000000000","result":2245,"accuracy":0.10774481,"title":"IMG_2623"}
{"id":5714452822,"url":"http://farm4.staticflickr.com/3041/5714452822_4eaf13aac4.jpg","path":"c56/6dc/c566dcedf0d487a454a226a8316e99b.jpg","date":"2011-04-28","year":2011,"month":4,"lon":-81.87929,"lat":26.63511,"tags":"28.04.11,banyan,edison+and+ford+winter+residences,edison+winter+residence,florida,ford+winter+residence,fort+myers,tree","S2CellId":"88d9d00000000000","result":8604,"accuracy":0.0563582,"title":"The+Banyan+Tree","description":"Outside+the+Edison+laboratory+%28part+of+the+Edison+and+Ford+Winter+Residences%29+is+this+huge+banyan+tree.+%0AApparently+this+is+the+first+banyan+tree+in+the+US%2C+and+it+was+planted+by+Thomas+Edison.+Originally+about+4ft%2C+it+is+now+over+a+hundred+times+that.+%0A%0AThis+tree+has+a+slightly+larger+than+life+statue+of+Edison+by+it.+%0A%0ATaken+in+the+grounds+of+the+Edison+Winter+Residence."}
{"id":119508733,"url":"http://farm1.staticflickr.com/53/119508733_b1a544f01c.jpg","path":"7c7/f59/7c7f59b51335afadae15e2143abec.jpg","date":"2006-03-22","year":2006,"month":3,"lon":-81.7945,"lat":24.559536,"tags":"florida,key+west,usa","S2CellId":"80dcd7d100000000","result":7349,"accuracy":0.0025022337,"title":"2006.03.21+%2856%29"}
{"id":4773211017,"url":"http://farm5.staticflickr.com/4121/4773211017_85502f5a7f.jpg","path":"935/b6a/935b6afbcd359fd28391aa88be5b84ea.jpg","date":"2010-06-03","year":2010,"month":6,"lon":-82.748184,"lat":24.628819,"tags":"dry+tortugas,ft+jefferson","S2CellId":"88fe740000000000","result":8760,"accuracy":0.37328073,"title":"DSC09559"}
{"id":6569201955,"url":"http://farm8.staticflickr.com/7162/6569201955_ab48470757.jpg","path":"16f/715/16f715eb75386a2676f19e862b48d27.jpg","date":"2010-11-03","year":2010,"month":11,"lon":-81.80045,"lat":24.55439,"tags":"keywest,miami+beach","S2CellId":"88f5500000000000","result":8728,"accuracy":0.032063067,"title":"CSC_0229","description":"Junker"}
{"id":256755009,"url":"http://farm1.staticflickr.com/95/256755009_cb238698ea.jpg","path":"5e3/7a9/5e37a997f69db67d1651cca1cba53fe8.jpg","date":"2006-09-27","year":2006,"month":9,"lon":-81.803276,"lat":24.556492,"tags":"blackberry+pearl+photos,cameraphone,dirty,duval+street,easy+job,jester,jokes,key,key+west,sign,west","S2CellId":"88d1c00000000000","result":8570,"accuracy":0.08338463,"title":"Dirty+jokes+for+a+buck","description":"On+Duval+street%2C+this+guy+sits+around+smoking+cigarettes+and+telling+dirty+jokes.%0A%0AWhat+type+of+education+prepares+you+for+a+career+like+this%21%0A%0ASent+from+my+BlackBerry%C2%AE+wireless+handheld"}
{"id":24694703,"url":"http://farm1.staticflickr.com/23/24694703_add0182f85.jpg","path":"5d6/976/5d69767f40b53b377da3ee73a46d4fd.jpg","date":"2005-07-03","year":2005,"month":7,"lon":-81.85887,"lat":26.640438,"tags":"blue,earth,florida,fort+myers,globe,imaginarium,letters,sign,water","S2CellId":"89e4900000000000","result":9369,"accuracy":0.0033385148,"title":"water","description":"it+was+only+pictures+of+water%2C+no+actual+water+was+anywhere+to+be+found"}
{"id":286783298,"url":"http://farm1.staticflickr.com/112/286783298_c75f6c6a33.jpg","path":"a09/cdb/a09cdb568c0376c559a561a1a6b32ee.jpg","date":"2006-11-02","year":2006,"month":11,"lon":-81.56688,"lat":26.145576,"tags":"collier,danaidae,danaus,fakahatchee,florida,gilippus,punicea,queen,rattlebox,sesbania,strand","S2CellId":"8620af4000000000","result":7522,"accuracy":0.14520024,"title":"Queens","description":"Queens+%28Danaus+gilippus+--+Family%3A+Danaidae%29+on+Rattlebox+%28Sesbania+punicea%29+Picayune+Strand+State+Forest%2C+Collier+Co.%2C+Florida+10%2F22%2F2006"}
{"id":522697239,"url":"http://farm1.staticflickr.com/245/522697239_e74c01ad50.jpg","path":"c7a/61e/c7a61ea99017a5297c5a59bd47c624.jpg","date":"2007-05-30","year":2007,"month":5,"lon":-81.77188,"lat":26.464685,"tags":"google,iblee,leeleblanc,shiftspace.org","S2CellId":"54a4000000000000","result":6288,"accuracy":0.09507827,"title":"ShiftSpace+on+Google+homepage"}
{"id":3572060376,"url":"http://farm4.staticflickr.com/3329/3572060376_fbf456583f.jpg","path":"4e6/e8c/4e6e8cba322895b863ed6d8fbc4eab.jpg","date":"2009-05-25","year":2009,"month":5,"lon":-81.796585,"lat":24.547445,"tags":"butterfly,butterfly+conservatory,ef-s18-55mm+f%2F3.5-5.6+is,florida,key+west","S2CellId":"88d9030000000000","result":8578,"accuracy":0.03112083,"title":"Butterfly"}
{"id":1244397017,"url":"http://farm2.staticflickr.com/1262/1244397017_c231477cb0.jpg","path":"4a5/328/4a53285ddb5cb218cdd089e994a0c8cc.jpg","date":"2007-08-26","year":2007,"month":8,"lon":-81.72558,"lat":26.4353,"tags":"albert+schweitzer,leeleblanc,sunday","S2CellId":"477eae3000000000","result":3462,"accuracy":0.02017417,"title":"goal+4+today"}
{"id":6316631124,"url":"http://farm7.staticflickr.com/6109/6316631124_3039c5596d.jpg","path":"205/c49/205c493cc5cf7629d77122375af2cdbd.jpg","date":"2011-11-05","year":2011,"month":11,"lon":-81.78849,"lat":26.175467,"tags":"freedom+park","S2CellId":"47e6d00000000000","result":4688,"accuracy":0.06842501,"title":"Who+Goes+There%3F"}
{"id":116185416,"url":"http://farm1.staticflickr.com/36/116185416_f14c16212e.jpg","path":"c7f/d95/c7fd959087ed9ba052ca196961894fe.jpg","date":"2006-03-21","year":2006,"month":3,"lon":-81.86737,"lat":26.634645,"tags":"2006,baseball,davidortiz,redsox,springtraining","S2CellId":"88dec00000000000","result":8643,"accuracy":0.17889664,"title":"david+ortiz"}
{"id":599335101,"url":"http://farm2.staticflickr.com/1100/599335101_26fdb61804.jpg","path":"a89/246/a89246cf95e2134264ec2195bf83fe70.jpg","date":"2007-06-23","year":2007,"month":6,"lon":-81.78978,"lat":26.44998,"tags":"iblee,leeleblanc,tametheweb.com","S2CellId":"0d47100000000000","result":398,"accuracy":0.011725954,"title":"Thanks+for+the+add"}
{"id":1228992501,"url":"http://farm2.staticflickr.com/1161/1228992501_b2acd9dd4d.jpg","path":"89a/952/89a95288694da9823913be6811d8be.jpg","date":"2007-08-19","year":2007,"month":8,"lon":-81.09249,"lat":24.697247,"tags":"2007,bahia,beach,florida,honda,keys,ocean,park,roadtrip,state","S2CellId":"2300000000000000","result":1490,"accuracy":0.07329678,"title":"BHpalms.JPG","description":"Bahia+Honda+State+Park%2C+Florida+Keys%0A%0A%3Ca+href%3D%22http%3A%2F%2Fwww.wegotocoolplaces.com%22%3Ewww.wegotocoolplaces.com%3C%2Fa%3E"}
{"id":4286892626,"url":"http://farm5.staticflickr.com/4036/4286892626_b15113cb2e.jpg","path":"12a/4cd/12a4cd2e69495673d754ccf553ffb3e7.jpg","date":"2008-11-27","year":2008,"month":11,"lon":-81.810616,"lat":24.547674,"tags":"birds,fall,florida,fortzacharytaylor,juvenile,keywest,nature,nyctanassaviolacea,yellowcrownednightheron","S2CellId":"88d9300000000000","result":8584,"accuracy":0.028858243,"title":"Yellow-crowned+Night+Heron%2C+Juvenile","description":"This+juvenile+checked+me+out%2C+then+quickly+retreated+into+the+shade+of+a+tree+along+the+water%27s+edge."}
{"id":6182123387,"url":"http://farm7.staticflickr.com/6152/6182123387_c174f7ee68.jpg","path":"7b4/4ce/7b44cef08ea41be1bfdf47eb83dd4665.jpg","date":"2011-01-20","year":2011,"month":1,"lon":-81.80615,"lat":24.558355,"tags":"2011,beer,fall,florida,kelly%27s,key+west","S2CellId":"88d1c00000000000","result":8570,"accuracy":0.033418726,"title":"house+beers+at+kelly%27s"}
{"id":6941486771,"url":"http://farm8.staticflickr.com/7206/6941486771_928bf37b09.jpg","path":"761/b2f/761b2f2c65bfa5793cd7b7883c1e09e.jpg","date":"2012-02-28","year":2012,"month":2,"lon":-82.34652,"lat":26.900639,"tags":"englewood+beach,manasota+key","S2CellId":"8810c00000000000","result":8173,"accuracy":0.04888482,"title":"IMG_4504"}
{"id":8082890628,"url":"http://farm9.staticflickr.com/8187/8082890628_e70015b058.jpg","path":"249/786/249786a14ad4fe4851dea98481ff25b.jpg","date":"2012-10-13","year":2012,"month":10,"lon":-81.77152,"lat":26.106968,"tags":"naples+botanical+garden","S2CellId":"88d0a631cabb5071","result":8563,"accuracy":0.12732005,"title":"Slice+of+Florida"}
{"id":443617823,"url":"http://farm1.staticflickr.com/169/443617823_673d401a5b.jpg","path":"961/3b5/9613b57d6d9f5b86ec7e3520b0bd1b88.jpg","date":"2007-03-17","year":2007,"month":3,"lon":-81.27765,"lat":24.656942,"tags":"2007,a710,bahia,canon,caribbean,conch+republic,cr,ferien,florida,florida+keys,fr%C3%BChling,golf+von+mexiko,gulf+of+mexico,holiday,honda,is,m%C3%A4rz,march,park,powershot,spring,state,urlaub,usa,vacation","S2CellId":"3b05000000000000","result":2531,"accuracy":0.05408331,"title":"Bahia+Honda+State+Park%2C+FL"}
{"id":2053095287,"url":"http://farm3.staticflickr.com/2073/2053095287_20c95c5da5.jpg","path":"6d4/f52/6d4f520abd9b8cb87d175f673636221.jpg","date":"2007-11-21","year":2007,"month":11,"lon":-81.80038,"lat":24.554695,"tags":"2007,50mm1.8f,ernesthemingway,florida,hemingway,key+west","S2CellId":"88d0a631cabb5071","result":8563,"accuracy":0.096201025,"title":"One+of+47+Hemingway+cats"}
{"id":5552529921,"url":"http://farm6.staticflickr.com/5148/5552529921_51d641bd9d.jpg","path":"1ae/5a0/1ae5a022d55daeb97599f07557719f6b.jpg","date":"2011-03-16","year":2011,"month":3,"lon":-82.14645,"lat":26.454226,"tags":"bird,common+ground-dove,dove,florida,florida+birds,sanibel","S2CellId":"4879440000000000","result":5477,"accuracy":0.011142334,"title":"Common+Ground-Dove","description":"Bowman%27s+Beach+area%2C+Sanibel%2C+FL"}
{"id":2327858078,"url":"http://farm4.staticflickr.com/3068/2327858078_6c260f9011.jpg","path":"2c6/1b4/2c61b496bb37df82839ac81f9db24330.jpg","date":"2008-03-11","year":2008,"month":3,"lon":-81.80196,"lat":26.153744,"tags":"branches,complex,dailyphoto08,trees,trunk","S2CellId":"80d9549000000000","result":7295,"accuracy":0.05507038,"title":"MAR112008","description":"The+complexity+of+this+Cuban+Laurel+tree+trunk+provides+intriguing+interpretations.++What+do+you+think%3F+++Naples%2C+FL"}
{"id":3310319633,"url":"http://farm4.staticflickr.com/3345/3310319633_98a87370bc.jpg","path":"b06/6d2/b066d2229319d3bac6b4378cfb925e3.jpg","date":"2009-02-16","year":2009,"month":2,"lon":-81.80553,"lat":26.12845,"tags":"beach,florida,landscape,naples,sunset","S2CellId":"80dc030000000000","result":7325,"accuracy":0.02554258,"title":"Jack+Silhouette","description":"Sunset+at+the+beach%2C+Naples%2C+FL"}
{"id":5845667429,"url":"http://farm3.staticflickr.com/2454/5845667429_337454c847.jpg","path":"525/073/525073ec994c50f488b527417e7cdca1.jpg","date":"2011-06-15","year":2011,"month":6,"lon":-81.96217,"lat":26.858456,"tags":"butterflies,butterfly,canon+ef+300mm+f%2F4l+is+usm,canon+ef+extender+1.4x+ii,canon+eos+rebel+xsi,florida,lepidoptera,nature,outdoors,wildlife","S2CellId":"80e9500000000000","result":7405,"accuracy":0.100615256,"title":"Little+Metalmark"}
{"id":8564641109,"url":"http://farm9.staticflickr.com/8239/8564641109_32aef8280a.jpg","path":"327/6af/3276afcb968a64a26a391624cc9a2877.jpg","date":"2013-03-13","year":2013,"month":3,"lon":-81.60481,"lat":26.375011,"tags":"audubon,birdi-watching,corkscrew,florida,nature,sanctuary,swamp","S2CellId":"88da400000000000","result":8606,"accuracy":0.23913746,"title":"Corkscrew+Swamp+boardwalk","description":"Maybe+there%27s+a+nicer+boardwalk+in+the+world+somewhere%2C+but+this+is+tops+on+our+list.++Beautiful+easy+2%2B+miles+through+varied+habitats+with+lots+of+great+birds."}
{"id":3078811066,"url":"http://farm4.staticflickr.com/3012/3078811066_48c82a2bde.jpg","path":"ecb/167/ecb167bce1aea86c6f3dd69de4a7165.jpg","date":"2008-11-21","year":2008,"month":11,"lon":-81.79184,"lat":24.565859,"tags":"america,florida,holiday,http%3A%2F%2Fwww.nordictouch.co.uk,key+west,marco+island,miami,south+beach,usa,vacation","S2CellId":"88d1c00000000000","result":8570,"accuracy":0.593989,"title":"Key+West"}
{"id":3154061700,"url":"http://farm4.staticflickr.com/3290/3154061700_9dd29d86d8.jpg","path":"72d/8d3/72d8d36026ae243aaeb56c67985443.jpg","date":"2007-04-03","year":2007,"month":4,"lon":-81.39633,"lat":24.640152,"tags":"florida+keys,scuba","S2CellId":"8f4c400000000000","result":9516,"accuracy":0.036859054,"title":"Nancy+Heading+Out+To+Dive+Looe+Key+Reef+%284-3-07%29"}
{"id":4338065567,"url":"http://farm3.staticflickr.com/2780/4338065567_e59a279e85.jpg","path":"84b/24f/84b24f3c6f1bc4ef6f3411f9733ef53.jpg","date":"2009-11-24","year":2009,"month":11,"lon":-81.12434,"lat":24.70661,"tags":"favorite,florida,florida+keys,keys,knight%27s+key,marathon,orange,seven-mile+bridge,sun,sunset","S2CellId":"8c13000000000000","result":9418,"accuracy":0.058536995,"title":"Seven-mile+sunset+8","description":"Sunset+at+Seven-Mile+Bridge%2C+Knight%27s+Key%2C+Marathon%2C+FL+%28Florida+Keys%29"}
{"id":8638758786,"url":"http://farm9.staticflickr.com/8394/8638758786_6dd6f2b228.jpg","path":"879/96b/87996bc42b8a5514e4fe3d9313590a1.jpg","date":"2013-04-10","year":2013,"month":4,"lon":-81.903145,"lat":26.416847,"tags":"amaro,instagram+app,iphoneography,square,square+format","S2CellId":"809f000000000000","result":7130,"accuracy":0.22872262,"title":"My+partner+Natasha+and+I+carved+this+just+for+fun+-+contest+starts+torrow%21"}
{"id":3375693399,"url":"http://farm4.staticflickr.com/3600/3375693399_0904c2f457.jpg","path":"4e1/5ea/4e15eae3aa6a4287c22a220d6997869.jpg","date":"2009-03-22","year":2009,"month":3,"lon":-81.80879,"lat":26.150469,"tags":"beach,breezy,sailing","S2CellId":"1367000000000000","result":1190,"accuracy":0.01761507,"title":"Full+Sail"}
{"id":8161051625,"url":"http://farm9.staticflickr.com/8063/8161051625_98eba92c56.jpg","path":"fd8/1c3/fd81c3ea5871205f4321594ed3b5932e.jpg","date":"2012-01-23","year":2012,"month":1,"lon":-81.81093,"lat":26.431202,"tags":"tct,tin+can+tourists","S2CellId":"88de100000000000","result":8640,"accuracy":0.11360446,"title":"2012+Koreshan"}
{"id":8520160460,"url":"http://farm9.staticflickr.com/8516/8520160460_3945d57e4c.jpg","path":"6f2/e2c/6f2e2c1b5872a18f2a4ed7e207cdb72.jpg","date":"2013-02-28","year":2013,"month":2,"lon":-81.801605,"lat":26.15039,"tags":"2013365,dailyphoto13,hibiscus,pale,pink,pistil,stamen","S2CellId":"0d56c00000000000","result":472,"accuracy":0.009321369,"title":"02.28.13","description":"Pale+pink+hibiscus...with+pistil+and+stamen+showing+a+bold+shadow...is+a+good+ending+to+this+year%27s+February.+%3A%29+3rd+Ave+N+%26+5th+St%2C+Naples%2C+FL"}
{"id":294029776,"url":"http://farm1.staticflickr.com/107/294029776_bfa0cf232e.jpg","path":"3bb/8d1/3bb8d121d6074cfbe5e57971b4f8ba.jpg","date":"2006-11-04","year":2006,"month":11,"lon":-82.365036,"lat":26.931023,"tags":"natebrown","S2CellId":"88db300000000000","result":8609,"accuracy":0.10718389,"title":"Face+the+Crowd","description":"It+was+really+a+beautiful+time."}
{"id":6164932443,"url":"http://farm7.staticflickr.com/6172/6164932443_ac08262c16.jpg","path":"393/994/393994e63d4f30e9209e1f66d1c4eba.jpg","date":"2011-08-31","year":2011,"month":8,"lon":-81.19737,"lat":24.691788,"tags":"bridge,key+west,long,mile,seven","S2CellId":"889d000000000000","result":8525,"accuracy":0.03028522,"title":"A+l%27approche+de+Key+West+-+Le+Seven+Long+Mile+Bridge"}
{"id":8137394318,"url":"http://farm9.staticflickr.com/8329/8137394318_a8dd63b623.jpg","path":"bb5/fef/bb5fef628e4ddebf63bd1e396f1819e1.jpg","date":"2012-10-29","year":2012,"month":10,"lon":-81.869835,"lat":26.542,"tags":"iblee,leeleblanc","S2CellId":"80c8c47000000000","result":7244,"accuracy":0.009652712,"title":"Almost","description":"Bought+it+for+you"}
{"id":3143458482,"url":"http://farm4.staticflickr.com/3110/3143458482_9080b810c4.jpg","path":"b24/595/b24595ba65a1788f86e33d1fb07b6649.jpg","date":"2008-12-27","year":2008,"month":12,"lon":-81.42337,"lat":25.851267,"tags":"dec+2008,everglades+national+park","S2CellId":"3107000000000000","result":1687,"accuracy":0.015199434,"title":"DSCN6716"}
{"id":4835139672,"url":"http://farm5.staticflickr.com/4085/4835139672_a8b5958b7c.jpg","path":"869/357/869357e4cf79447a429538d21b8625.jpg","date":"2010-07-27","year":2010,"month":7,"lon":-81.796646,"lat":24.554773,"tags":"beach+key+west+honeymoon+florida,parking,scooters","S2CellId":"9689f00000000000","result":9911,"accuracy":0.03228802,"title":"parking","description":"scooters%21"}
{"id":4878571190,"url":"http://farm5.staticflickr.com/4140/4878571190_0f85a70b9e.jpg","path":"7aa/97b/7aa97bcd559c3380be15137b11e0fb95.jpg","date":"2010-08-07","year":2010,"month":8,"lon":-81.730705,"lat":25.927914,"tags":"beach,jen,marco+island,marco+island+marriott,parasailing","S2CellId":"0704000000000000","result":74,"accuracy":0.016374491,"title":"peering+into+that+kid%27s+bucket","description":"thanks+to+my+dad+for+taking+all+these+parasailing+shots+for+us"}
{"id":5719924757,"url":"http://farm4.staticflickr.com/3045/5719924757_238c133091.jpg","path":"9c5/d33/9c5d33a35e177da544191f9578ec7ad.jpg","date":"2011-04-29","year":2011,"month":4,"lon":-81.901726,"lat":26.41206,"tags":"29.04.11,florida,fort+myers,fort+myers+beach,mockingbird","S2CellId":"88d0a631cabb5071","result":8563,"accuracy":0.080427,"title":"Mockingbird+1-4","description":"Using+different+settings+to+try+and+catch+the+mockingbird+properly."}
{"id":6302471888,"url":"http://farm7.staticflickr.com/6105/6302471888_d6b5d579a1.jpg","path":"c42/858/c42858901d86827f81a465bdcd4a5f3.jpg","date":"2011-10-11","year":2011,"month":10,"lon":-81.69885,"lat":26.083847,"tags":"2011,florida","S2CellId":"7c00640000000000","result":6880,"accuracy":0.10022202,"title":"Lely+Resort+-+Flamingo+Course"}
{"id":3074968263,"url":"http://farm4.staticflickr.com/3171/3074968263_05bc6e88b0.jpg","path":"dc6/6f1/dc66f1aa2b5ce948b4d1318426556ad.jpg","date":"2008-11-25","year":2008,"month":11,"lon":-81.73081,"lat":25.949554,"tags":"america,florida,holiday,http%3A%2F%2Fwww.nordictouch.co.uk,key+west,marco+island,miami,south+beach,usa","S2CellId":"8814b00000000000","result":8185,"accuracy":0.022285849,"title":"Gone+Shopping..."}
{"id":3078874100,"url":"http://farm4.staticflickr.com/3031/3078874100_bd76e0cc31.jpg","path":"39d/a7a/39da7ad668470261dd6751f3e4f1fca.jpg","date":"2008-11-21","year":2008,"month":11,"lon":-81.79184,"lat":24.565859,"tags":"america,florida,holiday,http%3A%2F%2Fwww.nordictouch.co.uk,key+west,marco+island,miami,south+beach,usa,vacation","S2CellId":"88d1c00000000000","result":8570,"accuracy":0.69007,"title":"Key+West"}
{"id":5736788284,"url":"http://farm4.staticflickr.com/3191/5736788284_64c74e2d73.jpg","path":"a9b/f08/a9bf08cc541a1723bfd70da8baadec7.jpg","date":"2011-05-09","year":2011,"month":5,"lon":-81.22856,"lat":25.726187,"tags":"everglades+national+park","S2CellId":"88da400000000000","result":8606,"accuracy":0.0690543,"title":"Cheese+times+two"}
{"id":2649681134,"url":"http://farm4.staticflickr.com/3040/2649681134_5708c86e22.jpg","path":"edd/291/edd2918986c20da3ffb387a638912cc.jpg","date":"2008-06-20","year":2008,"month":6,"lon":-82.01517,"lat":26.454206,"tags":"florida,sanibel","S2CellId":"88d8f00000000000","result":8576,"accuracy":0.12989175,"title":"Sanibel_2008-1425"}
{"id":3772045024,"url":"http://farm3.staticflickr.com/2453/3772045024_9d9c85d061.jpg","path":"44b/ac1/44bac12d3babdd4b291c2ea3b91bda69.jpg","date":"2007-05-09","year":2007,"month":5,"lon":-81.80373,"lat":24.557018,"tags":"atlantic,caribbean,conch,fl,florida,gulf,island,key,keys,ocean,republic,sea,street,town,west","S2CellId":"88ed000000000000","result":8699,"accuracy":0.029967476,"title":"Key+West"}
{"id":6988399837,"url":"http://farm8.staticflickr.com/7068/6988399837_d371966c3c.jpg","path":"c3b/dd3/c3bdd35fb65d87cc298a8bf407b6261.jpg","date":"2012-03-02","year":2012,"month":3,"lon":-81.81038,"lat":24.560081,"tags":"my_gear_and_me,ringexcellence,thegalaxy","S2CellId":"88fe7b0000000000","result":8762,"accuracy":0.07533832,"title":"Key+West+sunset12"}
{"id":8387692462,"url":"http://farm9.staticflickr.com/8501/8387692462_a053e45f7c.jpg","path":"79a/976/79a9766733f23bd17de123bd51a420f2.jpg","date":"2012-11-09","year":2012,"month":11,"lon":-81.534,"lat":26.492,"tags":"crew+trust,florida,nature,southwestflorida","S2CellId":"88fb990000000000","result":8747,"accuracy":0.022842834,"title":"Camera+Roll-31"}
{"id":8874007614,"url":"http://farm8.staticflickr.com/7289/8874007614_4d5cfaf632.jpg","path":"dcd/386/dcd386afe73eae3410e4e64d48d05af9.jpg","date":"2013-05-28","year":2013,"month":5,"lon":-81.80933,"lat":26.4285,"tags":"iblee,leeleblanc","S2CellId":"889d000000000000","result":8525,"accuracy":0.07475586,"title":"unplastidip%27pn+begins"}
{"id":9325058767,"url":"http://farm4.staticflickr.com/3730/9325058767_f0bcb5de1f.jpg","path":"7e4/3e9/7e43e94f3d90782f6b776f620d642.jpg","date":"2013-04-15","year":2013,"month":4,"lon":-81.80711,"lat":24.557388,"tags":"%40+large,0413,cliche%CC%81+saturday,florida,key+west,mallory+square,people,sunset,tourist,vacation","S2CellId":"88d1c00000000000","result":8570,"accuracy":0.029731357,"title":"Another+Day%E2%80%A6..","description":"Another+Key+West+Sunset%0AHCS"}
{"id":4575320328,"url":"http://farm5.staticflickr.com/4022/4575320328_d888629742.jpg","path":"928/ce7/928ce7e9775f1ba8e7e821c82125c1ae.jpg","date":"2010-04-30","year":2010,"month":4,"lon":-82.74797,"lat":24.629034,"tags":"canon+ef+300mm+f%2F4l+is+usm,canon+ef+extender+1.4x+ii,canon+eos+rebel+xsi,nature,outdoors,wildlife","S2CellId":"8620a54000000000","result":7507,"accuracy":0.02559218,"title":"Wood+Thrush"}
{"id":616754756,"url":"http://farm2.staticflickr.com/1043/616754756_3377cde726.jpg","path":"81d/b73/81db7349ac28f58b01e43bf8f6463.jpg","date":"2007-06-24","year":2007,"month":6,"lon":-81.785484,"lat":26.4539,"tags":"bhg+parkway,eagle,fish,iblee,leeleblanc","S2CellId":"88d0a631cabb5071","result":8563,"accuracy":0.018805984,"title":"eagle+eats+some+poor+fish-3"}
{"id":3614918791,"url":"http://farm4.staticflickr.com/3342/3614918791_f11b2fd72e.jpg","path":"64c/8fc/64c8fc58370c24817b7194172f191d7.jpg","date":"2009-06-09","year":2009,"month":6,"lon":-82.2131,"lat":26.97754,"tags":"dragonfly,el+jobean,harbor+lake","S2CellId":"89c3f00000000000","result":9127,"accuracy":0.031696405,"title":"Dragonfly_2707","description":"%3Ca+href%3D%22http%3A%2F%2Fbighugelabs.com%2Fflickr%2Fonblack.php%3Fid%3D3614918791%26size%3Dlarge%22+rel%3D%22nofollow%22%3EView+On+Black%3C%2Fa%3E"}
{"id":5159310442,"url":"http://farm5.staticflickr.com/4068/5159310442_c28aef200a.jpg","path":"f57/d8c/f57d8cf76b58d96b5c0fc77f714ac6.jpg","date":"2009-06-24","year":2009,"month":6,"lon":-81.94277,"lat":26.44867,"tags":"baby,beach,girl,happy,mdb+photo,smiles","S2CellId":"1367000000000000","result":1190,"accuracy":0.035023063,"title":"I+will+enjoy+these+moments+forever%21","description":"To+see+the+way+that+light+attaches+to+a+girl%2C%2C%2C%2C%0A+%0ATo+hold+on+to+these+moments+as+they+pass......%0A+%0AI+guess+I+should....%0A%0A%7ECounting+Crows"}
{"id":5469409831,"url":"http://farm6.staticflickr.com/5096/5469409831_2d35d6c7e7.jpg","path":"578/65b/57865b4d2fc63dc557367540ca1fbc.jpg","date":"2011-02-22","year":2011,"month":2,"lon":-82.080055,"lat":26.42723,"tags":"sanibel","S2CellId":"88d0a631cabb5071","result":8563,"accuracy":0.050205614,"title":"sanibel+osprey"}
{"id":6138213515,"url":"http://farm7.staticflickr.com/6090/6138213515_df46b0462b.jpg","path":"9e6/318/9e631828a0f53d5d7c119ca02a4dceaf.jpg","date":"2011-09-08","year":2011,"month":9,"lon":-81.73775,"lat":25.919403,"tags":"florida,marco,marco+island,sailboat,sailing","S2CellId":"47e0400000000000","result":4527,"accuracy":0.040900197,"title":"small+boat+-+large+ocean."}
{"id":3477945457,"url":"http://farm4.staticflickr.com/3339/3477945457_c4175cc004.jpg","path":"ce6/1ca/ce61ca3a371c3596c1f79460c6c059.jpg","date":"2009-04-19","year":2009,"month":4,"lon":-81.16238,"lat":24.702127,"tags":"florida,florida+keys,keys","S2CellId":"217d000000000000","result":1486,"accuracy":0.069316566,"title":"Island+Homes"}
{"id":4874013223,"url":"http://farm5.staticflickr.com/4098/4874013223_762602af9d.jpg","path":"1c6/040/1c6040c9247d9df942b491d42aa889.jpg","date":"2010-08-08","year":2010,"month":8,"lon":-81.75695,"lat":26.172346,"tags":"florida,florida+public+relations+association,fpra,golf+tournament,naples","S2CellId":"88fd000000000000","result":8754,"accuracy":0.20198976,"title":"C10_3820"}
{"id":5479892608,"url":"http://farm6.staticflickr.com/5297/5479892608_410429531c.jpg","path":"577/16d/57716d7d4b6628307b5c7e670731.jpg","date":"2011-02-26","year":2011,"month":2,"lon":-81.78935,"lat":26.167725,"tags":"naples,naples+zoo,zoo","S2CellId":"87d8b54000000000","result":8008,"accuracy":0.037693534,"title":"Hey+%27Roo%21"}
{"id":817338347,"url":"http://farm2.staticflickr.com/1197/817338347_243a8d218e.jpg","path":"6c7/f96/6c7f9656ef4464ac7b143cb948d15af.jpg","date":"2007-07-15","year":2007,"month":7,"lon":-81.80128,"lat":24.552118,"tags":"keywest","S2CellId":"4cc91d0000000000","result":5899,"accuracy":0.034221236,"title":"scan0004.jpg"}
{"id":5553115886,"url":"http://farm6.staticflickr.com/5269/5553115886_f6868f42e8.jpg","path":"959/ab1/959ab1bec4389f3c562312d26ac.jpg","date":"2011-03-18","year":2011,"month":3,"lon":-82.08414,"lat":26.429806,"tags":"bird,florida,florida+birds,sanibel,vireo,white-eyed+vireo","S2CellId":"88d0a631cabb5071","result":8563,"accuracy":0.11770016,"title":"White-Eyed+Vireo","description":"J.+N.+%22Ding%22+Darling+National+Wildlife+Refuge+-+Bailey+Tract"}
{"id":5119291511,"url":"http://farm5.staticflickr.com/4064/5119291511_0899aa0fd8.jpg","path":"741/7b6/7417b6d225f0a7abdee5e3ed28a0a1d9.jpg","date":"2010-10-26","year":2010,"month":10,"lon":-81.8,"lat":24.566666,"tags":"key+west,keys,panorama,panoramic,stitched,the+keys,united+states+of+america,usa","S2CellId":"346c400000000000","result":2192,"accuracy":0.035310917,"title":"Panorama+-+Seven+Mile+Bridge","description":"Kolor+stitching+%7C+5+pictures+%7C+Size%3A+11370+x+2854+%7C+FOV%3A+140.31+x+34.17+%7E+0.11+%7C+RMS%3A+2.18+%7C+Lens%3A+Standard+%7C+Projection%3A+Cylindrical+%7C+Color%3A+LDR+%7C"}
{"id":5471605487,"url":"http://farm6.staticflickr.com/5296/5471605487_0888722ba5.jpg","path":"191/3b2/1913b2a1aa0db2f8c3d8a5658b09e5a.jpg","date":"2011-02-23","year":2011,"month":2,"lon":-81.76784,"lat":26.454332,"tags":"iblee,leeleblanc","S2CellId":"88e77e4000000000","result":8673,"accuracy":0.008445543,"title":"Pro+eve","description":"Sent+from+Le%27+iPhone"}
{"id":2965383640,"url":"http://farm4.staticflickr.com/3239/2965383640_d61617722b.jpg","path":"9b7/3e6/9b73e66b3c5a6a68073d7341d7f51ba.jpg","date":"2005-04-22","year":2005,"month":4,"lon":-81.77579,"lat":26.152124,"tags":"florida,naples,usa","S2CellId":"4ec0000000000000","result":5959,"accuracy":0.019253185,"title":"Florida_Naples_0118"}
{"id":4874015027,"url":"http://farm5.staticflickr.com/4119/4874015027_82435f5ece.jpg","path":"f4e/8a5/f4e8a571cf3e6833fa87bcfd8d1bfd62.jpg","date":"2010-08-08","year":2010,"month":8,"lon":-81.75695,"lat":26.172346,"tags":"florida,florida+public+relations+association,fpra,golf+tournament,naples","S2CellId":"808dfc0000000000","result":6999,"accuracy":0.026936265,"title":"C10_3834"}
{"id":8555494601,"url":"http://farm9.staticflickr.com/8112/8555494601_e9e3fac20c.jpg","path":"8a4/47d/8a447da6d4e0439d5ffeb7ef961017.jpg","date":"2013-03-13","year":2013,"month":3,"lon":-81.686966,"lat":26.117002,"tags":"instagram+app,iphoneography,square,square+format","S2CellId":"2dd2470000000000","result":1549,"accuracy":0.039558332,"title":"Et+le+soleil+se+coucha+une+autre+fois+sur+le+golfe+du+Mexique+en+une+symphonie+de+couleurs+magnifiques..."}
{"id":5095739364,"url":"http://farm5.staticflickr.com/4092/5095739364_0586192b7c.jpg","path":"fec/2dc/fec2dcdf7d9d7dd8d616a259d775bdf.jpg","date":"2010-09-05","year":2010,"month":9,"lon":-81.80167,"lat":24.56133,"tags":"key+west+florida,sunset+dinner+cruise","S2CellId":"88d1c00000000000","result":8570,"accuracy":0.38065568,"title":"20100905_Dinner+Cruise+Key+West_0028"}
{"id":184885933,"url":"http://farm1.staticflickr.com/46/184885933_f4d04c5330.jpg","path":"dbb/c31/dbbc31819b5e1988424beab1dc35ae8.jpg","date":"2006-07-08","year":2006,"month":7,"lon":-81.986244,"lat":26.54139,"tags":"boardwalk,cape,coral","S2CellId":"88da400000000000","result":8606,"accuracy":0.06377181,"title":"Buggie+way+down+on+the+boardwalk","description":"Buggie+way+down+on+the+boardwalk.+This+was+taken+at+Rotary+Park+in+Cape+Coral%2C+Florida."}
{"id":5776518015,"url":"http://farm6.staticflickr.com/5143/5776518015_dd9dcde24b.jpg","path":"c48/f1b/c48f1b2ec4d65057ccf0deb91852c7cb.jpg","date":"2011-05-30","year":2011,"month":5,"lon":-81.771935,"lat":26.106678,"tags":"naples+botanical+garden","S2CellId":"8620af4000000000","result":7522,"accuracy":0.03212414,"title":"Looks+Sort+of+Like+a+Hibiscus%3F"}
{"id":2530528836,"url":"http://farm3.staticflickr.com/2012/2530528836_4f91be2ac8.jpg","path":"16c/f3b/16cf3bad872454ac2986be1e1a2c36eb.jpg","date":"2008-05-26","year":2008,"month":5,"lon":-81.80746,"lat":24.559887,"tags":"fl,florida,key,sunset,usa,west","S2CellId":"88d1c00000000000","result":8570,"accuracy":0.17167908,"title":"Sunset%3A+Key+West"}
{"id":4116132247,"url":"http://farm3.staticflickr.com/2490/4116132247_bf0053a262.jpg","path":"af5/1fd/af51fd191d28987ddd85a1956eaad0.jpg","date":"2009-11-17","year":2009,"month":11,"lon":-81.88316,"lat":26.392946,"tags":"carl_e_johnson_recreation_area,flbeach,lovers_key","S2CellId":"8752d00000000000","result":7833,"accuracy":0.035411347,"title":"Lovers+Key"}
{"id":5750968527,"url":"http://farm4.staticflickr.com/3628/5750968527_16cf7ac28e.jpg","path":"ba4/e6c/ba4e6cc0431b2d47f63b91ec4ab5a2c9.jpg","date":"2011-05-19","year":2011,"month":5,"lon":-82.15788,"lat":26.458988,"tags":"beach,blue,cats+paw,fl,florida,gathering,gulf,gulf+of+mexico,island,picking,salt,sanibel,scallop,seashore,shell,shelling,shells,shore,tiger+paw,tourism,tourist,water,welk","S2CellId":"185c000000000000","result":1431,"accuracy":0.03442306,"title":"031"}
{"id":6874669390,"url":"http://farm8.staticflickr.com/7257/6874669390_d2f1687698.jpg","path":"3d9/fce/3d9fceb3dae319bf6d6a27ffe295d6.jpg","date":"2012-03-23","year":2012,"month":3,"lon":-81.2911,"lat":26.918856,"tags":"032612,alligator,animal,bird,crocodile,florida,florida+panther,gator,gator+farm,gatorama,palm+tree,palmdale,palmetto,parrot,pond,reptile,zoo","S2CellId":"88d9300000000000","result":8584,"accuracy":0.029354379,"title":"Gatorama+-+Palmdale%2C+Florida","description":"Gatorama+-+Palmdale%2C+Florida"}
{"id":7721009340,"url":"http://farm9.staticflickr.com/8434/7721009340_39ff3fd382.jpg","path":"2e2/82b/2e282b1dc497e573bda1acf78b8f2eb.jpg","date":"2012-01-11","year":2012,"month":1,"lon":-81.79034,"lat":24.54735,"tags":"florida","S2CellId":"8f4e300000000000","result":9519,"accuracy":0.072323315,"title":"Joel+trying+out+the+hammock+at+Casa+Marina+Waldorf+Astoria"}
{"id":4409058365,"url":"http://farm5.staticflickr.com/4007/4409058365_36ae27c77c.jpg","path":"a1b/83f/a1b83fc5d731542cb3aab5be1fb044.jpg","date":"2010-02-27","year":2010,"month":2,"lon":-81.74935,"lat":24.57466,"tags":"botanical+gardens,florida,key+west,keys,kwbg,reptile,south","S2CellId":"4872500000000000","result":5080,"accuracy":0.018746896,"title":"Lizard","description":"Key+West+Botanical+garden"}
{"id":11308524413,"url":"http://farm8.staticflickr.com/7381/11308524413_bb3b93652f.jpg","path":"bac/c9b/bacc9bde1854903a3451e29f9793c2.jpg","date":"2013-11-30","year":2013,"month":11,"lon":-81.339516,"lat":25.906792,"tags":"florida,gator,ochopee,united+states","S2CellId":"6018ef0000000000","result":6534,"accuracy":0.0066936226,"title":"Florida"}
{"id":4613232816,"url":"http://farm4.staticflickr.com/3582/4613232816_2582f26a3a.jpg","path":"2f4/317/2f431779de46271f1bb984a5014b220.jpg","date":"2010-05-15","year":2010,"month":5,"lon":-81.900085,"lat":26.54463,"tags":"cypress+lake,eye-fi,florida,united+states","S2CellId":"68c0000000000000","result":6578,"accuracy":0.022415057,"title":"IMG_1151.JPG"}
{"id":5294852704,"url":"http://farm6.staticflickr.com/5210/5294852704_ab3a27be37.jpg","path":"35b/b7a/35bb7ad5177425d24779566547ac679.jpg","date":"2010-12-26","year":2010,"month":12,"lon":-81.80725,"lat":26.13708,"tags":"beach,kiteboarding,kitesurfing,waves,windy","S2CellId":"47b4c00000000000","result":4026,"accuracy":0.03872762,"title":"2010-12-26+at+13-45-58"}
{"id":6976424525,"url":"http://farm8.staticflickr.com/7193/6976424525_81ea51b7fc.jpg","path":"de2/ad4/de2ad4e317d58de231da07bc06bc7bc.jpg","date":"2012-03-09","year":2012,"month":3,"lon":-81.774734,"lat":26.149023,"tags":"airport,car,car+meet,car+show,cruise-in,fl,florida,fly-in,ford,meet,municipal,mustang,naples,nma,show,stang","S2CellId":"89b9400000000000","result":8914,"accuracy":0.14026938,"title":"_DSC0185","description":"Don%27t+forget+to+like+our+Facebook+page%3A+%3Ca+href%3D%22http%3A%2F%2Fwww.facebook.com%2FBlacklightPropaganda%22+rel%3D%22nofollow%22%3EBlacklight+Propaganda%3C%2Fa%3E"}
{"id":4220540117,"url":"http://farm5.staticflickr.com/4002/4220540117_eb0ea79514.jpg","path":"b86/e42/b86e424441e4c5d2ffcd96b3302847e3.jpg","date":"2009-11-23","year":2009,"month":11,"lon":-81.810555,"lat":24.548462,"tags":"anhinga,anhingaanhinga,birds,fall,florida,fortzacharytaylor,keywest","S2CellId":"88d0a631cabb5071","result":8563,"accuracy":0.39815348,"title":"Anhinga","description":"An+Anhinga+sunned+itself+at+the+edge+of+the+moat+around+Fort+Zachary+Taylor%2C+Key+West"}
{"id":8815363746,"url":"http://farm6.staticflickr.com/5460/8815363746_b2dc79eb0e.jpg","path":"14f/350/14f3501ea0d1308a8975aafd35fb250.jpg","date":"2009-04-07","year":2009,"month":4,"lon":-81.80529,"lat":24.557302,"tags":"brewpub,florida,kelly%27s+caribbean,key+west","S2CellId":"88d1c00000000000","result":8570,"accuracy":0.23757839,"title":"Kelly%27s+Caribbean+Brewery","description":"Kelly%27s+Caribbean+Bar-Grill+%26+Brewery%0A%0ASee+More%3A+%3Ca+href%3D%22http%3A%2F%2Fwww.howderfamily.com%2Fzymurgy%2Fkellys_brewery.html%22+rel%3D%22nofollow%22%3EMy+Kelly%27s+Caribbean+page%3C%2Fa%3E"}
{"id":11538081514,"url":"http://farm6.staticflickr.com/5484/11538081514_77523d43b6.jpg","path":"ab1/04b/ab104b612ac4815e6c52e8c3f5c353d2.jpg","date":"2013-12-24","year":2013,"month":12,"lon":-82.085724,"lat":26.43092,"tags":"animals,birds,florida,geo,locations,nature","S2CellId":"47d9bc0000000000","result":4479,"accuracy":0.13894016,"title":"Anhinga","description":"Anhinga%2C+Sanibel+Island%2C+FL"}
{"id":1068073124,"url":"http://farm2.staticflickr.com/1267/1068073124_90cdff0a82.jpg","path":"a0d/f9a/a0df9aa5e7761d34bc06590c9c82140.jpg","date":"2007-08-09","year":2007,"month":8,"lon":-81.72558,"lat":26.4353,"tags":"beer,karma,leeleblanc","S2CellId":"87f1000000000000","result":8044,"accuracy":0.02848144,"title":"Drink+your+Karma"}
{"id":8748590239,"url":"http://farm9.staticflickr.com/8535/8748590239_5a9ec1c245.jpg","path":"a29/89f/a2989fc858caa77aa32c86f88adb8b4d.jpg","date":"2013-05-06","year":2013,"month":5,"lon":-81.44433,"lat":24.691723,"tags":"1stpix,dive,ecosystem,fish,florida,florida+beach,florida+ecosystem,florida+keys,florida+keys+kayak+trip,florida+keys+kayaking,florida+keys+refuge,florida+keys+sponge+flats,florida+nature,florida+sealife,florida+snorkel,florida+state+park,geotag,kayaking,lower+keys,lower+keys+kayak+trip,monroe+county,natural,nature,outdoor,phil%27s+1stpix,real+florida,recreation,saltwater,sealife,shark+viewing+spot,snorkel,summerland+key,underwater+florida,wahoo+key,wahoo+key+fish,wahoo+key+kayak+trip,water,wild+florida,wildlife","S2CellId":"8f5d000000000000","result":9533,"accuracy":0.1050754,"title":"Shark+Hotspot%2C+Wahoo+Key+Mangroves","description":"These+sponge+flats+around+the+small+Mangrove+islands+off+Wahoo+Key+are+the+place+to+be+for+many+Nurse%2C+Bonnethead+and+other+sharks.%0A%0AWahoo+Key%2C+Florida+Keys"}
{"id":12862940383,"url":"http://farm3.staticflickr.com/2870/12862940383_c642d6bc6a.jpg","path":"50c/074/50c074a6a2b9c139bcdd462874ebf7ca.jpg","date":"2014-02-14","year":2014,"month":2,"lon":-82.83629,"lat":24.62482,"tags":"f%2Fv+polly+dorisa,fishing+boat,gulf+coast+shrimper,shrimper","S2CellId":"89fb400000000000","result":9399,"accuracy":0.050208718,"title":"IMG_3623+FV+Polly+Dorisa+-+Shrimper","description":"14+February+2014%0AStraits+of+Florida%2C+Monroe+County%2C+Florida"}
{"id":646320214,"url":"http://farm2.staticflickr.com/1080/646320214_3ac1ef2f4f.jpg","path":"511/e39/511e3994365fea8bc92d16b3aa4ec18a.jpg","date":"2007-06-27","year":2007,"month":6,"lon":-81.79772,"lat":26.194664,"tags":"2am,iblee,leeleblanc,no_sleep","S2CellId":"8c05400000000000","result":9414,"accuracy":0.034200095,"title":"night+falls+in+fl"}
{"id":4286123410,"url":"http://farm5.staticflickr.com/4036/4286123410_7167137d35.jpg","path":"944/acf/944acf5fd09c153ca8b8036499dab5.jpg","date":"2008-11-25","year":2008,"month":11,"lon":-81.810616,"lat":24.547674,"tags":"birds,cathartesaura,fall,flight,florida,fortzacharytaylor,keywest,nature,turkeyvulture","S2CellId":"88d0a631cabb5071","result":8563,"accuracy":0.06807849,"title":"Turkey+Vulture","description":"Hundreds+of+turkey+vultures+circled+over+Fort+Zachary+Taylor"}
{"id":3143423496,"url":"http://farm4.staticflickr.com/3080/3143423496_96070b8066.jpg","path":"1cd/4d7/1cd4d713214baec61157fd547a6fc64b.jpg","date":"2008-12-26","year":2008,"month":12,"lon":-81.42337,"lat":25.851267,"tags":"dec+2008,everglades,florida","S2CellId":"185c000000000000","result":1431,"accuracy":0.07059366,"title":"DSCN6613"}
{"id":4116887664,"url":"http://farm3.staticflickr.com/2489/4116887664_98d955f3ef.jpg","path":"21e/eeb/21eeeb8063dc2a6bac4d8ea3092953.jpg","date":"2009-11-17","year":2009,"month":11,"lon":-81.88316,"lat":26.392946,"tags":"carl_e_johnson_recreation_area,flbeach,lovers_key","S2CellId":"8891000000000000","result":8520,"accuracy":0.2025771,"title":"Lovers+Key"}
{"id":4676317762,"url":"http://farm5.staticflickr.com/4016/4676317762_b62eb66fee.jpg","path":"887/3fc/8873fc9cb9f73deb73c66ffa9da1664.jpg","date":"2010-05-28","year":2010,"month":5,"lon":-81.804276,"lat":24.559877,"tags":"building,florida,key+west,keys,united+states+of+america,usa,wooden","S2CellId":"809a400000000000","result":7116,"accuracy":0.019931007,"title":"Carribean+Cargo+%26+Old+Fishermans+Cafe"}
{"id":25578824,"url":"http://farm1.staticflickr.com/21/25578824_9863ed5882.jpg","path":"be7/828/be78281ea928cd62afa9188f4d3fefa.jpg","date":"2005-07-02","year":2005,"month":7,"lon":-82.068344,"lat":26.424273,"tags":"beach,black+%26+white,calm,clouds,florida,fort+myers+area,hope,horizon,light,quiet,sanibel+island,tranquil","S2CellId":"47b4400000000000","result":4025,"accuracy":0.07320978,"title":"morning","description":"on+the+beach+in+the+quiet+morning%2C+fort+myers+way+off+in+the+distance%2C+and+just+the+first+few+others+out+for+a+walk+on+the+wet+sand"}
{"id":4864837661,"url":"http://farm5.staticflickr.com/4093/4864837661_30226a7ce8.jpg","path":"746/64f/74664ff5b18dd41767a4b25582f60fa.jpg","date":"2010-08-04","year":2010,"month":8,"lon":-82.126236,"lat":26.463135,"tags":"alligators,beach,birds,conservation,ding+darling+nwr,egrets,fish,florida,herons,ibis,marsh,national+wildlife+refuge,pelicans,sanibel,sanibel+island,southwest+florida,sunset,turtles,wetlands","S2CellId":"89a4000000000000","result":8776,"accuracy":0.016579745,"title":"IMG_4137"}
{"id":5752504199,"url":"http://farm4.staticflickr.com/3302/5752504199_4df4f58f21.jpg","path":"80e/2d3/80e2d3e5eb5794f922e540b2951036.jpg","date":"2011-05-02","year":2011,"month":5,"lon":-81.80104,"lat":24.55148,"tags":"02.05.11,asa+tift,ernest+hemingway,ernest+hemingway+home+and+museum,florida,hemingway+house,key+west,pond","S2CellId":"0d1ecb0000000000","result":244,"accuracy":0.00759367,"title":"Ironclad","description":"Close-up+detail.%0A%0AThe+house%27s+first+owner%2C+Asa+Tift%2C+had+this+raised+flowerbed+and+pond+built+in+the+shape+of+an+ironclad+from+the+American+Civil+War.+%0A%0AThe+house+was+built+by+Asa+Tift%2C+a+marine+architect+%28and+Confederate+mariner%29%2C+in+1851.++In+1931+Hemingway+purchased+it+and+lived+here+with+his+second+wife%2C+Pauline%2C+and+their+two+sons+until+1939.+%0AHere%2C+Hemingway+completed+the+final+draft+of+%22A+Farewell+to+Arms%2C%22+as+well+as+%22The+Snows+of+Kilimanjaro%22+and+%22The+Short+Happy+Life+of+Francis+Macomber%22."}
{"id":8626190588,"url":"http://farm9.staticflickr.com/8116/8626190588_e2f5f0e49f.jpg","path":"ab1/727/ab17273b60d8547b91ee83a8ac15c2ee.jpg","date":"2013-03-20","year":2013,"month":3,"lon":-81.8009,"lat":24.551159,"tags":"cat,florida,hemingway,hemingwayhouse,polydactyl,sixtoes","S2CellId":"345d5c0000000000","result":2111,"accuracy":0.045561966,"title":"Crossword+nap","description":"A+cat+at+the+Hemingway+House.+Most+of+the+cats+here+have+six+toes."}
{"id":114768931,"url":"http://farm1.staticflickr.com/39/114768931_56a11aac8f.jpg","path":"1ae/09e/1ae09ebcc4c3c8ce5a5327ffa8fb4614.jpg","date":"2006-03-13","year":2006,"month":3,"lon":-81.83024,"lat":26.288563,"tags":"2006,bird,desktop+wallpaper,flight,florida,flying,gulf+of+mexico,march+2006,naples,naples%2C+florida,seagull,shore,spring+break+2006,wallpaper,water","S2CellId":"12d9000000000000","result":936,"accuracy":0.01606133,"title":"Seagull","description":"Naples%2C+Florida%0D%0A%0D%0APicture%23+DSC04266"}
{"id":2302851474,"url":"http://farm4.staticflickr.com/3090/2302851474_3f13e11ce3.jpg","path":"71a/1b6/71a1b6c39d875d1ae9654e626d67.jpg","date":"2008-03-01","year":2008,"month":3,"lon":-81.95666,"lat":26.453438,"tags":"beach,display,fort+myers,information,instructions,usability","S2CellId":"6ab0c40000000000","result":6592,"accuracy":0.03453772,"title":"2"}
{"id":3076205250,"url":"http://farm4.staticflickr.com/3197/3076205250_12b0ec5325.jpg","path":"269/9a4/2699a440cfe4e5556221b58481c0ac84.jpg","date":"2008-11-23","year":2008,"month":11,"lon":-81.73081,"lat":25.949554,"tags":"america,florida,holiday,http%3A%2F%2Fwww.nordictouch.co.uk,key+west,marco+island,miami,south+beach,usa,vacation","S2CellId":"5290000000000000","result":5967,"accuracy":0.043339502,"title":"Skeeter+Brown"}
