{"id":4389488068,"url":"http://farm5.staticflickr.com/4042/4389488068_759d8ec9ae.jpg","path":"f7f/d58/f7fd58666d469e4a5cc8953068495d.jpg","date":"2009-12-30","year":2009,"month":12,"lon":15.977755,"lat":45.815247,"tags":"croatia,zagreb","S2CellId":"60013c0000000000","result":6413,"accuracy":0.0112147555,"title":"Donkey","description":"His+name+is+Dominic%E2%80%A6"}
{"id":4797533812,"url":"http://farm5.staticflickr.com/4094/4797533812_a06798f63b.jpg","path":"9f5/a79/9f5a792decadc4346897b117fa3d5cb8.jpg","date":"2010-07-15","year":2010,"month":7,"lon":15.981051,"lat":45.77827,"tags":"astronomija,astronomy,croatia,msu,nebo+na+krovu,pentax+k200d,sigma+10-20mm+f%2F4-5.6+ex+dc,vedran+vrhovac,zagreb","S2CellId":"3442ac4000000000","result":2082,"accuracy":0.017582139,"title":"Nebo+na+krovu+11"}
{"id":4742197616,"url":"http://farm5.staticflickr.com/4073/4742197616_136dccdf6b.jpg","path":"4e1/b74/4e1b74b49f8497617faa3439875eca25.jpg","date":"2008-06-23","year":2008,"month":6,"lon":15.858764,"lat":45.317,"tags":"blatu%C5%A1a,blatusa,blatusha,course,croatia,ecosense,ecovillage,graham+burnett,pdc,permaculture,permaculture+design+course,stephan+geyer,workshop","S2CellId":"4744400000000000","result":3288,"accuracy":0.06794631,"title":"Ecobuilding+tour+Plus+Minus+Interesting+session"}
{"id":655749,"url":"http://farm1.staticflickr.com/1/655749_579ab84752.jpg","path":"81f/856/81f85659125bf2a8d680eb7b47c60f9.jpg","date":"2004-10-01","year":2004,"month":10,"lon":15.967941,"lat":45.800922,"tags":"technical+museum,zagreb","S2CellId":"89c2f6c000000000","result":9113,"accuracy":0.010249776,"title":"Peculiar+Diagram"}
{"id":8659848507,"url":"http://farm9.staticflickr.com/8125/8659848507_929e501e36.jpg","path":"3f5/020/3f50205b4052707ed99bf5a3b8823e.jpg","date":"2013-04-06","year":2013,"month":4,"lon":15.978155,"lat":45.810795,"tags":"zagreb","S2CellId":"0d56c00000000000","result":472,"accuracy":0.046040367,"title":"Zagreb+-+Parks"}
{"id":5122638949,"url":"http://farm5.staticflickr.com/4002/5122638949_516847e83c.jpg","path":"d9c/b74/d9cb74c48b9e49751acc5a24cce15ef.jpg","date":"2010-10-28","year":2010,"month":10,"lon":15.97661,"lat":45.814144,"tags":"autumn,zagreb","S2CellId":"4778100000000000","result":3427,"accuracy":0.020444103,"title":"L1050676"}
{"id":9904376695,"url":"http://farm4.staticflickr.com/3671/9904376695_5c2238aab5.jpg","path":"362/c67/362c6733a033de1d305f529f26f94525.jpg","date":"2013-09-21","year":2013,"month":9,"lon":15.817436,"lat":45.77454,"tags":"croatia,dvorac,fotooko+2013,hr,kerestinec,sveta+nedelja,wedding+photography,zagreba%C4%8Dka+%C5%BEupanija","S2CellId":"3442a97400000000","result":2042,"accuracy":0.059500344,"title":"The+Stare","description":"Fotooko+2013+-+Dvorac+Erd%C3%B6dy%2C+Kerestinec%2C+Croatia"}
{"id":4742196314,"url":"http://farm5.staticflickr.com/4094/4742196314_004a37c027.jpg","path":"6c2/296/6c229660d67990a1452bdba7c62c38.jpg","date":"2008-06-23","year":2008,"month":6,"lon":15.858764,"lat":45.317,"tags":"blatu%C5%A1a,blatusa,blatusha,course,croatia,ecosense,ecovillage,graham+burnett,pdc,permaculture,permaculture+design+course,stephan+geyer,workshop","S2CellId":"0d71d00000000000","result":572,"accuracy":0.08793149,"title":"Entrepenuerial+Vesna"}
{"id":3476092022,"url":"http://farm4.staticflickr.com/3346/3476092022_16e61c6784.jpg","path":"d55/6f1/d556f1c4e3302d9ec7ee15e419669c.jpg","date":"2009-04-26","year":2009,"month":4,"lon":15.938876,"lat":45.784615,"tags":"building,city,grass,spring,tree,zagreb","S2CellId":"0d1a730000000000","result":236,"accuracy":0.023976123,"title":"Urban-16"}
{"id":2882144470,"url":"http://farm4.staticflickr.com/3112/2882144470_4e8e2bd9e6.jpg","path":"85c/8dc/85c8dc3ef8b5535387106a28b6b1454.jpg","date":"2008-09-23","year":2008,"month":9,"lon":15.549173,"lat":45.49281,"tags":"karlobac","S2CellId":"1550000000000000","result":1401,"accuracy":0.054371607,"title":"CROACIA_08_074"}
{"id":4742137142,"url":"http://farm5.staticflickr.com/4080/4742137142_0f333fc98e.jpg","path":"27a/1a4/27a1a4589715c6c37e0634cdadfa7.jpg","date":"2008-06-23","year":2008,"month":6,"lon":15.858764,"lat":45.317,"tags":"blatu%C5%A1a,blatusa,blatusha,course,croatia,ecosense,ecovillage,graham+burnett,pdc,permaculture,permaculture+design+course,stephan+geyer,workshop","S2CellId":"12c9100000000000","result":838,"accuracy":0.023561167,"title":"Bioregion+session"}
{"id":4684690491,"url":"http://farm5.staticflickr.com/4064/4684690491_0a0fe9ba42.jpg","path":"797/05a/79705a42a5aee8895683f2b40baea3a.jpg","date":"2010-06-09","year":2010,"month":6,"lon":15.58608,"lat":45.121597,"tags":"bale,baska,brestova,buje,croacia,croatia,rastoke","S2CellId":"47edc00000000000","result":4703,"accuracy":0.066872425,"title":"Rastoke_6","description":"Pueblo+Rastoke%2C+cerca+de+Senj%2C+Croacia%2C+Croatia.+13th+of+july+2009"}
{"id":8659490643,"url":"http://farm9.staticflickr.com/8123/8659490643_bf8ca9b8d7.jpg","path":"8b2/770/8b27706039e68edb87e68a9fb418c9c9.jpg","date":"2013-04-06","year":2013,"month":4,"lon":15.978155,"lat":45.810795,"tags":"zagreb","S2CellId":"4765c00000000000","result":3315,"accuracy":0.7193554,"title":"Zagreb+-+Cathedral"}
{"id":653097,"url":"http://farm1.staticflickr.com/1/653097_58b3ec05f3.jpg","path":"12c/e3c/12ce3c21ad74d4f4e9da6b3e8c831398.jpg","date":"2004-10-01","year":2004,"month":10,"lon":15.967941,"lat":45.800922,"tags":"zagreb","S2CellId":"4741dc3000000000","result":3273,"accuracy":0.1531648,"title":"Funicular+1","description":"The+best+way+to+get+up+and+down+hills+known+to+man."}
{"id":6602305179,"url":"http://farm8.staticflickr.com/7001/6602305179_5ae9aabcb2.jpg","path":"338/d03/338d03f4d8c0d2d89e8a822ade651.jpg","date":"2011-10-26","year":2011,"month":10,"lon":15.963907,"lat":45.804077,"tags":"croatia,hrvatska,nikolatesla,technical,technicalmuseum,tesla,zagreb","S2CellId":"466d300000000000","result":2943,"accuracy":0.008613683,"title":"Zagreb+Technical+Museum","description":"Most+of+the+WBU-ISOG+Forum+attendees+are+broadcast+engineers%2C+so+we+had+arranged+a+tour+of+the+Zagreb+Technical+Museum.+It%27s+basically+a+place+that+no+engineer+couldn%27t+enjoy%21"}
{"id":5910464293,"url":"http://farm7.staticflickr.com/6024/5910464293_3794794a3c.jpg","path":"c44/bf2/c44bf262f156492b81ed4187d9f6a0a8.jpg","date":"2011-06-14","year":2011,"month":6,"lon":15.9803,"lat":45.81437,"tags":"zagreb","S2CellId":"47e67db000000000","result":4682,"accuracy":0.032374512,"title":"DSCN1930"}
{"id":4547878728,"url":"http://farm5.staticflickr.com/4036/4547878728_3edf25feea.jpg","path":"deb/504/deb504e9fe186bc0e13670c43ba32.jpg","date":"2008-04-19","year":2008,"month":4,"lon":15.858764,"lat":45.317,"tags":"blatu%C5%A1a,blatusa,blatusha,course,croatia,ecosense,ecovillage,graham+burnett,pdc,permaculture,permaculture+design+course,stephan+geyer,workshop","S2CellId":"3461000000000000","result":2114,"accuracy":0.11853923,"title":"Compost+cat"}
{"id":5573201558,"url":"http://farm6.staticflickr.com/5143/5573201558_b3437e60e4.jpg","path":"e31/0c8/e310c86e15509583ebfabb44c8858aff.jpg","date":"2010-08-27","year":2010,"month":8,"lon":15.9805,"lat":45.8245,"tags":"croatia,dog,hvartska,sign,zagreb","S2CellId":"4776907000000000","result":3414,"accuracy":0.011869143,"title":"%C4%8Duvaj+se+psa","description":"Beware+of+dog%0A%0AZagreb%2C+Croatia"}
{"id":8661085430,"url":"http://farm9.staticflickr.com/8123/8661085430_eae0efab5c.jpg","path":"5a8/a87/5a8a87d8e68b314ec8284da2253a365.jpg","date":"2013-04-06","year":2013,"month":4,"lon":15.978155,"lat":45.810795,"tags":"zagreb","S2CellId":"6d318a3000000000","result":6816,"accuracy":0.01689651,"title":"Zagreb+-+Town+Centre"}
{"id":4751779276,"url":"http://farm5.staticflickr.com/4115/4751779276_4c1e3f3968.jpg","path":"807/cb2/807cb211c77a90deeb28304397e9e238.jpg","date":"2010-06-23","year":2010,"month":6,"lon":15.926184,"lat":45.778072,"tags":"atmosphere,croatia,festival,inmusic,island,jarun,kroatie,music,muziek,t-mobile,t-mobile+inmusic+fesstival,zagreb","S2CellId":"5490144000000000","result":6182,"accuracy":0.013466987,"title":"T-Mobile+Inmusic+Festival%3A+Atmosphere"}
{"id":376506535,"url":"http://farm1.staticflickr.com/186/376506535_60621c147f.jpg","path":"c3b/18c/c3b18c952bcb762fd2bd7c62de2b579.jpg","date":"2006-12-04","year":2006,"month":12,"lon":15.969829,"lat":45.802,"tags":"10millionphotos,2006,croatia,december,dezember,geotag,kroatien,republika+hrvatska,zagreb","S2CellId":"132a530000000000","result":1017,"accuracy":0.06707463,"title":"Sightseeing+in+Zagreb"}
{"id":5830764390,"url":"http://farm6.staticflickr.com/5269/5830764390_0a3f5d77f9.jpg","path":"a7a/d3a/a7ad3a43bc3f10a473b2907461a19ef.jpg","date":"2011-06-11","year":2011,"month":6,"lon":15.552778,"lat":45.49281,"tags":"croatia,karlovac,tuning,volkswagen,vw","S2CellId":"880fb40000000000","result":8155,"accuracy":0.056186642,"title":"VW+Golf+Mk1","description":"VW+Tuning+Show+Karlovac+2011"}
{"id":7387568788,"url":"http://farm8.staticflickr.com/7216/7387568788_8dda6605dd.jpg","path":"a06/ab0/a06ab02ba840db79f8c74ec641448d7e.jpg","date":"2012-06-16","year":2012,"month":6,"lon":15.955066,"lat":45.890068,"tags":"sanatorij+brestovac,sljeme,zagreb","S2CellId":"46e3000000000000","result":3088,"accuracy":0.04397141,"title":"Sljeme+%3A%3A+Sanatorij+Brestovac"}
{"id":327084761,"url":"http://farm1.staticflickr.com/136/327084761_8161ce79b8.jpg","path":"c9e/667/c9e667c7e39d7ccf32cfad2a14912b3.jpg","date":"2006-12-14","year":2006,"month":12,"lon":15.96734,"lat":45.808163,"tags":"croatia,zagreb","S2CellId":"89c25896c0000000","result":8974,"accuracy":0.21459918,"title":"Mimara+Museum+--+Velasquez"}
{"id":8228640221,"url":"http://farm9.staticflickr.com/8343/8228640221_dacbc1580f.jpg","path":"9f5/0e4/9f50e41a6db5c2e69759b9bcafd127e7.jpg","date":"2012-07-02","year":2012,"month":7,"lon":15.97397,"lat":45.815422,"tags":"citizen+card,museum+of+broken+relationships,zagreb","S2CellId":"14cab9bf00000000","result":1317,"accuracy":0.0049731852,"title":"A+story+in+a+sentence","description":"One+of+the+enigmatic+ones."}
{"id":3642641846,"url":"http://farm4.staticflickr.com/3571/3642641846_421d6b6be2.jpg","path":"534/1da/5341da3addefc27e56fd41fba3aa371.jpg","date":"2009-06-19","year":2009,"month":6,"lon":15.964593,"lat":45.820843,"tags":"art,artistic,cs4,da+50-200mm,flickrelite,justpentax,k20d,pentax,pentaxart,photo,photoshop,zeno,zeno+zokalj,zokalj","S2CellId":"809f000000000000","result":7130,"accuracy":0.0057017575,"title":"Powerball","description":"Taken+with+Pentax+K20D%2C+SMC+DA+50-200mm+%0A%0A%C2%A9+by+Zeno+Zokalj%2C+2009."}
{"id":9904342925,"url":"http://farm4.staticflickr.com/3720/9904342925_7b57111054.jpg","path":"8fa/ee6/8faee65225efdd30b56b5325f697db.jpg","date":"2013-09-21","year":2013,"month":9,"lon":15.817436,"lat":45.77454,"tags":"croatia,dvorac,fotooko+2013,hr,jack+russell+terrier,kerestinec,sveta+nedelja,zagreba%C4%8Dka+%C5%BEupanija","S2CellId":"4872240000000000","result":5076,"accuracy":0.09308529,"title":"Object+of+my+affection","description":"Fotooko+2013+-+Dvorac+Erd%C3%B6dy%2C+Kerestinec%2C+Croatia"}
{"id":10552894845,"url":"http://farm6.staticflickr.com/5535/10552894845_7e2f1c8747.jpg","path":"58a/c52/58ac52564914f91a37ee6db47a2780.jpg","date":"2013-10-27","year":2013,"month":10,"lon":15.709043,"lat":45.801826,"tags":"m1r0slavzg","S2CellId":"46ddc00000000000","result":3085,"accuracy":0.11960896,"title":"Samobor","description":"Trg+Kralja+Tomislava"}
{"id":3910080180,"url":"http://farm3.staticflickr.com/2487/3910080180_1f84dc8d10.jpg","path":"2ca/f70/2caf70ad74b1e3c18ecb58b23662ab.jpg","date":"2009-09-10","year":2009,"month":9,"lon":15.991179,"lat":45.806793,"tags":"croatia,leica,zagreb","S2CellId":"47b8140000000000","result":4040,"accuracy":0.006928831,"title":"L1010780","description":"Zagreb%2C+Croatia"}
{"id":1398697083,"url":"http://farm2.staticflickr.com/1038/1398697083_ffaa571fd4.jpg","path":"264/c62/264c6265e4a74459ae9611b97e6cdbf.jpg","date":"2007-09-03","year":2007,"month":9,"lon":15.360345,"lat":45.444958,"tags":"croatia,dubrovnik,hvar,plitveca,rovinj,split,zagreb","S2CellId":"12d2c00000000000","result":896,"accuracy":0.056541104,"title":"IMG_4433"}
{"id":7362538974,"url":"http://farm8.staticflickr.com/7091/7362538974_53374cb8b5.jpg","path":"7fa/840/7fa8408d1e8f15beec2cad5548608f4.jpg","date":"2012-06-09","year":2012,"month":6,"lon":15.552778,"lat":45.49281,"tags":"2012,karlovac,volkswagen,vw","S2CellId":"4764400000000000","result":3312,"accuracy":0.2790019,"title":"VW+Golf+Mk1","description":"VW+Tuning+Show+-+Karlovac+%28HR%29+2012"}
{"id":234895919,"url":"http://farm1.staticflickr.com/84/234895919_d24737297e.jpg","path":"e39/c7e/e39c7e9b7425226642e39a9d386614b.jpg","date":"2006-09-05","year":2006,"month":9,"lon":15.940003,"lat":45.782715,"tags":"canon,croatia,graffiti,zagreb","S2CellId":"4124000000000000","result":2719,"accuracy":0.011894127,"title":"jarun+-+dormitory","description":"graffitis"}
{"id":6862458813,"url":"http://farm8.staticflickr.com/7045/6862458813_e32c793d53.jpg","path":"fb8/a3b/fb8a3b189a2c95dbdb73cd4d440ae86.jpg","date":"2012-02-12","year":2012,"month":2,"lon":15.972318,"lat":45.81465,"tags":"city,croatia,hrvatska,outdoors,urban,zagreb","S2CellId":"47e66e4400000000","result":4619,"accuracy":0.043477137,"title":"Zagreb+Panorama","description":"too+bad+February+hogged+all+the+snow+this+year."}
{"id":7397464670,"url":"http://farm9.staticflickr.com/8145/7397464670_72c32ece78.jpg","path":"962/d6b/962d6b10c725772b6a5f728620fc3259.jpg","date":"2012-06-19","year":2012,"month":6,"lon":15.981,"lat":45.807,"tags":"amsterdamize,conference,croatia,pedalafest,zagreb","S2CellId":"8085640000000000","result":6913,"accuracy":0.0035713874,"title":"Pedalafest+-+Zagreb","description":"June+7+-10%2C+2012."}
{"id":12690497384,"url":"http://farm4.staticflickr.com/3798/12690497384_6dac11169f.jpg","path":"5d3/7f0/5d37f029e64ed2b8fe22355d8b63f72.jpg","date":"2013-09-11","year":2013,"month":9,"lon":15.97705,"lat":45.813286,"tags":"croatia,cx1,zagreb","S2CellId":"479e75f400000000","result":3855,"accuracy":0.059218496,"title":"Zagreb%2C+Croatia","description":"Exif_JPEG_PICTURE"}
{"id":3729976507,"url":"http://farm3.staticflickr.com/2512/3729976507_9d61a7c4cc.jpg","path":"d4d/a5d/d4da5d6fee712f6d7c471c36bcdad591.jpg","date":"2009-07-01","year":2009,"month":7,"lon":15.981446,"lat":45.814316,"tags":"croacia,croatia,grafitti,hrvatska,janela+de+imagens,lighter,nikon+d200,sigma+17-70mm+f%2F2.8-4.5,vitor+antunes,wall,windows,zagreb","S2CellId":"46ddc00000000000","result":3085,"accuracy":0.05708151,"title":"False+twins","description":"%3Ca+href%3D%22http%3A%2F%2Floc.alize.us%2F%23%2Fflickr%3A3729976507%22+rel%3D%22nofollow%22%3ESee+where+this+picture+was+taken.%3C%2Fa%3E+%3Ca+href%3D%22http%3A%2F%2Fwww.flickr.com%2Fgroups%2Fgeotagging%2Fdiscuss%2F72157594165549916%2F%22%3E%5B%3F%5D%3C%2Fa%3E"}
{"id":3454720945,"url":"http://farm4.staticflickr.com/3335/3454720945_a48fb55c9a.jpg","path":"274/464/274464bce6bce416762bc4e69c89e258.jpg","date":"2009-04-19","year":2009,"month":4,"lon":15.923566,"lat":45.794315,"tags":"abandoned,architecture,building,city,clouds,sky,urban,zagreb","S2CellId":"47e6721000000000","result":4667,"accuracy":0.006209157,"title":"Urban-6"}
{"id":7180936545,"url":"http://farm8.staticflickr.com/7091/7180936545_333af2c671.jpg","path":"e40/d81/e40d81aaf41306b7c91e6cd2c5508d.jpg","date":"2012-06-09","year":2012,"month":6,"lon":15.552778,"lat":45.49281,"tags":"2012,croatia,karlovac,volkswagen,vw","S2CellId":"864c240000000000","result":7608,"accuracy":0.18463764,"title":"VW+Passat+Mk3"}
{"id":9121775490,"url":"http://farm3.staticflickr.com/2851/9121775490_8433fc2a47.jpg","path":"b8c/266/b8c26633aae9b717a4669cc1c2f0dec3.jpg","date":"2011-08-07","year":2011,"month":8,"lon":15.967111,"lat":45.808033,"tags":"croatia,museum,museum+mimara,painting,zagreb","S2CellId":"12a4a2f900000000","result":738,"accuracy":0.02086474}
{"id":2216960590,"url":"http://farm3.staticflickr.com/2105/2216960590_4c476ff6df.jpg","path":"d07/428/d074284f08d837bc458bde2bca8d6.jpg","date":"2007-11-21","year":2007,"month":11,"lon":15.971374,"lat":45.800083,"tags":"architecture,building,croatia,design,hrvatska,zagreb","S2CellId":"0d50940000000000","result":432,"accuracy":0.024736483,"title":"Architecture+I","description":"Walking+to+the+hotel+I+discovered+some+small+architectural+gems."}
{"id":4374201152,"url":"http://farm3.staticflickr.com/2715/4374201152_bf863efb9b.jpg","path":"595/81e/59581e585a62341fb8c27c7acb3d637.jpg","date":"2009-12-30","year":2009,"month":12,"lon":15.973372,"lat":45.814396,"tags":"croatia,zagreb","S2CellId":"4765c00000000000","result":3315,"accuracy":0.21296228,"title":"Zagreb+Skyline"}
{"id":336447008,"url":"http://farm1.staticflickr.com/151/336447008_f0db826119.jpg","path":"454/fe5/454fe592c144e7c9291cdf6795445099.jpg","date":"2004-06-26","year":2004,"month":6,"lon":15.966439,"lat":45.807144,"tags":"2000s,2004,central+europe,croatia,hrvatska,kaptol,katedrala+marijina+uznesenja,travel,vxla,zagreb,zet","S2CellId":"476d079900000000","result":3348,"accuracy":0.02442273,"title":"hrv.062004_0006039","description":"Sveu%C4%8Diu%26scaron%3Bte+u+Zagrebu%2C+Muzi%C4%8Dka+Akademija+%28Zagreb+Music+Academy%29."}
{"id":3532065274,"url":"http://farm3.staticflickr.com/2003/3532065274_7757be7bed.jpg","path":"a64/cc2/a64cc2b37f484a5cfcb8d4c90202e26.jpg","date":"2009-05-14","year":2009,"month":5,"lon":15.938479,"lat":45.775745,"tags":"concrete,grass,reflection,spring,water,zagreb","S2CellId":"88d0a631cabb5071","result":8563,"accuracy":0.002677413,"title":"Urban-42"}
{"id":327203285,"url":"http://farm1.staticflickr.com/134/327203285_236bcbc31c.jpg","path":"fe4/281/fe42811b87aec56cb81be85cd6ca9d4.jpg","date":"2006-12-17","year":2006,"month":12,"lon":15.974121,"lat":45.80469,"tags":"croatia,zagreb","S2CellId":"4765c00000000000","result":3315,"accuracy":0.09893854,"title":"View+from+Lotrs%C4%8Dak+tower","description":"Also+see+video+clip+of+panorama+at+%3Ca+href%3D%22http%3A%2F%2Fwww.youtube.com%2Fwatch%3Fv%3DdqUKeNoGQYU%22%3Ewww.youtube.com%2Fwatch%3Fv%3DdqUKeNoGQYU%3C%2Fa%3E"}
{"id":8601248698,"url":"http://farm9.staticflickr.com/8508/8601248698_045f811df7.jpg","path":"d5f/54f/d5f54fb6a13b4285cc180783e376a88.jpg","date":"2012-10-20","year":2012,"month":10,"lon":15.978155,"lat":45.810795,"tags":"zagreb","S2CellId":"88d0a631cabb5071","result":8563,"accuracy":0.018981801,"title":"Zagreb"}
{"id":7362509016,"url":"http://farm9.staticflickr.com/8027/7362509016_a0c22648a1.jpg","path":"5f6/cf4/5f6cf4e177b16c7e63cdcf5c6eda6da.jpg","date":"2012-06-09","year":2012,"month":6,"lon":15.552778,"lat":45.49281,"tags":"2012,karlovac,volkswagen,vw","S2CellId":"31cc4b0000000000","result":1819,"accuracy":0.04294228,"title":"VW+Golf+Mk3+GTI","description":"VW+Tuning+Show+-+Karlovac+%28HR%29+2012"}
{"id":8603697170,"url":"http://farm9.staticflickr.com/8402/8603697170_e17e2aa1e5.jpg","path":"266/7c0/2667c04a832639eb2f19cfe3dca4fd32.jpg","date":"2012-10-20","year":2012,"month":10,"lon":15.978155,"lat":45.810795,"tags":"zagreb","S2CellId":"0d3f400000000000","result":332,"accuracy":0.329239,"title":"Zagreb"}
{"id":3032439398,"url":"http://farm4.staticflickr.com/3250/3032439398_9387e1e1c8.jpg","path":"a8d/beb/a8dbebdacd89e45381a945f1c2dba7bf.jpg","date":"2008-08-11","year":2008,"month":8,"lon":15.970001,"lat":45.809433,"tags":"%C3%A9p%C3%ADt%C3%A9szet,%D0%B0%D1%80%D1%85%D0%B8%D1%82%D0%B5%D0%BA%D1%82%D1%83%D1%80%D0%B0,%D0%B0%D1%80%D1%85%D0%B8%D1%82%D0%B5%D0%BA%D1%82%D1%83%D1%80%D1%8B,architecture,architectuur,architekt%C3%BAra,architekt%C5%ABra,architektonik,architektur,architektura,architettura,arhitectura,arhitekt%C5%ABra,arhitektura,arhitektuur,arkitekt%C3%BAr,arkitektur,arkkitehtuuri,arquitectura,arquitetura,august+2008,balkans,baustil,bouwkunde,bouwstijl,croatia,hrvatska,konica+minolta+z3,mimari,zagreb","S2CellId":"476d079400000000","result":3347,"accuracy":0.038761187,"title":"Zagreb%2C+Croatia+-+Hrvatsko+Narodno+Kazali%C5%A1te+%28National+Theater%29"}
{"id":6331482490,"url":"http://farm7.staticflickr.com/6031/6331482490_880618cd88.jpg","path":"d7a/25e/d7a25ebe9482597dd1365184eb3ec6f9.jpg","date":"2011-11-09","year":2011,"month":11,"lon":15.972747,"lat":45.81196,"tags":"croatia,zagreb","S2CellId":"476d079900000000","result":3348,"accuracy":0.13731173,"title":"L1080370"}
{"id":8118695273,"url":"http://farm9.staticflickr.com/8048/8118695273_1327a938ed.jpg","path":"c1f/66c/c1f66cfabd581123d7f5a2afc7eb27.jpg","date":"2012-09-20","year":2012,"month":9,"lon":15.977135,"lat":45.814293,"tags":"balkan,croatia,dolac,fr%C3%BCchte,gem%C3%BCse,hrvatska,kroatien,markt,stadt,zagreb","S2CellId":"80d94c0000000000","result":7276,"accuracy":0.045635063,"title":"Trauben","description":"%5Bde%5D+Zagreb%2C+Kroatien%0A%0A%5Ben%5D+%3Cstrong%3EGrapes%3C%2Fstrong%3E%0AZagreb%2C+Croatia"}
{"id":5291118422,"url":"http://farm6.staticflickr.com/5282/5291118422_f2192b0363.jpg","path":"511/c49/511c4969a16f7e7aa65abe6cfe6e5e1.jpg","date":"2010-12-25","year":2010,"month":12,"lon":15.962555,"lat":45.80553,"tags":"instrument,sax,saxophone","S2CellId":"0d379c0000000000","result":323,"accuracy":0.0028749635,"title":"Sax"}
{"id":9684350885,"url":"http://farm8.staticflickr.com/7294/9684350885_0efbe324ff.jpg","path":"2a3/c9c/2a3c9ccf94a638148a138fd03c5e54d.jpg","date":"2013-08-17","year":2013,"month":8,"lon":15.587363,"lat":45.119938,"tags":"croatia,croazia,hrvatska,kroatien,rastoke,slunj%C4%8Dica","S2CellId":"478b900000000000","result":3646,"accuracy":0.18202971,"title":"P8178805","description":"OLYMPUS+DIGITAL+CAMERA"}
{"id":4759628503,"url":"http://farm5.staticflickr.com/4137/4759628503_daf985c665.jpg","path":"52d/399/52d3998051e99233241c2a4a1ea37bc.jpg","date":"2010-07-01","year":2010,"month":7,"lon":15.974024,"lat":45.81248,"tags":"holiday,zagreb","S2CellId":"4696311400000000","result":3027,"accuracy":0.04301299,"title":"Inside+the+Orthodox+Church"}
{"id":6789163256,"url":"http://farm8.staticflickr.com/7208/6789163256_fea65f4ecc.jpg","path":"818/1bd/8181bd282162e1cb38e63caa933f833a.jpg","date":"2012-01-16","year":2012,"month":1,"lon":15.97824,"lat":45.80529,"tags":"croatia,hrvatska,zagreb","S2CellId":"4773500000000000","result":3392,"accuracy":0.0855253,"title":"%5BTravel%5D+Zagreb%2C+Croatia%2C+Jan+2012"}
{"id":8470658844,"url":"http://farm9.staticflickr.com/8506/8470658844_b05e21dcb1.jpg","path":"57f/f70/57ff702e6c6befe910247bf4a712a4af.jpg","date":"2012-08-15","year":2012,"month":8,"lon":15.988283,"lat":45.78498,"tags":"bundek,park,zagreb","S2CellId":"47e66e2d00000000","result":4612,"accuracy":0.05877403,"title":"IMG_4514","description":"Park+Bundek."}
{"id":8659816535,"url":"http://farm9.staticflickr.com/8126/8659816535_3f61f2456a.jpg","path":"f8b/d1f/f8bd1fabb1045db1413114d78c0e797.jpg","date":"2013-04-06","year":2013,"month":4,"lon":15.978155,"lat":45.810795,"tags":"zagreb","S2CellId":"0d5d000000000000","result":499,"accuracy":0.033510868,"title":"Zagreb+-+Churches"}
{"id":6002606340,"url":"http://farm7.staticflickr.com/6141/6002606340_600604b625.jpg","path":"5f2/6f4/5f26f4b8917414ba37523101a6ab79b.jpg","date":"2011-07-24","year":2011,"month":7,"lon":15.967599,"lat":45.80726,"tags":"croatia,the+zagreb+cathedral,zagreb","S2CellId":"4765c00000000000","result":3315,"accuracy":0.6910358,"title":"The+Zagreb+Cathedral","description":"%3Ca+href%3D%22http%3A%2F%2Fen.wikipedia.org%2Fwiki%2FZagreb_Cathedral%22+rel%3D%22nofollow%22%3Een.wikipedia.org%2Fwiki%2FZagreb_Cathedral%3C%2Fa%3E"}
{"id":7560842606,"url":"http://farm8.staticflickr.com/7136/7560842606_81670decf7.jpg","path":"a8d/d8c/a8dd8ca3ba55eff98cd5de8a5dd23d0.jpg","date":"2012-07-11","year":2012,"month":7,"lon":15.906186,"lat":45.798378,"tags":"hipstamatic,instagram,iphone,photo+stream","S2CellId":"0d14400000000000","result":204,"accuracy":0.027079163,"title":"projects"}
{"id":3569418423,"url":"http://farm4.staticflickr.com/3639/3569418423_e0b57b7254.jpg","path":"9cb/2b5/9cb2b532ebdb24c83c8c62f2378ed4dc.jpg","date":"2009-05-27","year":2009,"month":5,"lon":15.920369,"lat":45.784008,"tags":"clouds,lake,reflection,sky,tree,water,zagreb","S2CellId":"9630000000000000","result":9869,"accuracy":0.01656488,"title":"Urban-46"}
{"id":6619525409,"url":"http://farm8.staticflickr.com/7016/6619525409_d6e8f27746.jpg","path":"e06/68b/e0668b9e55714332b955811ebfe44f.jpg","date":"2012-01-01","year":2012,"month":1,"lon":15.988333,"lat":45.7855,"tags":"01%2F01%2F2012,365fave,ansel,black+and+white,bundek,cameraplus,dark,darken,date,evening,gettysubmitted,iphone365,iphone4,iphoneography,january,monochrome,mood,moon,night,silhouette,simple,sky,tree,walk,zagreb","S2CellId":"52b5000000000000","result":5996,"accuracy":0.011255321,"title":"324%2F365%3A+A+beginning"}
{"id":7177340055,"url":"http://farm9.staticflickr.com/8146/7177340055_a20793c580.jpg","path":"bf1/668/bf1668dad5c3b0f2baa54136635cbf7.jpg","date":"2012-06-09","year":2012,"month":6,"lon":15.552778,"lat":45.49281,"tags":"2012,karlovac,volkswagen,vw","S2CellId":"009bdc0000000000","result":43,"accuracy":0.10018593,"title":"VW+Golf+Mk2","description":"VW+Tuning+Show+-+Karlovac+%28HR%29+2012"}
{"id":8660571370,"url":"http://farm9.staticflickr.com/8101/8660571370_fced34aec4.jpg","path":"7f1/840/7f1840ab2fa1834a876eabc95858adae.jpg","date":"2013-04-06","year":2013,"month":4,"lon":15.978155,"lat":45.810795,"tags":"zagreb","S2CellId":"470b954000000000","result":3172,"accuracy":0.21269378,"title":"Zagreb+-+Cathedral"}
{"id":8661037764,"url":"http://farm9.staticflickr.com/8126/8661037764_c494578686.jpg","path":"9b9/532/9b9532cb549d494ac272babaf1bb114.jpg","date":"2013-04-06","year":2013,"month":4,"lon":15.978155,"lat":45.810795,"tags":"zagreb","S2CellId":"47c3c49000000000","result":4217,"accuracy":0.022348542,"title":"Zagreb+-+Town+Centre"}
{"id":6002086065,"url":"http://farm7.staticflickr.com/6028/6002086065_757d3b9aec.jpg","path":"ee4/39b/ee439b2dff6461de43b65ad6e81164.jpg","date":"2011-07-25","year":2011,"month":7,"lon":15.967599,"lat":45.80726,"tags":"croatia,zagreb","S2CellId":"470b94e900000000","result":3166,"accuracy":0.037975088,"title":"Zagreb"}
{"id":518171308,"url":"http://farm1.staticflickr.com/191/518171308_ff47b6b814.jpg","path":"82c/a40/82ca40acd41b4adb6650173cad72363.jpg","date":"2007-05-28","year":2007,"month":5,"lon":15.949788,"lat":45.788143,"tags":"tigrova+mast","S2CellId":"0d39000000000000","result":327,"accuracy":0.039589055,"title":"20070526_4293"}
{"id":2148783407,"url":"http://farm3.staticflickr.com/2200/2148783407_5db09a0e12.jpg","path":"b13/c56/b13c5672b4f192dad6d08180545740f8.jpg","date":"2007-09-18","year":2007,"month":9,"lon":15.967597,"lat":45.8087,"tags":"cityscape,zagreb","S2CellId":"4765c00000000000","result":3315,"accuracy":0.095909014,"title":"View+from+Gornji+Grad"}
{"id":3241536804,"url":"http://farm4.staticflickr.com/3410/3241536804_6c38f3bdeb.jpg","path":"be7/2bb/be72bb39658cc15e82b6153bffa2744.jpg","date":"2009-01-31","year":2009,"month":1,"lon":15.968198,"lat":45.803654,"tags":"ceiling","S2CellId":"80c2c74000000000","result":7202,"accuracy":0.017286403,"title":"2009_01_26_1034"}
{"id":69867544,"url":"http://farm1.staticflickr.com/15/69867544_01c26e5c99.jpg","path":"40a/68c/40a68cfa46fb9198f2c05bdc727b1d6.jpg","date":"2005-04-21","year":2005,"month":4,"lon":15.951075,"lat":45.787277,"tags":"v2r76","S2CellId":"6000ec0000000000","result":6388,"accuracy":0.11987787,"title":"metamorfoza","description":"no+photoshop"}
{"id":2495203102,"url":"http://farm4.staticflickr.com/3159/2495203102_cd79e87966.jpg","path":"726/645/72664556248870c49b4158d7acd4f79.jpg","date":"2008-05-15","year":2008,"month":5,"lon":15.977854,"lat":45.805813,"tags":"drugi,resources,story,zagreb","S2CellId":"4696311400000000","result":3027,"accuracy":0.041196994,"title":"Canon+058.jpg","description":"%3Ca+href%3D%22http%3A%2F%2Fmaps.google.com%2Fmaps%3Fq%3D+37.393803%2C-122.076145%28Geotagged+Flickr+Photo%29%26t%3Dh%22%3ESee+where+this+picture+was+taken.%3C%2Fa%3E"}
{"id":5605811149,"url":"http://farm6.staticflickr.com/5187/5605811149_9a699fdc9c.jpg","path":"03b/32d/03b32d25d92016c51039ab4b6d26e7.jpg","date":"2011-04-02","year":2011,"month":4,"lon":15.946011,"lat":45.79675,"tags":"flowers,red","S2CellId":"48761ca550000000","result":5339,"accuracy":0.008608344,"title":"Flowers2"}
{"id":7366236894,"url":"http://farm6.staticflickr.com/5075/7366236894_9438ffea67.jpg","path":"e9f/1f7/e9f1f742bfaab92072bc11a586db5fb.jpg","date":"2012-06-09","year":2012,"month":6,"lon":15.552778,"lat":45.49281,"tags":"2012,croatia,karlovac,volkswagen,vw","S2CellId":"864c240000000000","result":7608,"accuracy":0.10434138,"title":"VW+Golf+Mk2"}
{"id":9771090045,"url":"http://farm4.staticflickr.com/3668/9771090045_ffc32dba36.jpg","path":"857/387/857387ad42797ae5b2c2bbfb56e2d59.jpg","date":"2013-09-14","year":2013,"month":9,"lon":15.1332,"lat":45.804466,"tags":"slozilla","S2CellId":"808fb7c000000000","result":7059,"accuracy":0.10956897}
{"id":4750876260,"url":"http://farm5.staticflickr.com/4136/4750876260_bdf4552d6c.jpg","path":"a53/65f/a5365fb684ec87605c58b7fb97bbd9a.jpg","date":"2010-06-30","year":2010,"month":6,"lon":15.963971,"lat":45.803978,"tags":"holiday,museum,zagreb","S2CellId":"54906d0000000000","result":6220,"accuracy":0.0068113892,"title":"An+early+%22personal%22+calculator%21"}
{"id":452845899,"url":"http://farm1.staticflickr.com/207/452845899_d82b7ade08.jpg","path":"c7d/4ac/c7d4aca79c8f8c09cfad2e648ff5cb8.jpg","date":"2007-04-06","year":2007,"month":4,"lon":15.970687,"lat":45.809776,"tags":"birthday,croatia,zagreb","S2CellId":"4692934000000000","result":3009,"accuracy":0.16692199,"title":"DSC01032"}
{"id":11344936363,"url":"http://farm3.staticflickr.com/2883/11344936363_6710b803cf.jpg","path":"927/6c1/9276c13a8c35b1319d4a21173b2eab33.jpg","date":"2013-12-10","year":2013,"month":12,"lon":15.978605,"lat":45.804684,"tags":"b%26w,boy,croatia,silhouette,street,train+station,zagreb","S2CellId":"14a1bd3c00000000","result":1257,"accuracy":0.008332261,"title":"Lost+boy"}
{"id":8637992780,"url":"http://farm9.staticflickr.com/8252/8637992780_4515b1fd01.jpg","path":"81d/946/81d946fe36de2a89ef5c36f790acbe.jpg","date":"2013-04-06","year":2013,"month":4,"lon":15.978155,"lat":45.810795,"tags":"zagreb","S2CellId":"5490d00000000000","result":6226,"accuracy":0.046529427,"title":"Zagreb"}
{"id":3569419087,"url":"http://farm4.staticflickr.com/3301/3569419087_e436927dc1.jpg","path":"f89/cf4/f89cf43f4e7aaca1899c59da886834ee.jpg","date":"2009-05-27","year":2009,"month":5,"lon":15.920369,"lat":45.784008,"tags":"bird,crane,grass,lake,reflection,water,zagreb","S2CellId":"88d0a631cabb5071","result":8563,"accuracy":0.0065826173,"title":"Urban-47"}
{"id":4840652280,"url":"http://farm5.staticflickr.com/4132/4840652280_e0086cdef2.jpg","path":"fdd/f83/fddf83ad3b5aac927d5ff2efaeabe93.jpg","date":"2010-07-30","year":2010,"month":7,"lon":15.972061,"lat":45.811886,"tags":"var%C5%A1avska,varsavska","S2CellId":"89c2599900000000","result":9021,"accuracy":0.044725787,"title":"nek+se+%C4%8Duje"}
{"id":7545281988,"url":"http://farm8.staticflickr.com/7117/7545281988_eb556964ce.jpg","path":"5c3/1d8/5c31d8a2c49087153a7da34fa5c18cb7.jpg","date":"2012-07-01","year":2012,"month":7,"lon":15.538616,"lat":45.50644,"tags":"croatia,karlovac,turanj,warmemorial,warmuseum","S2CellId":"87a4000000000000","result":7928,"accuracy":0.020878911}
{"id":7181123447,"url":"http://farm8.staticflickr.com/7245/7181123447_c40b810c37.jpg","path":"46b/974/46b97435d7b5dbb95b49ad69943cea3.jpg","date":"2012-06-09","year":2012,"month":6,"lon":15.552778,"lat":45.49281,"tags":"2012,croatia,karlovac,volkswagen,vw","S2CellId":"880ef00000000000","result":8147,"accuracy":0.048013195,"title":"VW+Golf+Mk1%27s"}
{"id":8403250472,"url":"http://farm9.staticflickr.com/8212/8403250472_7809b71b4c.jpg","path":"2dc/fde/2dcfded897bd839e8bf87d013793cd.jpg","date":"2013-01-21","year":2013,"month":1,"lon":15.884857,"lat":45.810246,"tags":"cihan+sultano%C4%9Flu,croatia,helen+clark,undp,undp+europe+and+cis","S2CellId":"12a4a2f6d0000000","result":734,"accuracy":0.656407,"title":"Croatian+President+Ivo+Josipovi%C4%87+with+Helen+Clark%2C+Cihan+Sultano%C4%9Flu+and+Louisa+Vinton","description":"Learn+more+about+%3Ca+href%3D%22http%3A%2F%2Feuropeandcis.undp.org%2Faboutus%2Fshow%2FE31EEA0F-F203-1EE9-B2089980355E4070%22+target%3D%22_blank%22+rel%3D%22nofollow%22%3E+Cihan+Sulano%C4%9Flu%3C%2Fa%3E."}
{"id":10902845504,"url":"http://farm4.staticflickr.com/3694/10902845504_f4bfc02d82.jpg","path":"142/066/142066a15812233767538ec8318ac3ff.jpg","date":"2013-11-17","year":2013,"month":11,"lon":15.597359,"lat":45.91205,"tags":"bre%C5%BEice","S2CellId":"808fc90000000000","result":7068,"accuracy":0.011157557,"title":"Telovadno+dru%C5%A1tvo+%22Sokol%22+v+Bre%C5%BEicah+leta+1906.","description":"Rann+a.+d.+Save+-+Telovadno+dru%C5%A1tvo+%22Sokol%22+v+Bre%C5%BEicah+V+spomin+na+razvitje+zastave+%22Sokola%22+v+Bre%C5%BEicah+1906.+Krepimo+se%21++Na+zdar%21+Poslao+prof.+Vladimir+Tkal%C4%8Di%C4%87+mami+Mariji+Tkal%C4%8Di%C4%87+u+Zagreb+30.VII.1906.+Svetlotiskarski+zavod+R.+Monsigner+Zagreb.%0A1996+R+Bre%C5%BEice+a%0ABre%C5%BEice+%28deutsch+Rann%29+ist+eine+Stadt+und+eine+Gemeinde+im+Landschaftsbezirk+Posavje+%28Spodnjeposavska%3B+Untersavetal%29+in+Slowenien%2C+nahe+der+Grenze+zu+Kroatien.+Der+Ort+geh%C3%B6rte+zur+historischen+Region+Untersteiermark."}
{"id":821120265,"url":"http://farm2.staticflickr.com/1103/821120265_58548c6cf4.jpg","path":"502/037/502037e3cdc5cba42fdf30fd07dc088.jpg","date":"2007-07-15","year":2007,"month":7,"lon":15.970602,"lat":45.800354,"tags":"dalibor+perkovi%C4%87,jasmina+te%C5%A1anovi%C4%87,sferakon","S2CellId":"8830fbc000000000","result":8292,"accuracy":0.037355363,"title":"Zagreb%2C+SFeraKon+2007","description":"Dalibor+Perkovi%C4%87+i+Jasmina+Te%C5%A1anovi%C4%87"}
{"id":12690126653,"url":"http://farm8.staticflickr.com/7452/12690126653_1ac4a942f5.jpg","path":"37f/f18/37ff1821498a19c82888187740e64c.jpg","date":"2013-09-10","year":2013,"month":9,"lon":15.607616,"lat":45.348854,"tags":"croatia,cx1,zagreb","S2CellId":"4724000000000000","result":3252,"accuracy":0.028524775,"title":"Zagreb%2C+Croatia","description":"Exif_JPEG_PICTURE"}
{"id":8600823395,"url":"http://farm9.staticflickr.com/8232/8600823395_39f4b11680.jpg","path":"818/8f5/8188f5f8ee5c1caab98d248ff1b35bd.jpg","date":"2013-03-29","year":2013,"month":3,"lon":15.984678,"lat":45.83819,"tags":"cemetary,croatia,mirogoj,zagreb","S2CellId":"91d5c00000000000","result":9634,"accuracy":0.04988042,"title":"29.2.12+Zagreb+13"}
{"id":8602472307,"url":"http://farm9.staticflickr.com/8111/8602472307_87292158b1.jpg","path":"ab7/fe6/ab7fe6f39a313dedb67af93d8802f89.jpg","date":"2012-10-20","year":2012,"month":10,"lon":15.978155,"lat":45.810795,"tags":"zagreb","S2CellId":"12b5ec0000000000","result":810,"accuracy":0.09973483,"title":"Zagreb"}
{"id":3024477947,"url":"http://farm4.staticflickr.com/3054/3024477947_f86c5e6c61.jpg","path":"843/8b4/8438b4d3ba12d6cf1e22693f87e83527.jpg","date":"2008-08-11","year":2008,"month":8,"lon":15.977811,"lat":45.79658,"tags":"%C3%A9p%C3%ADt%C3%A9szet,%D0%B0%D1%80%D1%85%D0%B8%D1%82%D0%B5%D0%BA%D1%82%D1%83%D1%80%D0%B0,%D0%B0%D1%80%D1%85%D0%B8%D1%82%D0%B5%D0%BA%D1%82%D1%83%D1%80%D1%8B,architecture,architectuur,architekt%C3%BAra,architekt%C5%ABra,architektonik,architektur,architektura,architettura,arhitectura,arhitekt%C5%ABra,arhitektura,arhitektuur,arkitekt%C3%BAr,arkitektur,arkkitehtuuri,arquitectura,arquitetura,august+2008,balkans,baustil,bouwkunde,bouwstijl,contemporary+architecture,croatia,hrvatska,konica+minolta+z3,mimari,modern+architecure,zagreb","S2CellId":"89c2585c00000000","result":8963,"accuracy":0.004823032,"title":"Zagreb%2C+Croatia+-+Nacionalna+i+sveu%C4%8Dili%C5%A1na+knji%C5%BEnica+Zagreb+%28National+and+University+Library%29","description":"arch.%3A+Velimir+Neidhardt%2C+Marijan+Hr%C5%BEi%C4%87%2C+Zvonimir+Krznari%C4%87+and+Davor+Mance%3B+1978-1984"}
{"id":1563099409,"url":"http://farm3.staticflickr.com/2294/1563099409_f3504b41b1.jpg","path":"88f/1ba/88f1ba5260ac617d3d3ca5696c94ee.jpg","date":"2006-05-15","year":2006,"month":5,"lon":15.970172,"lat":45.807983,"tags":"croatia,zagreb","S2CellId":"85d1f94000000000","result":7469,"accuracy":0.014885018,"title":"051506-163802-Croacia-Zagreb","description":"Zagreb%2C+Croatia"}
{"id":390341535,"url":"http://farm1.staticflickr.com/158/390341535_f3da98adda.jpg","path":"cf2/447/cf2447e35944522c36e6a7d18b3ccd67.jpg","date":"2006-05-17","year":2006,"month":5,"lon":15.973863,"lat":45.80104,"tags":"croatia,east+meets+west,europe,zagreb","S2CellId":"4776907000000000","result":3414,"accuracy":0.120420754,"title":"EMW039"}
