{"id":4635373261,"url":"http://farm4.staticflickr.com/3415/4635373261_c59f52f721.jpg","path":"422/221/4222212694218a442ed3233f9eabd66.jpg","date":"2010-03-22","year":2010,"month":3,"lon":138.27966,"lat":37.8145,"tags":"jap%C3%B3n,sado+island,viajes","S2CellId":"47b3100000000000","result":4017,"accuracy":0.12387607,"title":"Ogi+Taraibune"}
{"id":6628396235,"url":"http://farm8.staticflickr.com/7025/6628396235_df684111ed.jpg","path":"5d4/922/5d4922c9aa14b289b19950cfbc6eca.jpg","date":"2012-01-02","year":2012,"month":1,"lon":138.95859,"lat":37.63002,"tags":"%E6%97%A5%E6%9C%AC,ijima,jp,niigataken,sanj%C5%8D","S2CellId":"149d000000000000","result":1240,"accuracy":0.018436532,"title":"%EF%BC%A0%E3%82%AB%E3%83%B3%E3%83%86%E3%83%84"}
{"id":8712848554,"url":"http://farm9.staticflickr.com/8267/8712848554_8c1c2b146f.jpg","path":"c92/d64/c92d642e6916e3d22229afe9e34e2b69.jpg","date":"2013-05-06","year":2013,"month":5,"lon":138.95816,"lat":37.631622,"tags":"instagram+app,iphoneography,mayfair,square,square+format","S2CellId":"355ab00000000000","result":2274,"accuracy":0.02459657,"title":"%E3%83%99%E3%83%AD%E3%83%8B%E3%82%AB%E3%81%AE%E3%82%B7%E3%83%A3%E3%82%AD%E3%82%B7%E3%83%A3%E3%82%AD%E3%82%BF%E3%83%AB%E3%82%BF%E3%83%AB%E3%82%BF%E3%82%AB%E3%83%88%E3%83%AA%E3%83%90%E3%83%BC%E3%82%AC%E3%83%BC%E3%81%86%E3%81%BE%E3%81%84%E3%82%88%E3%83%BC%EF%BC%81%40%E4%B8%89%E6%9D%A1%E3%83%9E%E3%83%AB%E3%82%B7%E3%82%A7+%233jom"}
{"id":8929183907,"url":"http://farm8.staticflickr.com/7294/8929183907_d49b211dcb.jpg","path":"7ec/cc1/7eccc1ec7ece4b53c80318121ab729e.jpg","date":"2013-06-02","year":2013,"month":6,"lon":138.9348,"lat":37.63114,"tags":"niigata,sanjo,sanjo-shi","S2CellId":"8722740000000000","result":7745,"accuracy":0.0258251,"title":"%E4%B8%89%E6%9D%A1%E5%87%A7%E5%90%88%E6%88%A62013"}
{"id":4132020270,"url":"http://farm3.staticflickr.com/2789/4132020270_2c9c29fb35.jpg","path":"444/96b/44496b7e86256f7a338adb2a16f16db.jpg","date":"2009-11-06","year":2009,"month":11,"lon":138.24925,"lat":37.81204,"tags":"%E4%BD%90%E6%B8%A1,2.03+km+to+ogi+in+niigata+japan,japan,niigata,ogi","S2CellId":"4875db0000000000","result":5174,"accuracy":0.07840693,"title":"IMG_5549","description":"Taken+at+Latitude%2FLongitude%3A37.812039%2F138.249258+Near+Ogi+Niigata+Japan+%3Ca+href%3D%22http%3A%2F%2Fwww.geonames.org%2Fmaps%2Fgoogle_37.812039_138.249258.html%22+rel%3D%22nofollow%22%3E+%28Map+link%29%3C%2Fa%3E"}
{"id":8066215604,"url":"http://farm9.staticflickr.com/8169/8066215604_de4b3fc047.jpg","path":"b3b/441/b3b441ba932f253cae6dffd45c5123c4.jpg","date":"2012-10-06","year":2012,"month":10,"lon":138.61497,"lat":37.131596,"tags":"art,japan,niigata,tokamachi","S2CellId":"8084100000000000","result":6905,"accuracy":0.15171318,"title":"Echigo-Tsumari+Art+Triennale+2012"}
{"id":5333567616,"url":"http://farm6.staticflickr.com/5283/5333567616_6e8ff95e68.jpg","path":"993/4e2/9934e2331ad6295e57fa32532c8ebf56.jpg","date":"2011-01-08","year":2011,"month":1,"lon":138.95717,"lat":37.628456,"tags":"instagram+app,iphoneography,square,square+format","S2CellId":"5f0b2c0000000000","result":6349,"accuracy":0.021481916,"title":"%E3%82%82%E3%82%84%E3%81%97%E3%83%A9%E3%83%BC%E3%83%A1%E3%83%B3"}
{"id":5325171056,"url":"http://farm6.staticflickr.com/5046/5325171056_c55f1839c9.jpg","path":"dc4/7fc/dc47fc9fff25320bcd189fb7627c91f.jpg","date":"2010-12-05","year":2010,"month":12,"lon":138.81088,"lat":37.6561,"tags":"%E5%BC%A5%E5%BD%A6,%E6%96%B0%E6%BD%9F,2010,d40,december,japan,japanese,jr,nihon,niigata,nikkor,nikon,nippon,rail,station,train,village,winter,yahiko","S2CellId":"3551000000000000","result":2265,"accuracy":0.04176848,"title":"Yahiko+Station","description":"Yahiko+is+a+small+village+along+the+coast+of+Japan.+It+is+located+at+the+base+of+Mt.+Yahiko+%26+Mt.+Kakuda.+While+it+only+has+a+population+of+around+9000%2C+Yahiko+is+home+to+a+very+famous+shrine.+Yahiko+Shrine+is+a+short+walk+from+the+station.+If+you+have+to+wait+for+your+train%2C+Yahiko+Park+is+a+nice+place+to+relax.+It+is+located+right+across+the+parking+lot.+There+is+a+large%2C+sightseeing+map+and+an+information+center+near+the+station+%28nothing+available+in+English%2C+however%29.%0A%0A%3Ci%3E%3Cb%3EYahiko-eki.+Yahiko+Village%2C+Niigata.%3C%2Fb%3E%3C%2Fi%3E"}
{"id":6561773203,"url":"http://farm8.staticflickr.com/7171/6561773203_2acee5a472.jpg","path":"4d4/76c/4d476c94dd918c6e880ad64348346b.jpg","date":"2011-12-23","year":2011,"month":12,"lon":138.9602,"lat":37.630524,"tags":"%E6%97%A5%E6%9C%AC,ijima,jp,niigataken,sanj%C5%8D","S2CellId":"88f5010000000000","result":8705,"accuracy":0.027627366,"title":"20111223_Xyas+Day+1"}
{"id":5858500572,"url":"http://farm3.staticflickr.com/2598/5858500572_65d58fe09e.jpg","path":"94c/d84/94cd8478c6433be1e8d92a847dba51.jpg","date":"2011-06-22","year":2011,"month":6,"lon":138.97395,"lat":37.628387,"tags":"instagram+app,iphoneography,square,square+format,walden","S2CellId":"47e66e7000000000","result":4623,"accuracy":0.019579468}
{"id":5627245500,"url":"http://farm6.staticflickr.com/5305/5627245500_6dece93f0e.jpg","path":"2b3/97f/2b397f8e972487b5a3d44974f7b74f.jpg","date":"2011-04-16","year":2011,"month":4,"lon":138.91844,"lat":37.65254,"tags":"%E5%B7%BB,%E6%96%B0%E6%BD%9F,%E6%96%B0%E6%BD%9F%E3%83%95%E3%82%A9%E3%83%88%E3%82%A6%E3%82%A9%E3%83%BC%E3%82%AF,eye-fi,japan,maki,niigata,niigata+prefecture,npw,nsmc,photowalk,photowalk20110416,tsubame","S2CellId":"5ff8400000000000","result":6373,"accuracy":0.2201863,"title":"Niigata+Photowalk+Maki+20110416","description":"%3Ca+href%3D%22http%3A%2F%2Fwww.eyefi.co.jp%22+rel%3D%22nofollow%22%3EEye-Fi%3C%2Fa%3E%E3%81%8B%E3%82%89%E3%82%A2%E3%83%83%E3%83%97%E3%83%AD%E3%83%BC%E3%83%89%E3%81%95%E3%82%8C%E3%81%BE%E3%81%97%E3%81%9F"}
{"id":6066993099,"url":"http://farm7.staticflickr.com/6206/6066993099_23423853fd.jpg","path":"9a8/f17/9a8f177c4075d47f8612f1a09865e1a.jpg","date":"2011-08-22","year":2011,"month":8,"lon":138.97395,"lat":37.628387,"tags":"instagram+app,iphoneography,square,square+format,x-pro+ii","S2CellId":"6018640000000000","result":6457,"accuracy":0.014811324,"title":"%E7%9C%8B%E6%9D%BF%E3%81%8C%E3%81%A4%E3%81%84%E3%81%9F"}
{"id":7861892150,"url":"http://farm9.staticflickr.com/8298/7861892150_e85513a376.jpg","path":"1ab/8e2/1ab8e25b8840cc5346922c7db44979b4.jpg","date":"2012-08-18","year":2012,"month":8,"lon":138.76038,"lat":37.138996,"tags":"art,japan,niigata,tokamachi","S2CellId":"89c258b000000000","result":8978,"accuracy":0.008579506,"title":"Echigo-Tsumari+Art+Triennale+2012","description":"%3Ca+target%3D%22_blank%22+href%3D%22http%3A%2F%2Fwww.echigo-tsumari.jp%2Feng%2Fartwork%2Frolling_cylinder_2012%22+rel%3D%22nofollow%22%3ERolling+Cylinder%2C+2012+by+Carsten+H%C3%B6ller%3C%2Fa%3E"}
{"id":5433226585,"url":"http://farm5.staticflickr.com/4081/5433226585_26321d8b9b.jpg","path":"c9e/6f0/c9e6f0c56ee4df2fff9a4ff206eb2d9.jpg","date":"2011-02-11","year":2011,"month":2,"lon":138.93703,"lat":37.64877,"tags":"instagram+app,iphoneography,square,square+format","S2CellId":"5f0b2c0000000000","result":6349,"accuracy":0.00609462}
{"id":5491434451,"url":"http://farm6.staticflickr.com/5171/5491434451_e6aca838f4.jpg","path":"98f/678/98f678fa489141713b5dcf63427b2d48.jpg","date":"2011-02-20","year":2011,"month":2,"lon":138.97406,"lat":37.62846,"tags":"%E9%89%84%E9%81%93,2011,friendly.flickr,japan,railway","S2CellId":"3551000000000000","result":2265,"accuracy":0.09227596,"title":"DSC_0260"}
{"id":6194712424,"url":"http://farm7.staticflickr.com/6168/6194712424_61160b650c.jpg","path":"612/e42/612e42d6fdade83c3242632fea97fbc.jpg","date":"2010-10-31","year":2010,"month":10,"lon":138.80693,"lat":37.689796,"tags":"%E5%BC%A5%E5%BD%A6%E3%80%80%E6%96%B0%E6%BD%9F%E7%9C%8C,%E6%97%A5%E6%9C%AC,japan,nikon,travel","S2CellId":"601ec00000000000","result":6557,"accuracy":0.10189516,"title":"Yahiko+%7C+View+over+Niigata-ken+plains","description":"Taken+from+the+top+of+Mt+Yahiko%2C+looking+down+over+the+flat+plains+of+the+prefecture.+This+was+where+we+were+supposed+to+be+having+our+wedding+%28or+rather%2C+at+the+temple+at+the+bottom%29+but+that+didn%27t+happen."}
{"id":5588853385,"url":"http://farm6.staticflickr.com/5181/5588853385_8e5d2488c6.jpg","path":"2c6/d29/2c6d29c2e71d2ca6c6e5b8d31a587dc.jpg","date":"2011-04-02","year":2011,"month":4,"lon":138.24438,"lat":37.130463,"tags":"commerce","S2CellId":"6022840000000000","result":6562,"accuracy":0.07888527,"title":"bendingmachines","description":"%E7%AF%80%E9%9B%BB%E4%B8%AD%E3%81%AE%E8%87%AA%E5%8B%95%E8%B2%A9%E5%A3%B2%E6%A9%9F%0A%E5%95%86%E5%93%81%E9%99%B3%E5%88%97%E3%83%91%E3%83%8D%E3%83%AB%E3%81%AE%E9%9B%BB%E6%B0%97%E3%81%8C%E8%90%BD%E3%81%A1%E3%81%A6%E3%81%84%E3%82%8B%E3%81%91%E3%81%A9%E3%80%81%0A%E3%81%8D%E3%81%A1%E3%82%93%E3%81%A8%E8%B2%A9%E5%A3%B2%E4%B8%AD%E3%81%AA%E3%81%AE%E3%81%A7%E3%83%A9%E3%83%99%E3%83%AB%E3%81%8C%E8%B2%BC%E3%81%A3%E3%81%A6%E3%81%82%E3%82%8B%E3%80%82%0A%0AThey+are+vending+machines+when+energy+savings+now.%0ABecause+cut+off+goods+display+panel+lights.%0A%0ASo+left+side+machine+was+tagged+%22Now+on+sales%22.%0A%0AIt+was+effected+from+accident+of+nuclear+power+plant+that+is+named+Tokyo+Electric+Company+Fukushima+No.1+.%0AThis+area+was+supplied+from++Tohoku+Electric+Power+Company+50Hz+AC.%0A50Hz+is+compatible+with++Tokyo+Electric+Power+Company+%28TEPCO%29."}
{"id":6023396965,"url":"http://farm7.staticflickr.com/6135/6023396965_96c9d072cd.jpg","path":"e79/b4f/e79b4f394ff66f3962ff0a5c6d33cbf.jpg","date":"2011-08-09","year":2011,"month":8,"lon":138.97395,"lat":37.628387,"tags":"earlybird,instagram+app,iphoneography,square,square+format","S2CellId":"46b5370000000000","result":3055,"accuracy":0.0061413576}
{"id":3884092292,"url":"http://farm3.staticflickr.com/2474/3884092292_b22144386c.jpg","path":"a9e/c1a/a9ec1a65f54f3693ef2322390528db9.jpg","date":"2009-09-02","year":2009,"month":9,"lon":138.71175,"lat":37.308857,"tags":"eye-fi","S2CellId":"60013c0000000000","result":6413,"accuracy":0.107655466,"title":"DSCN1096.JPG"}
{"id":4010231516,"url":"http://farm3.staticflickr.com/2559/4010231516_51862f2488.jpg","path":"14a/1c4/14a1c48f7c99729ca7c0b1fb1dd2fb5.jpg","date":"2009-10-12","year":2009,"month":10,"lon":138.71786,"lat":37.305473,"tags":"eye-fi","S2CellId":"5f8b000000000000","result":6361,"accuracy":0.061446562,"title":"DSCN1375.JPG"}
{"id":4356000849,"url":"http://farm3.staticflickr.com/2715/4356000849_d65973206e.jpg","path":"578/e54/578e5465f7291990bc467eba8c7588dd.jpg","date":"2010-02-14","year":2010,"month":2,"lon":138.70984,"lat":37.30585,"tags":"eye-fi","S2CellId":"45d4000000000000","result":2755,"accuracy":0.039303232,"title":"DSCN1830.JPG"}
{"id":1220479932,"url":"http://farm2.staticflickr.com/1313/1220479932_917ad18b91.jpg","path":"df6/3c7/df63c756b2cb593c5d66a78307d8d48.jpg","date":"2007-08-12","year":2007,"month":8,"lon":138.82236,"lat":37.344513,"tags":"cycling,nagaoka,nigatacycling,niigata,odiya,sign,sky","S2CellId":"6021000000000000","result":6560,"accuracy":0.16782543,"title":"%E8%B6%8A%E3%81%AE%E5%A4%A7%E6%A9%8B%E3%82%88%E3%82%8A+%282%29","description":"%E5%B0%8F%E5%8D%83%E8%B0%B7%E3%82%92%E6%8A%9C%E3%81%91%E3%81%A6%E9%95%B7%E5%B2%A1%E3%81%8B%E3%82%89%E3%81%AE%E4%B8%80%E6%9E%9A%E3%80%82%E5%A4%A9%E6%B0%97%E3%81%AF%E5%BF%AB%E6%99%B4%E3%80%82%E5%90%91%E3%81%93%E3%81%86%E3%81%AB%E3%81%AF%E9%9A%8F%E5%88%86%E9%81%A0%E3%81%8F%E3%81%AA%E3%81%A3%E3%81%9F%E5%B1%B1%E3%81%8C%E8%A6%8B%E3%81%88%E3%82%8B%E3%80%82%E9%81%93%E8%B7%AF%E3%81%AE%E8%A1%8C%E3%81%8D%E5%85%88%E8%A1%A8%E7%A4%BA%E7%9C%8B%E6%9D%BF%E3%82%82%E3%82%88%E3%81%8F%E8%A6%8B%E3%82%8B%E3%81%A8%E9%9B%AA%E5%9B%BD%E4%BB%95%E6%A7%98%E3%81%AB%E3%81%AA%E3%81%A3%E3%81%A6%E3%81%84%E3%82%8B%E3%81%93%E3%81%A8%E3%81%AB%E6%B0%97%E4%BB%98%E3%81%8F%E3%80%82"}
{"id":6997973796,"url":"http://farm8.staticflickr.com/7209/6997973796_c385182f5f.jpg","path":"608/f2d/608f2d68fe395e3578d7fab8ddf35a48.jpg","date":"2012-05-05","year":2012,"month":5,"lon":138.96045,"lat":37.630825,"tags":"%E6%97%A5%E6%9C%AC,ijima,jp,niigataken,sanj%C5%8D","S2CellId":"8085809400000000","result":6947,"accuracy":0.015295144,"title":"JUN+KANEKO+%28frame+by+takumix%29+%C3%97+tomizou+ART+EXHIBITION"}
{"id":8997184840,"url":"http://farm6.staticflickr.com/5321/8997184840_fdc969621a.jpg","path":"b43/662/b436628e8097fb3794793c886d3d97d.jpg","date":"2013-06-09","year":2013,"month":6,"lon":138.8925,"lat":37.761665,"tags":"iphone","S2CellId":"89d5400000000000","result":9263,"accuracy":0.0073788273,"title":"%E3%82%AB%E3%83%A1%E3%83%A9%E3%83%AD%E3%83%BC%E3%83%AB-130"}
{"id":3884090574,"url":"http://farm4.staticflickr.com/3149/3884090574_cbaa563103.jpg","path":"ebc/f26/ebcf2675d25dc787c7ce359f1bdd9a.jpg","date":"2009-09-02","year":2009,"month":9,"lon":138.71423,"lat":37.300472,"tags":"eye-fi","S2CellId":"8893000000000000","result":8521,"accuracy":0.039375287,"title":"DSCN1092.JPG"}
{"id":6033910858,"url":"http://farm7.staticflickr.com/6075/6033910858_55337b3f26.jpg","path":"dac/729/dac729a2373f31f3c793cfe3f887d6.jpg","date":"2011-08-10","year":2011,"month":8,"lon":138.95872,"lat":37.62812,"tags":"%E6%97%A5%E6%9C%AC,ijima,jp,niigataken,sanj%C5%8D","S2CellId":"8830f40000000000","result":8287,"accuracy":0.0065390826,"title":"%EF%BC%A0%E3%81%95%E3%82%93%E3%81%8D%E3%82%89%E3%81%8F"}
{"id":6958296352,"url":"http://farm9.staticflickr.com/8001/6958296352_78751cbdc9.jpg","path":"f2c/86d/f2c86d46e524f6fa20414296cb3dce61.jpg","date":"2012-04-22","year":2012,"month":4,"lon":138.2454,"lat":37.114655,"tags":"%E3%83%95%E3%82%A9%E3%83%88%E3%82%A6%E3%82%A9%E3%83%BC%E3%82%AF,%E4%B8%8A%E8%B6%8A,%E6%96%B0%E6%BD%9F,%E6%96%B0%E6%BD%9F%E3%83%95%E3%82%A9%E3%83%88%E3%82%A6%E3%82%A9%E3%83%BC%E3%82%AF,%E9%AB%98%E7%94%B0,eye-fi,japan,joetsu,niigata,niigata+prefecture,photowalk,photowalk20120422,takada","S2CellId":"6002c00000000000","result":6427,"accuracy":0.031407222,"title":"Niigata+Photowalk+%2315+Takada+20120422","description":"%3Ca+href%3D%22http%3A%2F%2Fwww.eyefi.co.jp%22+rel%3D%22nofollow%22%3EEye-Fi%3C%2Fa%3E%E3%81%8B%E3%82%89%E3%82%A2%E3%83%83%E3%83%97%E3%83%AD%E3%83%BC%E3%83%89%E3%81%95%E3%82%8C%E3%81%BE%E3%81%97%E3%81%9F"}
{"id":5435714264,"url":"http://farm6.staticflickr.com/5139/5435714264_c746a94412.jpg","path":"426/dda/426dda1c6f3a17886dc35d63ffe977f.jpg","date":"2011-02-11","year":2011,"month":2,"lon":138.97418,"lat":37.62814,"tags":"instagram+app,iphoneography,square,square+format","S2CellId":"2e7a500000000000","result":1582,"accuracy":0.0023712935,"title":"%E3%81%AA%E3%83%BC%E3%82%93%E3%81%A0%EF%BC%9F"}
{"id":2643438254,"url":"http://farm4.staticflickr.com/3004/2643438254_a1fc2e8862.jpg","path":"44c/4b3/44c4b3f81986ac84e879cb647bbc499.jpg","date":"2008-07-06","year":2008,"month":7,"lon":138.90848,"lat":37.116936,"tags":"green,japan,niigata,sky","S2CellId":"5ff8400000000000","result":6373,"accuracy":0.3082676,"title":"RIMG0240"}
{"id":5089086081,"url":"http://farm5.staticflickr.com/4112/5089086081_21bbc5b7b6.jpg","path":"74e/c6f/74ec6f963c4629ff134281a9cc25c2e7.jpg","date":"2010-10-16","year":2010,"month":10,"lon":138.99,"lat":37.48126,"tags":"%E6%96%B0%E6%BD%9F%E3%83%95%E3%82%A9%E3%83%88%E3%82%A6%E3%82%A9%E3%83%BC%E3%82%AF,%E6%A0%83%E5%B0%BE,monochrome,niigata,nsmc,photowalk,photowalk20101016","S2CellId":"48d674d000000000","result":5807,"accuracy":0.0056179157,"title":"at+the+parking"}
{"id":5278871851,"url":"http://farm6.staticflickr.com/5210/5278871851_01deb48459.jpg","path":"39a/55b/39a55b8d4765c6aad960e67fbcab2cf8.jpg","date":"2010-12-20","year":2010,"month":12,"lon":138.95096,"lat":37.207363,"tags":"buddhist,japan,spring,temple","S2CellId":"6018450000000000","result":6446,"accuracy":0.017723393,"title":"Japan+2010+Day+2","description":"Dai+tou+gi"}
{"id":8997049622,"url":"http://farm6.staticflickr.com/5447/8997049622_03bc5fac29.jpg","path":"d98/76d/d9876d299be8d334acd19a8ba63dd73b.jpg","date":"2013-06-09","year":2013,"month":6,"lon":138.92467,"lat":37.868668,"tags":"iphone","S2CellId":"131b000000000000","result":985,"accuracy":0.037895698,"title":"%E3%82%AB%E3%83%A1%E3%83%A9%E3%83%AD%E3%83%BC%E3%83%AB-132"}
{"id":5646657519,"url":"http://farm6.staticflickr.com/5308/5646657519_f24f0eb0c6.jpg","path":"12a/f78/12af78dd03635b45b8ae26e8c536f70.jpg","date":"2011-04-23","year":2011,"month":4,"lon":138.91844,"lat":37.65254,"tags":"%E5%8D%81%E5%AD%97%E8%B7%AF,%E9%80%81%E5%88%A5%E4%BC%9A,%E9%95%B7%E5%B2%A1,eye-fi,farewell,for,japan,nagaoka,niigata+prefecture,party,saki,tsubame","S2CellId":"3467e70000000000","result":2121,"accuracy":0.03872389,"title":"Farewell+Party+for+Saki","description":"%3Ca+href%3D%22http%3A%2F%2Fwww.eyefi.co.jp%22+rel%3D%22nofollow%22%3EEye-Fi%3C%2Fa%3E%E3%81%8B%E3%82%89%E3%82%A2%E3%83%83%E3%83%97%E3%83%AD%E3%83%BC%E3%83%89%E3%81%95%E3%82%8C%E3%81%BE%E3%81%97%E3%81%9F"}
{"id":8570872641,"url":"http://farm9.staticflickr.com/8105/8570872641_4e90b337e5.jpg","path":"4e5/f3b/4e5f3b9778e3141c96e1d3c61a136d.jpg","date":"2013-03-18","year":2013,"month":3,"lon":138.24388,"lat":37.80743,"tags":"%E4%BD%90%E6%B8%A1%E5%B3%B6,%E5%AE%BF%E6%A0%B9%E6%9C%A8,%EF%BD%93hukunegi,japan,niigata,sado","S2CellId":"6018450000000000","result":6446,"accuracy":0.04638249,"title":"drops"}
{"id":7731032902,"url":"http://farm9.staticflickr.com/8432/7731032902_d9ed1de693.jpg","path":"233/713/233713738e89b1362950c194a95cd6cf.jpg","date":"2012-08-07","year":2012,"month":8,"lon":138.53358,"lat":37.122807,"tags":"instagram+app,iphoneography,lord+kelvin,square,square+format","S2CellId":"8085814000000000","result":6961,"accuracy":0.0042366805,"title":"%E8%84%B1%E7%9A%AE%E3%82%A2%E3%82%B2%E3%82%A4%E3%83%B3"}
{"id":7702985424,"url":"http://farm9.staticflickr.com/8432/7702985424_42b32acc92.jpg","path":"423/23f/42323f50ee1be6afebfb3347bf77e48.jpg","date":"2012-08-03","year":2012,"month":8,"lon":138.52943,"lat":37.12591,"tags":"instagram+app,iphoneography,square,square+format","S2CellId":"19d0000000000000","result":1439,"accuracy":0.066614605,"title":"%E6%A3%9A%E7%94%B0%E7%B5%B6%E6%99%AF%E3%82%B9%E3%83%9D%E3%83%83%E3%83%88"}
{"id":5647071782,"url":"http://farm6.staticflickr.com/5306/5647071782_4af7aab890.jpg","path":"389/9a5/3899a5b03543856fb7d3e3fe69e8ecf7.jpg","date":"2011-04-23","year":2011,"month":4,"lon":138.91844,"lat":37.65254,"tags":"%E5%8D%81%E5%AD%97%E8%B7%AF,%E9%80%81%E5%88%A5%E4%BC%9A,%E9%95%B7%E5%B2%A1,eye-fi,farewell,for,japan,nagaoka,niigata+prefecture,party,saki,tsubame","S2CellId":"80dc740000000000","result":7331,"accuracy":0.05661865,"title":"Farewell+Party+for+Saki","description":"%3Ca+href%3D%22http%3A%2F%2Fwww.eyefi.co.jp%22+rel%3D%22nofollow%22%3EEye-Fi%3C%2Fa%3E%E3%81%8B%E3%82%89%E3%82%A2%E3%83%83%E3%83%97%E3%83%AD%E3%83%BC%E3%83%89%E3%81%95%E3%82%8C%E3%81%BE%E3%81%97%E3%81%9F"}
{"id":2570939976,"url":"http://farm4.staticflickr.com/3183/2570939976_fafd898327.jpg","path":"c43/7da/c437da2421f43ebc64ba2fcfc2fdff6.jpg","date":"2008-06-06","year":2008,"month":6,"lon":138.89172,"lat":37.47231,"tags":"japan,nagaoka,niigata-ken","S2CellId":"4799d40000000000","result":3790,"accuracy":0.09024316,"title":"The+long+road+north"}
{"id":5626032321,"url":"http://farm6.staticflickr.com/5228/5626032321_7e1bc1ccfe.jpg","path":"a2d/c27/a2dc2781bfbdfd5a28c95b433d2f83b8.jpg","date":"2011-04-16","year":2011,"month":4,"lon":138.8909,"lat":37.759323,"tags":"japan,kottenai,maki,niigata,npw,nsmc,photowalk20110416","S2CellId":"88dd7fac00000000","result":8631,"accuracy":0.00597431,"title":"npw+222+maki+niigata+japan+photowalk20110416+kottenai+nsmc+npw"}
