{"id":2897018167,"url":"http://farm4.staticflickr.com/3143/2897018167_5c57ec050b.jpg","path":"9b8/e69/9b8e691a230793e5f17cd52434c3d2.jpg","date":"2008-09-27","year":2008,"month":9,"lon":-91.12524,"lat":38.711,"tags":"calontir,keith+roberts+photography,sca,three+rivers","S2CellId":"88d0a631cabb5071","result":8563,"accuracy":0.05724741,"title":"IMG_1329"}
{"id":2161458914,"url":"http://farm3.staticflickr.com/2400/2161458914_6432ba9aa5.jpg","path":"2cb/85a/2cb85abcfdc7918e8468b35b40aa9cfa.jpg","date":"2007-12-15","year":2007,"month":12,"lon":-91.722534,"lat":38.96815,"tags":"linc%27s,stuff","S2CellId":"5f70000000000000","result":6358,"accuracy":0.0062146187,"title":"More+Winter+Berries"}
{"id":12953530965,"url":"http://farm3.staticflickr.com/2836/12953530965_501d3e6778.jpg","path":"646/171/6461712a924f2145c7375cd7e4c603e.jpg","date":"2014-03-05","year":2014,"month":3,"lon":-91.46964,"lat":38.037487,"tags":"hefe,instagram+app,iphoneography,square,square+format","S2CellId":"34e5700000000000","result":2248,"accuracy":0.008255314,"title":"twinsies+%23rvsx"}
{"id":2161480190,"url":"http://farm3.staticflickr.com/2017/2161480190_37b20bd5b7.jpg","path":"78d/216/78d2162a90ab6747849023a314e7f8.jpg","date":"2007-12-28","year":2007,"month":12,"lon":-91.71378,"lat":38.977825,"tags":"linc%27s,stuff","S2CellId":"183c000000000000","result":1427,"accuracy":0.04234322,"title":"First+Aid","description":"A+scout+prepares+the+scout+master+for+some+basic+blister+first+aid"}
{"id":2897987502,"url":"http://farm4.staticflickr.com/3116/2897987502_2c7d798c42.jpg","path":"b25/001/b250015ded3f8f7b9cd34deca76ba19.jpg","date":"2008-09-27","year":2008,"month":9,"lon":-91.12524,"lat":38.711,"tags":"calontir,keith+roberts+photography,sca,three+rivers","S2CellId":"87b21c0000000000","result":7934,"accuracy":0.1921099,"title":"IMG_1379"}
{"id":2897032593,"url":"http://farm4.staticflickr.com/3280/2897032593_37de338933.jpg","path":"e9d/570/e9d570d57d7f1e5581b8ed4df7342d6d.jpg","date":"2008-09-27","year":2008,"month":9,"lon":-91.12524,"lat":38.711,"tags":"calontir,keith+roberts+photography,sca,three+rivers","S2CellId":"89b1130000000000","result":8808,"accuracy":0.118562765,"title":"IMG_1336"}
{"id":6589043589,"url":"http://farm8.staticflickr.com/7165/6589043589_4d7cc21e01.jpg","path":"d4b/0f2/d4b0f2c7189a57ecafa6c6ce3b6f54c.jpg","date":"2011-12-28","year":2011,"month":12,"lon":-91.20614,"lat":38.823242,"tags":"amateur,amateur+radio,ham,ham+radio,n0ssc,radio","S2CellId":"8840400000000000","result":8378,"accuracy":0.015186863,"title":"Coax+Feedthru","description":"Don%27t+worry%2C+I+put+a+towel+in+the+jamb."}
