{"id":5842664416,"url":"http://farm3.staticflickr.com/2555/5842664416_7d1cb8c2e4.jpg","path":"989/a3a/989a3a44c1e406d999b9bff6bc26c6.jpg","date":"2011-05-24","year":2011,"month":5,"lon":35.76083,"lat":-7.80012,"tags":"biogas,kibebefarm,walkabout2010and11","S2CellId":"87ef400000000000","result":8042,"accuracy":0.094304934,"title":"Building+the+Biogas+Plant+at+Kibebe-116"}
{"id":5030054689,"url":"http://farm5.staticflickr.com/4131/5030054689_3e53af890c.jpg","path":"183/bb4/183bb4c88e6ec89bebc78e2fbf935f27.jpg","date":"2010-09-26","year":2010,"month":9,"lon":35.69,"lat":-7.77,"tags":"randomkids,tanzania,walkabout2010","S2CellId":"0ed0000000000000","result":640,"accuracy":0.09259399,"title":"Daily+Bread+Life+Ministries+Children+Homes+and+Day+Care+Center","description":"Orphanage+Near+Iringa"}
{"id":2862237468,"url":"http://farm4.staticflickr.com/3149/2862237468_9be0b7afb7.jpg","path":"e52/c27/e52c27084ac7b2be38e32217a2a36.jpg","date":"2008-05-05","year":2008,"month":5,"lon":35.691833,"lat":-7.766783,"tags":"adventure,east,tanzania,tanzania+2008+africa,travel,travelers","S2CellId":"9689f00000000000","result":9911,"accuracy":0.18810959,"title":"Tanzania-1513"}
{"id":2861422315,"url":"http://farm4.staticflickr.com/3062/2861422315_37732ba9bd.jpg","path":"5a8/c6c/5a8c6cb06e6376434324c125e56cb.jpg","date":"2008-05-05","year":2008,"month":5,"lon":35.691833,"lat":-7.766783,"tags":"adventure,east,tanzania,tanzania+2008+africa,travel,travelers","S2CellId":"12c9100000000000","result":838,"accuracy":0.045204394,"title":"Iringa"}
{"id":5029243030,"url":"http://farm5.staticflickr.com/4149/5029243030_74b57080c3.jpg","path":"da2/fe6/da2fe6b2fe446dff54ec837faccff3.jpg","date":"2010-09-26","year":2010,"month":9,"lon":35.701042,"lat":-7.774564,"tags":"flora,tanzania,walkabout2010","S2CellId":"12a47c0000000000","result":692,"accuracy":0.0112189995,"title":"Life+in+Iringa-12"}
{"id":184257379,"url":"http://farm1.staticflickr.com/64/184257379_b639e4f002.jpg","path":"147/de1/147de119f2bd094298667f3ad18799.jpg","date":"2006-07-07","year":2006,"month":7,"lon":35.200195,"lat":-7.667441,"tags":"africa,exodus,tanzania","S2CellId":"0d45400000000000","result":394,"accuracy":0.024583612,"title":"21tazusumbaro"}
