{"id":3684849310,"url":"http://farm4.staticflickr.com/3632/3684849310_37355a8284.jpg","path":"782/db6/782db6e1481ef996a45061934c377da6.jpg","date":"2009-07-03","year":2009,"month":7,"lon":-95.98534,"lat":35.801018,"tags":"canine,dog,pet","S2CellId":"8884000000000000","result":8509,"accuracy":0.013090825,"title":"IMG_2658"}
{"id":3323444799,"url":"http://farm4.staticflickr.com/3596/3323444799_8b683ccd69.jpg","path":"4db/c57/4dbc5746be6be3bd25ccea85591b2672.jpg","date":"2009-03-02","year":2009,"month":3,"lon":-95.98534,"lat":35.801018,"tags":"flora,flower","S2CellId":"89c2f34000000000","result":9103,"accuracy":0.015248147,"title":"IMG_2479_1600x1067"}
{"id":4316227610,"url":"http://farm3.staticflickr.com/2747/4316227610_c510f44dce.jpg","path":"d5e/a63/d5ea633f537b4ab7f1b172a7917be61.jpg","date":"2010-01-29","year":2010,"month":1,"lon":-95.98544,"lat":35.80085,"tags":"ice,tree,winter","S2CellId":"89d4d40000000000","result":9260,"accuracy":0.010911264,"title":"IMG_0824_1600x1067","description":"%3Ca+href%3D%22http%3A%2F%2Fcreativecommons.org%2Flicenses%2Fby-sa%2F3.0%2F%22+rel%3D%22nofollow%22%3EAttribution+Share+Alike+Creative+Commons+License%3C%2Fa%3E"}
{"id":3682676271,"url":"http://farm4.staticflickr.com/3586/3682676271_131f170b7f.jpg","path":"46e/846/46e846c156d62de1fef56c893b66e9.jpg","date":"2009-07-02","year":2009,"month":7,"lon":-95.98534,"lat":35.801018,"tags":"flora,flower,nature","S2CellId":"88d0a631cabb5071","result":8563,"accuracy":0.0064780144,"title":"IMG_3294"}
{"id":3713267020,"url":"http://farm4.staticflickr.com/3473/3713267020_e850850cd2.jpg","path":"23b/275/23b27511979e31aba24bcb3b4aa47636.jpg","date":"2009-07-12","year":2009,"month":7,"lon":-95.98534,"lat":35.801018,"tags":"nature,tree,woods","S2CellId":"880e440000000000","result":8139,"accuracy":0.011271243,"title":"IMG_1802"}
{"id":4590490957,"url":"http://farm4.staticflickr.com/3318/4590490957_cb84bef78b.jpg","path":"992/34b/99234bfa997a7a57c651b7ee68206866.jpg","date":"2010-05-08","year":2010,"month":5,"lon":-95.98544,"lat":35.80085,"tags":"flora,flower,nature","S2CellId":"883cae5000000000","result":8363,"accuracy":0.13470767,"title":"20100508_0011_1600x1067"}
{"id":749833772,"url":"http://farm2.staticflickr.com/1298/749833772_0eb4d98b7f.jpg","path":"1e6/c1b/1e6c1ba842fb9d928d33395569853e2.jpg","date":"2007-07-03","year":2007,"month":7,"lon":-95.52845,"lat":35.919456,"tags":"acreestudios,bobby,d40,family,nikon,people,selfportrait","S2CellId":"8830f40000000000","result":8287,"accuracy":0.0043728184,"title":"Remotely+Me","description":"Watchin%27+the+sun+go+down.++I+bought+a+remote+so+I+had+to+try+it+out."}
{"id":3617479235,"url":"http://farm4.staticflickr.com/3417/3617479235_63b08bd425.jpg","path":"429/9e3/4299e3416b23e7714c13c6876692e7e0.jpg","date":"2009-06-11","year":2009,"month":6,"lon":-95.98534,"lat":35.801018,"tags":"flora,flower,nature","S2CellId":"12a47c0000000000","result":692,"accuracy":0.015718745,"title":"IMG_5890"}
{"id":4069304728,"url":"http://farm4.staticflickr.com/3159/4069304728_9dac08bc3c.jpg","path":"ce1/a1c/ce1a1cf15c2533793b0f0b0761112e2.jpg","date":"2009-11-02","year":2009,"month":11,"lon":-95.98544,"lat":35.80085,"tags":"autumn,leaf,nature,tree","S2CellId":"4871740000000000","result":5039,"accuracy":0.023929523,"title":"IMG_3704_1600x1067"}
{"id":8596087165,"url":"http://farm9.staticflickr.com/8516/8596087165_23f9f994b0.jpg","path":"efb/d9d/efbd9d0c749fedc96029d56aa9a044.jpg","date":"2013-03-27","year":2013,"month":3,"lon":-95.16427,"lat":35.63012,"tags":"greenleaf+state+park,gruber,oklahoma,wpa","S2CellId":"89c9f00000000000","result":9211,"accuracy":0.036510486,"title":"Greenleaf+Lodge","description":"one+of+two+patio+areas+behind+lodge"}
{"id":2654598320,"url":"http://farm4.staticflickr.com/3066/2654598320_8521f0cc57.jpg","path":"eb3/156/eb3156b036d6f4771401a5635b399c5.jpg","date":"2008-07-05","year":2008,"month":7,"lon":-95.31054,"lat":35.79443,"tags":"diesel,drydock,muskogee,oklahoma,submarine,torpedo,tourist,uss+batfish,world+war+ii","S2CellId":"480a700000000000","result":4772,"accuracy":0.101871274,"title":"USS+Batfish","description":"The+submarine+USS+Batfish+on+display+in+Muskogee%2C+OK."}
{"id":3776083594,"url":"http://farm3.staticflickr.com/2604/3776083594_0d365b6cfe.jpg","path":"c31/e44/c31e441fd293e5489022f5b1d3264943.jpg","date":"2009-07-31","year":2009,"month":7,"lon":-95.98534,"lat":35.801018,"tags":"flora,flower,nature","S2CellId":"6ad642a400000000","result":6620,"accuracy":0.0126466155,"title":"IMG_2960_1600x1067"}
{"id":3350105242,"url":"http://farm4.staticflickr.com/3632/3350105242_c1e77b9e48.jpg","path":"8da/06a/8da06abe58ed1c49acdb7f24c354029.jpg","date":"2008-05-15","year":2008,"month":5,"lon":-95.98534,"lat":35.801018,"tags":"flora,tree","S2CellId":"60013c0000000000","result":6413,"accuracy":0.036634173,"title":"IMG_6475_1600x1067"}
{"id":3273839069,"url":"http://farm4.staticflickr.com/3407/3273839069_da852b5ef9.jpg","path":"cf8/0c5/cf80c581e3a18e7a1271ac93f0671.jpg","date":"2008-05-19","year":2008,"month":5,"lon":-95.98534,"lat":35.801018,"tags":"berry,blackberry,garden","S2CellId":"6ad642a400000000","result":6620,"accuracy":0.0062341783,"title":"IMG_6924_1600x1067","description":"Blackberries"}
{"id":6904436968,"url":"http://farm8.staticflickr.com/7062/6904436968_c1b85b8493.jpg","path":"1d0/6b1/1d06b1f861ea2cd6cffc3d091cbcdcb.jpg","date":"2012-04-01","year":2012,"month":4,"lon":-95.4145,"lat":35.768,"tags":"2012,azalea,ericaceae,ericales,festival,flower,girl,heights,honor,muskogee,oklahoma,park,pentanthera,plants,rhododendron,spring,usa","S2CellId":"8893000000000000","result":8521,"accuracy":0.017745702,"title":"Azalea+Festival+-+Series+2+012","description":"Scenes+from+the+Azalea+Festival+at+Honor+Heights+Park+in+Muskogee%2C+OK.%0A%0ASpring+2012."}
{"id":3561892692,"url":"http://farm4.staticflickr.com/3408/3561892692_97f4160635.jpg","path":"254/23d/25423dca70e6427d50d35442a3f65fb.jpg","date":"2009-05-23","year":2009,"month":5,"lon":-95.4062,"lat":35.78551,"tags":"castle,muskogee,renaissance","S2CellId":"47e61d1ec0000000","result":4564,"accuracy":0.4254465,"title":"DSC_0245","description":"Muskogee+Renaissance+Festival+May+23+2009"}
{"id":307549498,"url":"http://farm1.staticflickr.com/109/307549498_bd490052f6.jpg","path":"4d8/cf3/4d8cf36ee474495eeb406f2c6712fd6.jpg","date":"2006-11-23","year":2006,"month":11,"lon":-95.638596,"lat":35.91838,"tags":"thanksgiving","S2CellId":"89fb400000000000","result":9399,"accuracy":0.072974406,"title":"DSC_1999"}
{"id":4103693754,"url":"http://farm3.staticflickr.com/2795/4103693754_909e5c51ce.jpg","path":"4cc/0b1/4cc0b123aefa7deffff18c8a50b2a95c.jpg","date":"2009-11-13","year":2009,"month":11,"lon":-95.98544,"lat":35.80085,"tags":"flora,flower,nature,rose","S2CellId":"486dd00000000000","result":4951,"accuracy":0.0065981494,"title":"IMG_4703_1600x1067"}
{"id":5235694182,"url":"http://farm6.staticflickr.com/5247/5235694182_e25179df4e.jpg","path":"e18/abe/e18abea8a95b7539df7fea1d823196ac.jpg","date":"2010-12-04","year":2010,"month":12,"lon":-95.36262,"lat":35.008266,"tags":"robbers+cave+state+park","S2CellId":"87c5000000000000","result":7979,"accuracy":0.035147488,"title":"Stream+Crossing"}
{"id":3688581257,"url":"http://farm4.staticflickr.com/3664/3688581257_43fbd71569.jpg","path":"d48/4d0/d484d08deb1987fc6776d3d8f68e1.jpg","date":"2009-07-04","year":2009,"month":7,"lon":-95.98534,"lat":35.801018,"tags":"fireworks","S2CellId":"872b090000000000","result":7756,"accuracy":0.1819993,"title":"IMG_9577"}
{"id":7233591002,"url":"http://farm8.staticflickr.com/7221/7233591002_394b11ee56.jpg","path":"3eb/d8d/3ebd8df1849c4e75c85dd0fc7689fa2b.jpg","date":"2012-05-19","year":2012,"month":5,"lon":-95.8772,"lat":35.935898,"tags":"alliance,american+football,dynasty,football,gridiron+football,memphis,memphis+dynasty,pro+football,sport,threat,tulsa,tulsa+threat,wfa,women%27s,women%27s+football+alliance","S2CellId":"880f300000000000","result":8149,"accuracy":0.12672219,"title":"ZE19_20032301.jpg","description":"Terri+Gilchrist+%2829%29%0A%0A%3Cb%3E%3Ca+href%3D%22http%3A%2F%2Fles-stockton.smugmug.com%2FSports%2FFootball%2F20120519-Tulsa-Threat-v%2F23070481_SgH3tB%22+target%3D%22bigimages%22+rel%3D%22nofollow%22%3EH+i+g+h+e+r+%C2%A0%C2%A0+Q+u+a+l+i+t+y+%C2%A0%C2%A0+V+e+r+s+i+o+n+s+%C2%A0%C2%A0A+v+a+i+l+a+b+l+e%3C%2Fa%3E%3C%2Fb%3E"}
{"id":3685563694,"url":"http://farm3.staticflickr.com/2460/3685563694_7d33039965.jpg","path":"74c/425/74c4259f58409f4b39c02999414b133d.jpg","date":"2009-07-03","year":2009,"month":7,"lon":-95.98534,"lat":35.801018,"tags":"cloud,sky,sunset,tree,woods","S2CellId":"88d0a631cabb5071","result":8563,"accuracy":0.024854492,"title":"IMG_2597"}
{"id":832997494,"url":"http://farm2.staticflickr.com/1105/832997494_20d4dfdc61.jpg","path":"ad1/ae8/ad1ae88f5e906394c5b175f8caf57b2.jpg","date":"2007-07-14","year":2007,"month":7,"lon":-95.52845,"lat":35.919456,"tags":"acreestudios,cat,d40,nikon,sparrow","S2CellId":"89d4d40000000000","result":9260,"accuracy":0.018152589,"title":"0707+Sparrow+031","description":"Sparrow+was+trying+to+nap+in+the+evening+sun.++I+noticed+the+lines+from+the+sun+shining+through+the+mini-blinds+and+I+had+to+take+some+photos."}
{"id":5012078921,"url":"http://farm5.staticflickr.com/4151/5012078921_b475cc619a.jpg","path":"bb1/91b/bb191b208d97496e9bcd7456fff9b14.jpg","date":"2010-08-09","year":2010,"month":8,"lon":-95.719406,"lat":35.988113,"tags":"cowboy,denim,groom,jeans,shirt,wedding","S2CellId":"12a4a3c000000000","result":746,"accuracy":0.0073263505,"description":"From+the+wedding+of+Lori+and+Kelley"}
{"id":3688500663,"url":"http://farm4.staticflickr.com/3003/3688500663_d463a0efea.jpg","path":"e4d/27d/e4d27db1b7e9f460c585a51fac2d381.jpg","date":"2009-07-04","year":2009,"month":7,"lon":-95.98534,"lat":35.801018,"tags":"fireworks","S2CellId":"872b090000000000","result":7756,"accuracy":0.029972238,"title":"IMG_9447"}
{"id":3376552635,"url":"http://farm4.staticflickr.com/3579/3376552635_d56e4e7ff1.jpg","path":"495/c53/495c535eb78d131232a9144eaccb330.jpg","date":"2009-03-22","year":2009,"month":3,"lon":-95.98534,"lat":35.801018,"tags":"canine,dog,pet","S2CellId":"89d4d40000000000","result":9260,"accuracy":0.007985325,"title":"IMG_5088_1600x1067","description":"I+went+to+get+tacos+and+took+one+of+the+dogs+with+me.++He+road+in+the+back+seat+and+thoroughly+enjoyed+the+ride."}
{"id":2854719662,"url":"http://farm4.staticflickr.com/3060/2854719662_d5663f5704.jpg","path":"881/d29/881d29847ea3b6119c5eac8fddea1538.jpg","date":"2008-09-12","year":2008,"month":9,"lon":-95.52848,"lat":35.919353,"tags":"acreestudios,black+background,d40,daisy,flower,gerbera,nikon,orange","S2CellId":"8eaf400000000000","result":9499,"accuracy":0.111759484,"title":"Afternoon+Delight"}
{"id":3670392658,"url":"http://farm3.staticflickr.com/2431/3670392658_a323a7d46d.jpg","path":"681/3fb/6813fb219cbc2d97b93f69a2efe5f782.jpg","date":"2009-06-28","year":2009,"month":6,"lon":-95.98534,"lat":35.801018,"tags":"flora,flower,nature","S2CellId":"8803c00000000000","result":8071,"accuracy":0.023761546,"title":"IMG_4129"}
{"id":3651306414,"url":"http://farm3.staticflickr.com/2483/3651306414_db413dda17.jpg","path":"a1e/c99/a1ec9946a8d4b7ec364aeeb9d58869e1.jpg","date":"2009-06-22","year":2009,"month":6,"lon":-95.985825,"lat":35.801052,"tags":"turtle,wildlife","S2CellId":"88d8d00000000000","result":8575,"accuracy":0.006166244,"title":"IMG_7333_1600x1067","description":"I+worked+on+my+house+this+morning%2C+adding+utilities+and+other+things+in+the+great+room%2C+and+when+I+returned+with+my+camera+to+get+a+few+photos%2C+I+found+this+turtle+had+arrived+so+I+took+a+few+photos."}
{"id":3776082428,"url":"http://farm3.staticflickr.com/2454/3776082428_c993f42e4e.jpg","path":"f0b/048/f0b0489d1f27fc5326c4251944b5946.jpg","date":"2009-07-31","year":2009,"month":7,"lon":-95.98534,"lat":35.801018,"tags":"flora,flower,nature","S2CellId":"47c5ef0000000000","result":4303,"accuracy":0.00729829,"title":"IMG_2950_1600x1067"}
{"id":7233509448,"url":"http://farm8.staticflickr.com/7092/7233509448_414650e9d7.jpg","path":"21f/490/21f490d7b9ea9adefa4d234a40f06d6e.jpg","date":"2012-05-19","year":2012,"month":5,"lon":-95.8772,"lat":35.935898,"tags":"alliance,american+football,dynasty,football,gridiron+football,memphis,memphis+dynasty,pro+football,sport,threat,tulsa,tulsa+threat,wfa,women%27s,women%27s+football+alliance","S2CellId":"80857ec000000000","result":6923,"accuracy":0.29332674,"title":"ZE19_18582301.jpg","description":"Previona+Dixon+%289%29+receives+the+kickoff.%0A%0A%3Cb%3E%3Ca+href%3D%22http%3A%2F%2Fles-stockton.smugmug.com%2FSports%2FFootball%2F20120519-Tulsa-Threat-v%2F23070481_SgH3tB%22+target%3D%22bigimages%22+rel%3D%22nofollow%22%3EH+i+g+h+e+r+%C2%A0%C2%A0+Q+u+a+l+i+t+y+%C2%A0%C2%A0+V+e+r+s+i+o+n+s+%C2%A0%C2%A0A+v+a+i+l+a+b+l+e%3C%2Fa%3E%3C%2Fb%3E"}
{"id":3245134935,"url":"http://farm4.staticflickr.com/3308/3245134935_c7a14f85f8.jpg","path":"a12/b47/a12b4739aa19e562d5b9b0947d5697.jpg","date":"2008-06-17","year":2008,"month":6,"lon":-95.98534,"lat":35.801018,"tags":"flora,garden,plant","S2CellId":"3be7b00000000000","result":2572,"accuracy":0.011919931,"title":"IMG_7400_1600x1067","description":"These+are+bean+plants.++They+are+purple+beans+that+look+like+green+beans+and+after+cooked+turn+green.++In+my+opinion%2C+they+actually+taste+better+than+green+beans."}
{"id":3510859509,"url":"http://farm4.staticflickr.com/3099/3510859509_710c5c0f5f.jpg","path":"a07/c99/a07c9924991d6ef7fb8efc9e848533.jpg","date":"2009-05-07","year":2009,"month":5,"lon":-95.98534,"lat":35.801018,"tags":"goat,livestock,wildlife","S2CellId":"486fc00000000000","result":4981,"accuracy":0.008521499,"title":"IMG_0439"}
{"id":8750147741,"url":"http://farm8.staticflickr.com/7414/8750147741_a2f99bbc63.jpg","path":"e8a/ad8/e8aad87e6d15e3abac1975e6bb4626.jpg","date":"2013-05-18","year":2013,"month":5,"lon":-95.40549,"lat":35.7852,"tags":"iphone,nofilter,renaissance+festival","S2CellId":"88d0a631cabb5071","result":8563,"accuracy":0.025230443,"title":"Hawk+in+flight.+%23nofilter+%23iphone"}
{"id":3710489267,"url":"http://farm3.staticflickr.com/2503/3710489267_ed181cc115.jpg","path":"a84/3ee/a843ee64e494bce8925238b91c6bbd.jpg","date":"2009-07-11","year":2009,"month":7,"lon":-95.98534,"lat":35.801018,"tags":"flora,flower,nature","S2CellId":"5490d00000000000","result":6226,"accuracy":0.022628272,"title":"IMG_1845"}
{"id":365318480,"url":"http://farm1.staticflickr.com/123/365318480_08eac3bc63.jpg","path":"87b/10d/87b10dcd649b4d81d831c02cd1d1c2.jpg","date":"2007-01-14","year":2007,"month":1,"lon":-95.52845,"lat":35.919456,"tags":"acreestudios,bandit,cat,gus,ice+storm","S2CellId":"8819b40000000000","result":8206,"accuracy":0.043393735,"title":"DSCF0061"}
{"id":6528268045,"url":"http://farm8.staticflickr.com/7167/6528268045_654c09d594.jpg","path":"96c/e27/96ce278cfce64613edfae14193c1edaa.jpg","date":"2011-12-18","year":2011,"month":12,"lon":-95.610344,"lat":35.385456,"tags":"chinkapin+trail,fountainhead,lake+eufaula,lake+eufaula+state+park,oklahoma","S2CellId":"864e640000000000","result":7620,"accuracy":0.144612,"title":"Chinkapin+Trail+at+Longhorn+Loop"}
{"id":6493421425,"url":"http://farm8.staticflickr.com/7172/6493421425_d80de24769.jpg","path":"48a/f1b/48af1bbf5b6e8634d87131644facdf1b.jpg","date":"2011-12-10","year":2011,"month":12,"lon":-95.339165,"lat":35.00478,"tags":"oklahoma,robbers+cave+rough+canyon+redux,robbers+cave+state+park,rough+canyon+trail","S2CellId":"87c5000000000000","result":7979,"accuracy":0.04762469,"title":"Robbers+Cave+Rough+Canyon+Redux+001"}
{"id":5040553868,"url":"http://farm5.staticflickr.com/4088/5040553868_0f69a487bb.jpg","path":"8a4/4e2/8a44e2153d4bb7a3f99284b68ae28957.jpg","date":"2010-09-30","year":2010,"month":9,"lon":-95.98556,"lat":35.800835,"tags":"belomo,belomo+8mm,concrete,construction,earth+home,fisheye,house,terra-dome","S2CellId":"47ab400000000000","result":3956,"accuracy":0.044389695,"title":"20100930_0005_800x533","description":"I+walked+through+my+construction+site+with+my+8mm+Belomo+fisheye+lens."}
{"id":3329823046,"url":"http://farm4.staticflickr.com/3388/3329823046_de2b7d27d2.jpg","path":"f55/412/f55412102f5effad5c2126faec67ae7.jpg","date":"2009-03-04","year":2009,"month":3,"lon":-95.98534,"lat":35.801018,"tags":"cloud,sky,sunset","S2CellId":"88d0a631cabb5071","result":8563,"accuracy":0.012040193,"title":"IMG_2931_1600x1067","description":"I+can%27t+resist+a+good+sunset%2C+and+although+I+love+the+vivid+reds+and+oranges%2C+I+also+like+the+subtle+colorings.++I+looked+out+and+saw+this+sky+and+felt+that+I+needed+to+get+outdoors+real+quickly+and+catch+it+before+it+was+gone."}
{"id":3955239133,"url":"http://farm4.staticflickr.com/3418/3955239133_84a4365405.jpg","path":"ca8/93b/ca893b51484ae1cf2892de332f1cfe.jpg","date":"2009-09-25","year":2009,"month":9,"lon":-95.47702,"lat":35.614693,"tags":"automobile,automotive,car,outlawmotorspeedway,race,racing,sign","S2CellId":"8849000000000000","result":8403,"accuracy":0.11491841,"title":"IMG_8376_1600x1067"}
{"id":4064802844,"url":"http://farm3.staticflickr.com/2703/4064802844_663f1a47b7.jpg","path":"9c8/855/9c88557de86e40711c9243e3893a35a2.jpg","date":"2009-11-01","year":2009,"month":11,"lon":-95.41731,"lat":35.767654,"tags":"35mm,analog,canoscan8800f,film,flora,flower,garden,honorheightspark,lesstockton,muskogee,nature,park,scan,stockton","S2CellId":"8859f00000000000","result":8438,"accuracy":0.017216837,"title":"HonorHeights-23"}
{"id":4719558522,"url":"http://farm5.staticflickr.com/4014/4719558522_f70a8aba0a.jpg","path":"fe2/2ec/fe22ec26297cd8f9f2f4dab54a151d10.jpg","date":"2010-06-13","year":2010,"month":6,"lon":-95.883,"lat":35.47774,"tags":"angler,catfish,deep+fork+river,dianne,fishing,grayson,kayak+fishing,kayaks,limb+lines,morning,oklahoma,old+town,perception,swifty,vapor","S2CellId":"89c2588d00000000","result":8968,"accuracy":0.029538896,"title":"Running+Limb+Lines+in+the+Morning","description":"New+article+on+KFing+for+Catfish.++%3Ca+href%3D%22http%3A%2F%2Fwww.oklahomaroadtrips.com%2FKayak-Fishing.htm%22+rel%3D%22nofollow%22%3Ewww.oklahomaroadtrips.com%2FKayak-Fishing.htm%3C%2Fa%3E"}
{"id":4318597796,"url":"http://farm3.staticflickr.com/2773/4318597796_07f38bf5ec.jpg","path":"2ad/dea/2addea452e7be5c6c0846b6c695018.jpg","date":"2010-01-30","year":2010,"month":1,"lon":-95.98544,"lat":35.80085,"tags":"firewood,snow,weather,woodpile","S2CellId":"4715400000000000","result":3203,"accuracy":0.005724622,"title":"IMG_0985_1600x1067"}
{"id":6907468327,"url":"http://farm8.staticflickr.com/7177/6907468327_20dba88888.jpg","path":"ef1/726/ef1726a2539c4f976cc6ca825d63cb9.jpg","date":"2012-02-20","year":2012,"month":2,"lon":-95.158165,"lat":35.61933,"tags":"ankle+express,camp+gruber,greenleaf+hiking+trail,greenleaf+hiking+trail%2C+south+loop+%28ankle+express%29,greenleaf+lake,greenleaf+lake+state+park","S2CellId":"87c5000000000000","result":7979,"accuracy":0.15054335,"title":"High+View+of+the+Lake"}
{"id":3164895836,"url":"http://farm4.staticflickr.com/3261/3164895836_7aabdb8c56.jpg","path":"1e9/74d/1e974d926ad3428f7a1199ffb5139e3.jpg","date":"2008-07-20","year":2008,"month":7,"lon":-95.671974,"lat":35.801937,"tags":"oklahoma","S2CellId":"880e350000000000","result":8136,"accuracy":0.025632631,"title":"IMG_8072_1600x1066"}
{"id":5235651610,"url":"http://farm6.staticflickr.com/5044/5235651610_a55900e800.jpg","path":"357/95e/35795ed88720c4a66c1454d86ccd316.jpg","date":"2010-12-04","year":2010,"month":12,"lon":-95.34884,"lat":35.013847,"tags":"cattail+pond,robbers+cave+state+park","S2CellId":"8893000000000000","result":8521,"accuracy":0.08798737,"title":"Cattail+Pond"}
{"id":3430304828,"url":"http://farm4.staticflickr.com/3629/3430304828_11be86ffb6.jpg","path":"805/5af/8055af97452826801fd7f91d714c1146.jpg","date":"2009-04-10","year":2009,"month":4,"lon":-95.98534,"lat":35.801018,"tags":"cloud,nature,sky,tree","S2CellId":"864e640000000000","result":7620,"accuracy":0.12730725,"title":"IMG_6558_1600x1067"}
{"id":5012340207,"url":"http://farm5.staticflickr.com/4091/5012340207_fbbf2d6bc6.jpg","path":"6bd/8ad/6bd8ad11cced53556ed0f740e9c51a4.jpg","date":"2010-08-09","year":2010,"month":8,"lon":-95.719406,"lat":35.988113,"tags":"august,fruit,watermelon,wedding","S2CellId":"12a4a2f6d0000000","result":734,"accuracy":0.0046783993,"description":"From+the+wedding+of+Lori+and+Kelley"}
{"id":2760919695,"url":"http://farm4.staticflickr.com/3137/2760919695_dd73bda8bf.jpg","path":"4ba/c9c/4bac9cddbf3ae4ff2b34113231.jpg","date":"2008-08-10","year":2008,"month":8,"lon":-95.55037,"lat":35.331455,"tags":"lake+eufaula,ok,rocks,usa","S2CellId":"4caec00000000000","result":5835,"accuracy":0.044723324,"title":"Lake+Eufaula%2C+Oklahoma","description":"Lake+Eufaula"}
{"id":4448389049,"url":"http://farm5.staticflickr.com/4030/4448389049_c2f6ba45e4.jpg","path":"f34/c7d/f34c7d34f4cfd42262185bb8104134.jpg","date":"2010-03-20","year":2010,"month":3,"lon":-95.98544,"lat":35.80085,"tags":"snow,weather","S2CellId":"3554400000000000","result":2267,"accuracy":0.34712622,"title":"20100320_0020_1600x1067","description":"Although+it%27s+not+unheard+of+for+those+of+us+in+northeastern+Oklahoma+to+experience+snow+up+into+mid-April%2C+I+thought+it+was+worth+getting+a+few+shots+today+since+we+received+snow+on+the+first+day+of+Spring.++It+certainly+doesn%27t+look+like+Spring.%0A%0A%3Ca+href%3D%22http%3A%2F%2Fcreativecommons.org%2Flicenses%2Fby-sa%2F3.0%2F%22+rel%3D%22nofollow%22%3EAttribution+Share+Alike+Creative+Commons+License%3C%2Fa%3E"}
{"id":2779258865,"url":"http://farm4.staticflickr.com/3117/2779258865_cc145c40ba.jpg","path":"3d7/0bb/3d70bb68279c1c28aaea3f247f7d5ba5.jpg","date":"2008-06-14","year":2008,"month":6,"lon":-95.52848,"lat":35.919353,"tags":"18-55mm,acreestudios,bandit,cat,d40,distressed,nikon,photoshop,the+little+dog+laughed","S2CellId":"414ab40000000000","result":2729,"accuracy":0.0053215045,"title":"Reflective+Moment"}
{"id":1577698575,"url":"http://farm3.staticflickr.com/2199/1577698575_7c6a5e018b.jpg","path":"18f/dc9/18fdc93afbeecf8d685ec3d57d5c7f8.jpg","date":"2005-03-01","year":2005,"month":3,"lon":-95.16143,"lat":35.63414,"tags":"camping,deer,geek+camping,greenleaf+lake+state+park","S2CellId":"89b6c00000000000","result":8834,"accuracy":0.010044745,"title":"Eating+acorns"}
{"id":5411199530,"url":"http://farm5.staticflickr.com/4120/5411199530_8c89a416df.jpg","path":"c2c/418/c2c4182ee05483181e69e9894e6d087.jpg","date":"2011-02-01","year":2011,"month":2,"lon":-95.98556,"lat":35.800835,"tags":"blizzard,snow,snow+storm,weather","S2CellId":"883cae5000000000","result":8363,"accuracy":0.01730734,"title":"20110201_13202101_1600x1067"}
{"id":3682589781,"url":"http://farm3.staticflickr.com/2455/3682589781_03bebd7c6d.jpg","path":"c32/e7f/c32e7fb8e6e5a4e3b727f90d345aa87.jpg","date":"2009-07-02","year":2009,"month":7,"lon":-95.98534,"lat":35.801018,"tags":"camera","S2CellId":"48718ec000000000","result":5061,"accuracy":0.38344496,"title":"IMG_3164"}
{"id":7564890454,"url":"http://farm9.staticflickr.com/8425/7564890454_3995c8a9da.jpg","path":"5b5/3f8/5b53f8fad91c94a85dc533ad3a93c3f2.jpg","date":"2012-06-20","year":2012,"month":6,"lon":-95.628586,"lat":35.41721,"tags":"2012,american+bellflower,asterales,asterids,bellflower,campanula,campanula+americana,campanulaceae,flower,ok,wildflower","S2CellId":"12a4740000000000","result":691,"accuracy":0.02967652,"title":"CAB06907a","description":"American+Bellflower+at+Lake+Eufaula+State+Park%2C+OK%2C+120620.++Campanula+americana.+++Asterids%3A+Asterales%3A+Campanulaceae."}
{"id":1592747641,"url":"http://farm3.staticflickr.com/2367/1592747641_3f44f029af.jpg","path":"5e5/586/5e558643229834ad3a64123ab98e61e1.jpg","date":"2007-10-16","year":2007,"month":10,"lon":-95.52845,"lat":35.919456,"tags":"acd,acreestudios,animal,australian+cattle+dog,bitzer,blue+heeler,d40,dog,nikon,pet","S2CellId":"88d0a631cabb5071","result":8563,"accuracy":0.031210726,"title":"Fishin%27+For+Crawdads","description":"Bitzer+was+jumpin%27+in+and+out+of+this+water+hole+and+runnin%27+around+like+his+tail+was+on+fire%21++It+was+pretty+funny.++He+stuck+his+head+in+the+water+and+pulled+out+a+crawdad.%0A%0AI+can%27t+wait+to+take+him+to+the+lake.++I%27ll+bet+he+loves+it%21"}
{"id":4599742896,"url":"http://farm5.staticflickr.com/4042/4599742896_0e0b9af27d.jpg","path":"9a6/330/9a6330e9a48096365ca1ef803dc5b2c.jpg","date":"2010-05-10","year":2010,"month":5,"lon":-95.98544,"lat":35.80085,"tags":"flora,flower,rose","S2CellId":"89c6fc0000000000","result":9178,"accuracy":0.007554187,"title":"20100510_0002_1600x1067"}
{"id":3881477165,"url":"http://farm3.staticflickr.com/2480/3881477165_c341c950ef.jpg","path":"b68/415/b68415ef396d8a5e16c9fb575067.jpg","date":"2007-05-19","year":2007,"month":5,"lon":-95.98544,"lat":35.80085,"tags":"bulldozer,construction,dozer,earthhome,excavation,house","S2CellId":"8860400000000000","result":8448,"accuracy":0.025693482,"title":"P5190242","description":"Rachel+took+rest+on+the+tractor+that+we+recently+purchased.++Rather+than+spend+our+limited+house+budget+on+frivolous+gifts%2C+this+tractor+is+an+anniversary+gift+for+Rachel.++Her+gift+to+me+is+a+waste+water+treatment+system+%28septic+tank%29+for+the+house."}
{"id":3672343600,"url":"http://farm4.staticflickr.com/3552/3672343600_bc13cce6b1.jpg","path":"17b/6d8/17b6d840210c5be82b132f34ac3b49d.jpg","date":"2009-06-29","year":2009,"month":6,"lon":-95.98534,"lat":35.801018,"tags":"cloud,nature,sky,tree","S2CellId":"9aab000000000000","result":9926,"accuracy":0.02612904,"title":"IMG_3113"}
{"id":2946359086,"url":"http://farm4.staticflickr.com/3002/2946359086_6340af1ca1.jpg","path":"32d/902/32d9021ef4d3c6cd4206bce44db214c.jpg","date":"2008-10-04","year":2008,"month":10,"lon":-95.33833,"lat":35.00673,"tags":"camping,hiking,robbers%27+cave,robbers%27+cave+state+park","S2CellId":"864e640000000000","result":7620,"accuracy":0.09626111,"title":"Fallen+Tree"}
{"id":3243975407,"url":"http://farm4.staticflickr.com/3098/3243975407_c1fa58f104.jpg","path":"f13/e72/f13e727b8d16127281b0959ca4a557.jpg","date":"2008-07-03","year":2008,"month":7,"lon":-95.98533,"lat":35.800842,"tags":"canine,dog,pet","S2CellId":"48795b0000000000","result":5481,"accuracy":0.054458212,"title":"IMG_7601_1600x1067","description":"He%27s+our+little+buddy.++He+was+dumped+out+here+in+the+country+and+was+in+distress+when+we+found+him.++He+is+a+wonderful+pet+and+is+very+protective+of+my+wife.++He%27s+a+chainsaw+on+four+legs."}
{"id":3328992487,"url":"http://farm4.staticflickr.com/3305/3328992487_6df0bfa6e4.jpg","path":"75f/06c/75f06c62e45e8dd350546eaa4554aef4.jpg","date":"2009-03-04","year":2009,"month":3,"lon":-95.98534,"lat":35.801018,"tags":"cloud,sky,sunset","S2CellId":"1ed0000000000000","result":1478,"accuracy":0.050888676,"title":"IMG_2942_1600x1067","description":"I+ran+out+with+my+camera+when+I+saw+this%2C+and+every+time+I+fired+off+a+shot%2C+it%27s+as+if+it+was+changing+by+the+second."}
{"id":3985798054,"url":"http://farm3.staticflickr.com/2526/3985798054_306f7158cd.jpg","path":"c02/717/c027172121ea3c193643fa319b5249.jpg","date":"2009-10-05","year":2009,"month":10,"lon":-95.98544,"lat":35.80085,"tags":"construction,garage,garagedoor,house","S2CellId":"548ff00000000000","result":6177,"accuracy":0.02482569,"title":"IMG_0298_1600x1067"}
{"id":2972763574,"url":"http://farm4.staticflickr.com/3284/2972763574_47e535ddc0.jpg","path":"aea/c96/aeac9664b71f30265cd720d38a1724dc.jpg","date":"2008-10-15","year":2008,"month":10,"lon":-95.239456,"lat":35.834846,"tags":"bats,cave,dark,mine","S2CellId":"86e5000000000000","result":7709,"accuracy":0.08426717,"title":"Little+Bat"}
{"id":878965198,"url":"http://farm2.staticflickr.com/1256/878965198_dfb6318c37.jpg","path":"c9a/1be/c9a1be7afcc981eb4729bdb337704d.jpg","date":"2007-07-21","year":2007,"month":7,"lon":-95.63294,"lat":35.415497,"tags":"birds,eufaula,lake,oklahoma,olympus,water","S2CellId":"12a49d0000000000","result":704,"accuracy":0.1198766,"title":"Sometimes+the+Locals+Give+Confusing+Directions","description":"%3Ci%3EGood+thing+we+had+a+map%21%3C%2Fi%3E"}
{"id":3164650429,"url":"http://farm2.staticflickr.com/1129/3164650429_739c70837b.jpg","path":"fe7/a50/fe7a5024a8a2ffb9a2f077a0c449d5ee.jpg","date":"2009-01-01","year":2009,"month":1,"lon":-95.985405,"lat":35.800903,"tags":"moon,sky,sunset","S2CellId":"1ed0000000000000","result":1478,"accuracy":0.085953884,"title":"IMG_5879_1600x1067"}
{"id":5416634673,"url":"http://farm6.staticflickr.com/5095/5416634673_cf0028684a.jpg","path":"eb3/fac/eb3fac133c7775e87fb1fd7c85c186.jpg","date":"2011-02-04","year":2011,"month":2,"lon":-95.98556,"lat":35.800835,"tags":"blizzard,leaf,leaves,rural,snow,tree,weather,woods","S2CellId":"3554400000000000","result":2267,"accuracy":0.013310512,"title":"20110204_11502001_1600x1067"}
{"id":2278788916,"url":"http://farm3.staticflickr.com/2282/2278788916_7b0292ee2e.jpg","path":"237/ac5/237ac561b833adcc8abeff430cf46c9.jpg","date":"2008-02-15","year":2008,"month":2,"lon":-95.52845,"lat":35.919456,"tags":"acreestudios,d40,dog,hoodie,linux,nikon,pet,puppy,rat+terrier,tongue","S2CellId":"88f5b00000000000","result":8731,"accuracy":0.017030783,"title":"Hood+Pup+v2","description":"Minor+editing...++no+grain.++That+was+difficult%21++It%27s+tough+for+me+to+stay+out+of+Photoshop.++%3A%5D"}
{"id":5040554660,"url":"http://farm5.staticflickr.com/4090/5040554660_e18201f5db.jpg","path":"327/1f2/3271f2773b1f6728c811f315acca443e.jpg","date":"2010-09-30","year":2010,"month":9,"lon":-95.98556,"lat":35.800835,"tags":"belomo,belomo+8mm,concrete,construction,earth+home,fisheye,house,patio,terra-dome","S2CellId":"5140000000000000","result":5964,"accuracy":0.034897313,"title":"20100930_0014_800x533"}
{"id":3840124877,"url":"http://farm3.staticflickr.com/2653/3840124877_1a2f88ea4a.jpg","path":"572/311/57231153e747d8905d0771836de9c7.jpg","date":"2009-08-20","year":2009,"month":8,"lon":-95.98519,"lat":35.80075,"tags":"flora,flower,nature,rose","S2CellId":"6ad642a400000000","result":6620,"accuracy":0.026994731,"title":"IMG_5048_1600x1067"}
{"id":4978571586,"url":"http://farm5.staticflickr.com/4105/4978571586_b0e4304f6b.jpg","path":"657/cc3/657cc33597cb1b2729e8eaa76cb93153.jpg","date":"2010-09-06","year":2010,"month":9,"lon":-95.985,"lat":35.80111,"tags":"cat,feline,pet","S2CellId":"89d4d40000000000","result":9260,"accuracy":0.10783122,"title":"2010-09-06+13.41.33","description":"Just+playing+around+with+the+kitty+and+my+new+phone+camera."}
{"id":1577695797,"url":"http://farm3.staticflickr.com/2125/1577695797_3b7a41c3d6.jpg","path":"d6b/99d/d6b99d4241b2f2422452e96128e2996.jpg","date":"2005-03-01","year":2005,"month":3,"lon":-95.16143,"lat":35.63414,"tags":"camping,deer,geek+camping,greenleaf+lake+state+park","S2CellId":"87c5000000000000","result":7979,"accuracy":0.009261165,"title":"Deer"}
{"id":3462991370,"url":"http://farm4.staticflickr.com/3628/3462991370_eaf640b455.jpg","path":"64d/471/64d471c014822230c73a79127395121.jpg","date":"2009-04-21","year":2009,"month":4,"lon":-95.98534,"lat":35.801018,"tags":"bird,nature,tree,wildlife","S2CellId":"6b0d000000000000","result":6662,"accuracy":0.019836672,"title":"IMG_7677_1600x1067","description":"%3Ca+href%3D%22http%3A%2F%2Fen.wikipedia.org%2Fwiki%2FCardinal_%28bird%29%22%3Ecardinal%3C%2Fa%3E"}
{"id":3888813158,"url":"http://farm4.staticflickr.com/3437/3888813158_9f5d97533b.jpg","path":"57c/ff9/57cff9556b4ce1dbee9871d25ad6b31c.jpg","date":"2009-09-04","year":2009,"month":9,"lon":-95.98597,"lat":35.79839,"tags":"nature,sumac","S2CellId":"88fb990000000000","result":8747,"accuracy":0.026084214,"title":"IMG_6435_1600x1067"}
{"id":3329001077,"url":"http://farm4.staticflickr.com/3594/3329001077_6a054b33af.jpg","path":"741/437/741437929afdda2ac7c75b123852551.jpg","date":"2009-03-04","year":2009,"month":3,"lon":-95.98534,"lat":35.801018,"tags":"cloud,sky,sunset","S2CellId":"1ed0000000000000","result":1478,"accuracy":0.011114371,"title":"IMG_2958_1600x1067","description":"I+ran+out+with+my+camera+when+I+saw+this%2C+and+every+time+I+fired+off+a+shot%2C+it%27s+as+if+it+was+changing+by+the+second."}
{"id":3638721762,"url":"http://farm3.staticflickr.com/2470/3638721762_3fd0864929.jpg","path":"c9e/742/c9e7427df6868da492d6e146e4ae57.jpg","date":"2009-06-18","year":2009,"month":6,"lon":-95.98534,"lat":35.801018,"tags":"earthhome,flora,flower,house,nature,undergroundhome,undergroundhouse,wildflower","S2CellId":"8646c00000000000","result":7602,"accuracy":0.014807631,"title":"IMG_5555"}
{"id":3504919234,"url":"http://farm4.staticflickr.com/3307/3504919234_0734c79dea.jpg","path":"7a9/332/7a9332d951d1af7117ab0c3475ee32.jpg","date":"2009-05-05","year":2009,"month":5,"lon":-95.98534,"lat":35.801018,"tags":"socialnetworking,twitter","S2CellId":"14d1000000000000","result":1328,"accuracy":0.024499184,"title":"Twitter20090505-01"}
{"id":3402542571,"url":"http://farm4.staticflickr.com/3434/3402542571_729a75b3bb.jpg","path":"51f/a8e/51fa8eb2998d5cd41cd0c1d84ac7dd43.jpg","date":"2009-03-31","year":2009,"month":3,"lon":-95.98534,"lat":35.801018,"tags":"rock","S2CellId":"5351f00000000000","result":6036,"accuracy":0.042849574,"title":"IMG_5744_1600x1067"}
{"id":673357826,"url":"http://farm2.staticflickr.com/1062/673357826_ba715900a1.jpg","path":"b8d/af7/b8daf771468b9679993b15cd76fab94f.jpg","date":"2007-06-29","year":2007,"month":6,"lon":-95.52845,"lat":35.919456,"tags":"acreestudios,bird,d40,morning,nikon,scissor-tailed+flycatcher","S2CellId":"47edc00000000000","result":4703,"accuracy":0.3288086,"title":"Scissor-tailed+Flycatcher","description":"I+took+this+photo+of+a+scissor-tailed+flycatcher+this+morning+while+practicing+with+my+aperture+set+at+%C6%928.++I+was+surprised+at+how+well+the+photo+came+out.%0A%0AI+couldn%27t+resist+playing+with+the+colors+in+photoshop%21+%3A%29"}
{"id":3683422618,"url":"http://farm3.staticflickr.com/2652/3683422618_627e0d65fa.jpg","path":"236/068/236068d26ca7592d7d5705e6739bcee.jpg","date":"2009-07-02","year":2009,"month":7,"lon":-95.98534,"lat":35.801018,"tags":"flora,flower,nature","S2CellId":"88d0a631cabb5071","result":8563,"accuracy":0.012340348,"title":"IMG_3180"}
{"id":3002060667,"url":"http://farm4.staticflickr.com/3072/3002060667_f7b3e53137.jpg","path":"d1a/b25/d1ab255fde605162a167c9aeb574a71.jpg","date":"2008-11-04","year":2008,"month":11,"lon":-95.237724,"lat":35.81606,"tags":"water","S2CellId":"486c300000000000","result":4931,"accuracy":0.004763376,"title":"The+Tap"}
