{"id":3009860094,"url":"http://farm4.staticflickr.com/3223/3009860094_e8863c2d14.jpg","path":"3b3/6cf/3b36cfe86f3f392d97687d86d6b0beab.jpg","date":"2008-11-03","year":2008,"month":11,"lon":-103.21109,"lat":44.072933,"tags":"city,dakota,prairie,rapid,south,sunrise","S2CellId":"5330000000000000","result":6023,"accuracy":0.09125113,"title":"Prairie+Sunrise"}
{"id":6235330564,"url":"http://farm7.staticflickr.com/6222/6235330564_121e854704.jpg","path":"60c/ac7/60cac7c5d7b2b3e13e61b7e60a71b1.jpg","date":"2011-08-10","year":2011,"month":8,"lon":-103.50883,"lat":44.414425,"tags":"funny,kids,sturgis,sturgis+motorcycle+museum+%26+hall+of+fame,t-shirt,vacation","S2CellId":"89c6c62f00000000","result":9152,"accuracy":0.022100447,"title":"Cute+shirt+in+the+gift+shop"}
{"id":5204434218,"url":"http://farm6.staticflickr.com/5008/5204434218_a1dc8d4e85.jpg","path":"fba/9e3/fba9e35fa5ef72367a392fac8793fb.jpg","date":"2010-10-29","year":2010,"month":10,"lon":-103.40375,"lat":44.241016,"tags":"birthday,cake,city,dakota,elias,first,party,piedmont,rapid,south","S2CellId":"95bcca4000000000","result":9843,"accuracy":0.089686595,"title":"Elias%27+First+Birthday+Party","description":"Custom+made+cake+read%2C+%22Feliz+1er+Cumplea%C3%B1os+Elias.%22"}
{"id":2691084535,"url":"http://farm4.staticflickr.com/3157/2691084535_c084f1f0f1.jpg","path":"596/3fa/5963fa6530a13d9e4189841c7bb3f0.jpg","date":"2008-07-21","year":2008,"month":7,"lon":-103.20229,"lat":44.109295,"tags":"hotel,maddy,swimming","S2CellId":"3442aef000000000","result":2090,"accuracy":0.008087942,"title":"A+fish","description":"swimming+at+hotel+pool%3A+Maddy+and+one+of+the+fishies..."}
{"id":5461316101,"url":"http://farm6.staticflickr.com/5220/5461316101_ed20fe9105.jpg","path":"599/137/5991379a8776a9304dda86df673d58c6.jpg","date":"2010-09-03","year":2010,"month":9,"lon":-103.23089,"lat":44.08116,"tags":"2010,albino,american+bison,animal,bear+country+usa,bison,bison+bison,black+hills,rapid+city+south+dakota,south+dakota,wildlife,zoo","S2CellId":"877c000000000000","result":7905,"accuracy":0.30934918,"title":"Albino+American+Bison","description":"Rapid+City%2C+S+Dakota+USA"}
{"id":5084186034,"url":"http://farm5.staticflickr.com/4151/5084186034_37701b6388.jpg","path":"e3d/7cd/e3d7cd8ca12024e77a8822d36518c430.jpg","date":"2010-10-14","year":2010,"month":10,"lon":-103.25595,"lat":44.001457,"tags":"dances+with+wolves,deadwood,fort+hays,keystone,south+dakota","S2CellId":"89fb400000000000","result":9399,"accuracy":0.08736165,"title":"Fort+Hays+detail","description":"From+the+%22Dances+with+Wolves%22+film+set"}
{"id":6235284388,"url":"http://farm7.staticflickr.com/6050/6235284388_fa6a17186e.jpg","path":"d38/1c2/d381c226e729e12cd5e93967668bb64e.jpg","date":"2011-08-10","year":2011,"month":8,"lon":-103.50992,"lat":44.415512,"tags":"clothes,funny,sturgis,t-shirt,vacation","S2CellId":"8620a60c00000000","result":7510,"accuracy":0.25004485,"title":"Funny+shirt"}
{"id":2647341455,"url":"http://farm4.staticflickr.com/3261/2647341455_ed85c45d79.jpg","path":"1fd/bfd/1fdbfdaa1729c5afa7e7be79de45a066.jpg","date":"2008-07-07","year":2008,"month":7,"lon":-103.6812,"lat":44.11382,"tags":"asessment,black,dakota,damage,flash,flood,hail,heavy,hills,hydrology,national,out,rainfall,roads,service,south,survey,thunderstorm,washed,weather","S2CellId":"8717000000000000","result":7728,"accuracy":0.09619354,"title":"Along+Rochford+Road","description":"Two+miles+east+of+Rochford"}
{"id":6235330262,"url":"http://farm7.staticflickr.com/6091/6235330262_52b5d0220c.jpg","path":"154/e95/154e952ae2915b133e618163ef89c434.jpg","date":"2011-08-10","year":2011,"month":8,"lon":-103.50883,"lat":44.414425,"tags":"1949,indian,motorcycle,papoose,sturgis,sturgis+motorcycle+museum+%26+hall+of+fame,vacation","S2CellId":"89b7b7ec00000000","result":8879,"accuracy":0.022009872,"title":"1949+Indian+Papoose"}
{"id":3991415612,"url":"http://farm3.staticflickr.com/2519/3991415612_ddc41d22db.jpg","path":"3d9/9f5/3d99f5347cff7458b934d958a3429875.jpg","date":"2009-09-05","year":2009,"month":9,"lon":-103.22254,"lat":44.09174,"tags":"wedding","S2CellId":"80d9535900000000","result":7285,"accuracy":0.061583783,"title":"IMG_4545e"}
{"id":4632521848,"url":"http://farm5.staticflickr.com/4025/4632521848_15cb019ca7.jpg","path":"f11/f52/f11f5236c575f7cb4286a9f26fd1eb5.jpg","date":"2009-06-29","year":2009,"month":6,"lon":-103.920876,"lat":44.367336,"tags":"boulders,cascades,creek,south+dakota,spearfish,stream","S2CellId":"4615000000000000","result":2764,"accuracy":0.10489066,"title":"Spearfish+Creek"}
{"id":2839125455,"url":"http://farm4.staticflickr.com/3160/2839125455_11006d3795.jpg","path":"e21/c5e/e21c5eea67e8b868ccd1a4dd8153cb3.jpg","date":"2008-09-08","year":2008,"month":9,"lon":-103.23192,"lat":44.081177,"tags":"47f,airme,iphone,mostly+cloudy,rapid+city,seth+anderson,south+dakota,swanksalot,united+states,weatherbug","S2CellId":"8099500000000000","result":7110,"accuracy":0.030353189,"title":"Rapid+City%2C+Sep+8%2C+2008","description":"Uploaded+with+%3Ca+href%3D%22http%3A%2F%2Fwww.airme.com%2F%22%3EAirMe%3C%2Fa%3E"}
{"id":3134138184,"url":"http://farm4.staticflickr.com/3115/3134138184_31821e1064.jpg","path":"62b/332/62b33201990deb48c3e2bd816261c38.jpg","date":"2008-12-06","year":2008,"month":12,"lon":-103.639854,"lat":44.460957,"tags":"reception,upload,wedding","S2CellId":"94ce59f000000000","result":9723,"accuracy":0.009439054,"title":"IMG_0448"}
{"id":5320628814,"url":"http://farm6.staticflickr.com/5083/5320628814_cdd7076a2b.jpg","path":"889/7c4/8897c451f0c844d36f298a57f9bf4584.jpg","date":"2011-01-02","year":2011,"month":1,"lon":-103.42632,"lat":44.4725,"tags":"bear+butte,butte,south+dakota,sturgis","S2CellId":"5344000000000000","result":6024,"accuracy":0.1298529,"title":"Bear+Butte%2C+near+Sturgis","description":"Bear+Butte%2C+near+Sturgis%2C+South+Dakota%2C+August+1984"}
{"id":3991423246,"url":"http://farm3.staticflickr.com/2526/3991423246_40b583cb0d.jpg","path":"3ea/d6c/3ead6cf7a1776e6cba838384885a7d6a.jpg","date":"2009-09-05","year":2009,"month":9,"lon":-103.22254,"lat":44.09174,"tags":"wedding","S2CellId":"548ff00000000000","result":6177,"accuracy":0.035523005,"title":"IMG_4555e"}
{"id":7619455672,"url":"http://farm9.staticflickr.com/8428/7619455672_43c45189cb.jpg","path":"ec5/84c/ec584cbcfde3af2130125c4f87a7fb95.jpg","date":"2012-07-18","year":2012,"month":7,"lon":-103.72982,"lat":44.37638,"tags":"deadwood,oldwest,saloon,southdakota,street","S2CellId":"4cb29d0000000000","result":5845,"accuracy":0.046626896,"title":"Deadwood%2C+SD"}
{"id":317497830,"url":"http://farm1.staticflickr.com/132/317497830_e2a823ae8f.jpg","path":"3bb/2e7/3bb2e72c68c13eaf7e641bd999cfa0ee.jpg","date":"2006-08-08","year":2006,"month":8,"lon":-103.30811,"lat":44.160637,"tags":"2006,accident,auto+accident,automobile+accident,freeway,highway,interstate+90,motorcycle,motorcycle+accident,motorcycle+on+the+road,motorcycles,south+dakota,sturgis","S2CellId":"5330000000000000","result":6023,"accuracy":0.017403571,"title":"The+Wild+22","description":"An+unfortunate+accident.%0D%0A%0D%0ASouth+Dakota+-+Interstate+90"}
{"id":5807874197,"url":"http://farm3.staticflickr.com/2132/5807874197_14025a9762.jpg","path":"c26/98d/c2698decb6a68edc2a5246d4e26ceb9b.jpg","date":"2011-06-06","year":2011,"month":6,"lon":-103.28885,"lat":44.019577,"tags":"flowers,spring","S2CellId":"883c400000000000","result":8355,"accuracy":0.020158662,"title":"Photo+of+the+day"}
{"id":3985516639,"url":"http://farm3.staticflickr.com/2432/3985516639_b74c6fbf3c.jpg","path":"5c6/9b1/5c69b1faee309aff43de2729c3dd7.jpg","date":"2009-09-05","year":2009,"month":9,"lon":-103.22254,"lat":44.09174,"tags":"wedding","S2CellId":"8824b00000000000","result":8226,"accuracy":0.10825586,"title":"IMG_4302e"}
{"id":8274286180,"url":"http://farm9.staticflickr.com/8356/8274286180_2b08d633d3.jpg","path":"285/080/2850809efe6a42c559b95f578e8f04a.jpg","date":"2012-10-17","year":2012,"month":10,"lon":-103.87569,"lat":44.43727,"tags":"black+hills%2C+south+dakota,spearfish+canyon","S2CellId":"8740300000000000","result":7807,"accuracy":0.17709862,"title":"Friends+%2712+r+209"}
{"id":5062984242,"url":"http://farm5.staticflickr.com/4085/5062984242_6d3356101c.jpg","path":"cf7/a52/cf7a524c7d7360642855228147853a94.jpg","date":"2010-09-27","year":2010,"month":9,"lon":-103.889465,"lat":44.275196,"tags":"black+hills,deadwood,estate,greenview+estates,hiking,home,homes,land,lead,outdoor,private,properties,property,sd,snowmobile,south+dakota,spearfish","S2CellId":"4697400000000000","result":3040,"accuracy":0.048773855,"title":"Estuary+of+Solace+%7C+Greenview+Estates"}
{"id":5278950653,"url":"http://farm6.staticflickr.com/5286/5278950653_07e83a7023.jpg","path":"b40/17f/b4017f9a44cb793b4995cb21b49d1f.jpg","date":"2010-12-04","year":2010,"month":12,"lon":-103.20807,"lat":44.07575,"tags":"2010,nursing,sdsu","S2CellId":"89c259b400000000","result":9036,"accuracy":0.143368,"title":"Nurse+Pinning+Ceremony","description":"West+River+-+SDSU+Nursing+%0ABSN+Nurse+pinning+ceremony.++%0ADecember+4th%2C+2010%0ASouth+Dakota+State+University%0ARapid+City%2C+SD+%0A10+12+04_0047"}
{"id":7665381350,"url":"http://farm8.staticflickr.com/7109/7665381350_4a20a5ddf1.jpg","path":"3b6/a3f/3b6a3f04915e6fbfa49406a74ecfa2e.jpg","date":"2012-06-24","year":2012,"month":6,"lon":-103.22925,"lat":44.081524,"tags":"rapid+city,south+dakota","S2CellId":"8099500000000000","result":7110,"accuracy":0.028830258,"title":"Downtown+Rapid+City"}
{"id":4073441221,"url":"http://farm3.staticflickr.com/2556/4073441221_07fe5d9c6d.jpg","path":"cee/6d1/cee6d1be3ea78eadfc50caaff969127f.jpg","date":"2009-09-25","year":2009,"month":9,"lon":-103.76638,"lat":44.352024,"tags":"lawrence+county,lead,south+dakota","S2CellId":"94cef40000000000","result":9736,"accuracy":0.01492796,"title":"Historical+Mural+in+the+Old+Finish+Lutheran+Church","description":"This+mural+was+painted+by+a+Finnish+miner%2C+Charles+Maurice+Alvaniva%2C+and+was+installed+in+1907.++It+can+still+be+seen+in+the+Sweatman+Art+Memorial+which+now+occupies+the+old+church+building+in+Lead%2C+South+Dakota."}
{"id":3135922239,"url":"http://farm4.staticflickr.com/3295/3135922239_a575746188.jpg","path":"b4a/fc7/b4afc731d802c94419b9d124d3cc.jpg","date":"2008-12-23","year":2008,"month":12,"lon":-103.22509,"lat":44.08707,"tags":"arena,athlete,center,city,civic,dakota,figure,gymnastics,ice,olympians,olympic,rapid,rushmore,skating,south","S2CellId":"8817f00000000000","result":8196,"accuracy":0.05643015,"title":"Nice+lens%21"}
{"id":2648337356,"url":"http://farm4.staticflickr.com/3024/2648337356_bc5aab06a1.jpg","path":"387/140/387140786eb92923e7e81f4b47a947d3.jpg","date":"2008-07-07","year":2008,"month":7,"lon":-103.84813,"lat":44.14321,"tags":"asessment,black,dakota,damage,flash,flood,hail,heavy,hills,hydrology,national,out,rainfall,roads,service,south,survey,thunderstorm,washed,weather","S2CellId":"548e400000000000","result":6158,"accuracy":0.05212755,"title":"Just+South+of+Black+Fox+Campground"}
{"id":3685820313,"url":"http://farm4.staticflickr.com/3623/3685820313_f0426a213d.jpg","path":"ce6/c9a/ce6c9a5e39c41d2d6cc2598f14ed9be9.jpg","date":"2009-06-27","year":2009,"month":6,"lon":-103.0576,"lat":44.058025,"tags":"2009,black,city,club,dakota,dog,duck,hills,hunt,mount,mt.,rapid,retriever,rushmore,south,test","S2CellId":"88fb990000000000","result":8747,"accuracy":0.055427097,"title":"Mt.+Rushmore+Retriever+Club+Hunt+Test","description":"June+2009"}
{"id":4824728562,"url":"http://farm5.staticflickr.com/4135/4824728562_cab7a2b362.jpg","path":"f0f/f19/f0ff1946e0245cc61ba6a5199168fffa.jpg","date":"2010-07-24","year":2010,"month":7,"lon":-103.3955,"lat":44.126667,"tags":"2010,hike,mountains,sd,southdakota","S2CellId":"45d4000000000000","result":2755,"accuracy":0.11744048,"description":"Back+Camera"}
