{"id":6180412165,"url":"http://farm7.staticflickr.com/6163/6180412165_13994f71fb.jpg","path":"b5d/18e/b5d18e98fbc15a8952ebe294b8174d6f.jpg","date":"2011-09-24","year":2011,"month":9,"lon":141.48854,"lat":40.516834,"tags":"eye-fi","S2CellId":"6018894000000000","result":6464,"accuracy":0.017648363,"title":"DSC_3839.JPG"}
{"id":2901686811,"url":"http://farm4.staticflickr.com/3077/2901686811_0e56d62840.jpg","path":"6b9/186/6b9186ed1e8337cc472ef1a1e3a5d86.jpg","date":"2008-09-23","year":2008,"month":9,"lon":141.44186,"lat":40.509724,"tags":"%E5%A5%A5%E5%85%A5%E7%80%AC,oirase","S2CellId":"4878f00000000000","result":5459,"accuracy":0.014124993,"title":"DSC00407"}
{"id":8716246910,"url":"http://farm8.staticflickr.com/7355/8716246910_414ac300af.jpg","path":"192/052/192052738dd87069bb28ff35e49b8689.jpg","date":"2013-05-05","year":2013,"month":5,"lon":141.76616,"lat":40.190834,"tags":"photo+stream","S2CellId":"876bedc000000000","result":7874,"accuracy":0.09474155,"title":"IMG_1312"}
{"id":4462383146,"url":"http://farm3.staticflickr.com/2771/4462383146_68ba0a209b.jpg","path":"675/dbd/675dbdac366a31f3652d8c627edb7c.jpg","date":"2008-10-28","year":2008,"month":10,"lon":141.61003,"lat":40.508743,"tags":"%E5%85%AB%E6%88%B8,%E6%97%A5%E6%9C%AC,%E7%A8%AE%E5%B7%AE%E6%B5%B7%E5%B2%B8,%E9%9D%92%E6%A3%AE,18-200vr,aomori,d40,hachinohe,japan,nikon,tanesashi","S2CellId":"182d000000000000","result":1421,"accuracy":0.030013198,"title":"%E3%82%A6%E3%83%9F%E3%83%8D%E3%82%B3+Umineko","description":"Black-tailed+Gull%2C+Tanesashi+Beach%2C+Hachinohe%2C+Aomori+Pref.%2C+Japan"}
{"id":8716255630,"url":"http://farm8.staticflickr.com/7329/8716255630_5230616c02.jpg","path":"91f/8cc/91f8cc42a7448b2e9e457fa27fd5092.jpg","date":"2013-05-05","year":2013,"month":5,"lon":141.76967,"lat":40.190166,"tags":"photo+stream","S2CellId":"6018894000000000","result":6464,"accuracy":0.076356046,"title":"IMG_1336"}
{"id":3055605307,"url":"http://farm4.staticflickr.com/3176/3055605307_b0963308e5.jpg","path":"db3/b50/db3b50e9cd454ab013e223496a62fcc.jpg","date":"2008-11-03","year":2008,"month":11,"lon":141.45273,"lat":40.52734,"tags":"%E5%85%AB%E6%88%B6,hachinohe,icecream,japan,seafood,tohokou,y2008","S2CellId":"89d5400000000000","result":9263,"accuracy":0.0065312935,"title":"081103-Hachinohe_%E5%85%AB%E9%A3%9F%E5%B8%82%E5%A0%B4-0616"}
{"id":4462371886,"url":"http://farm3.staticflickr.com/2802/4462371886_c36d1a396b.jpg","path":"b1c/247/b1c2474fecbe2ed622e32b84386bb5a7.jpg","date":"2008-10-28","year":2008,"month":10,"lon":141.60963,"lat":40.510468,"tags":"%E5%85%AB%E6%88%B8,%E6%97%A5%E6%9C%AC,%E7%A8%AE%E5%B7%AE%E6%B5%B7%E5%B2%B8,%E9%9D%92%E6%A3%AE,aomori,hachinohe,japan,lx3,panasonic,tanesashi","S2CellId":"89e4d00000000000","result":9371,"accuracy":0.08343416,"title":"%E7%A8%AE%E5%B7%AE%E6%B5%B7%E5%B2%B8","description":"Tanesashi+Beach%2C+Hachinohe%2C+Aomori+Pref.%2C+Japan"}
{"id":2647823752,"url":"http://farm4.staticflickr.com/3024/2647823752_bfdb098085.jpg","path":"939/a7a/939a7a394c6c3d125d1ded28f892d8.jpg","date":"2005-07-01","year":2005,"month":7,"lon":141.65163,"lat":40.357025,"tags":"blue,earth,film,globe,iwate,japan,japanese,yamato","S2CellId":"883f400000000000","result":8376,"accuracy":0.002222068,"title":"japanese+globes"}
{"id":8923595543,"url":"http://farm9.staticflickr.com/8420/8923595543_864bae11eb.jpg","path":"bf6/69b/bf669b786e41a48bd81a55cce8e025.jpg","date":"2013-05-31","year":2013,"month":5,"lon":141.56578,"lat":40.536087,"tags":"2013,d800,japan%E6%97%A5%E6%9C%AC,nikkor%E5%B0%BC%E5%85%8B%E5%B0%9424mm-70mmf2.8,nikon%E5%B0%BC%E5%BA%B7,same%E9%B2%9B","S2CellId":"488b000000000000","result":5763,"accuracy":0.036540747,"title":"_DSC2991"}
{"id":8715100099,"url":"http://farm8.staticflickr.com/7438/8715100099_10f13f12fc.jpg","path":"848/e80/848e80ad50ec203da95df81de5823213.jpg","date":"2013-05-05","year":2013,"month":5,"lon":141.85083,"lat":40.16833,"tags":"photo+stream","S2CellId":"488b000000000000","result":5763,"accuracy":0.052187495,"title":"IMG_1229"}
{"id":8716187564,"url":"http://farm8.staticflickr.com/7373/8716187564_24ba333d0f.jpg","path":"268/779/268779fd6e62c41263ab777bf825f5.jpg","date":"2013-05-04","year":2013,"month":5,"lon":141.492,"lat":40.509666,"tags":"photo+stream","S2CellId":"6002c00000000000","result":6427,"accuracy":0.1300814,"title":"IMG_1165"}
{"id":2951215096,"url":"http://farm4.staticflickr.com/3235/2951215096_9e7eab8ffd.jpg","path":"161/30f/16130f91cbd7f041da30d77c78a7a5.jpg","date":"2008-10-11","year":2008,"month":10,"lon":141.43668,"lat":40.508835,"tags":"caplior6,ekiben,ricoh,wy20081010","S2CellId":"6018f3c000000000","result":6539,"accuracy":0.01664106,"title":"%E5%85%AB%E6%88%B8%E9%A7%85%EF%BC%8F%E3%81%86%E3%81%AB%E9%87%9C%E3%82%81%E3%81%97","description":"%E3%81%86%E3%81%AB%E9%87%9C%E3%82%81%E3%81%97%E3%81%A7%E3%81%99%E3%80%82%E3%81%86%E3%81%AB%E3%81%8C%E3%81%9F%E3%81%8F%E3%81%95%E3%82%93%E3%81%A8%E3%83%9B%E3%82%BF%E3%83%86%E5%85%A5%E3%82%8A%E3%80%82"}
{"id":3060770499,"url":"http://farm4.staticflickr.com/3181/3060770499_1ab09169af.jpg","path":"ff3/ff8/ff3ff8f26772a372b92628fb61ab632c.jpg","date":"2008-11-04","year":2008,"month":11,"lon":141.43193,"lat":40.509296,"tags":"%E5%85%AB%E6%88%B6,hachinohe,japan,tohokou,y2008","S2CellId":"880fb40000000000","result":8155,"accuracy":0.058876343,"title":"081104-JR+Hachinohe-0679","description":"Jr+%E5%85%AB%E6%88%B6%E7%AB%99%E6%98%AF%E7%82%BA%E4%BA%86%E6%9D%B1%E5%8C%97%E6%96%B0%E5%B9%B9%E7%B7%9A%E9%80%9A%E8%BB%8A%E8%93%8B%E7%9A%84%E6%96%B0%E7%AB%99%E9%AB%94%EF%BC%8C%E8%A3%A1%E9%9D%A2%E5%BE%88%E5%AF%AC%E6%95%9E%E8%88%92%E9%81%A9%E3%80%82%E8%B7%9F%E6%B3%95%E5%9C%8BTgv%E7%9A%84%E6%96%B0%E7%AB%99%E6%9C%89%E9%9B%B7%E5%90%8C%E7%9A%84%E6%84%9F%E8%A6%BA%EF%BD%9E"}
{"id":12025698014,"url":"http://farm4.staticflickr.com/3815/12025698014_be9a912fee.jpg","path":"1e4/0e6/1e40e6409f2ce8e0495e8ab2db312922.jpg","date":"2013-12-15","year":2013,"month":12,"lon":141.76738,"lat":40.189075,"tags":"canon+ef35mm+f%2F2+is+usm","S2CellId":"6018450000000000","result":6446,"accuracy":0.064541325,"title":"IMG_2297","description":"%E4%B9%85%E6%85%88%E5%B8%82"}
{"id":11872735954,"url":"http://farm6.staticflickr.com/5544/11872735954_dfb6853ed1.jpg","path":"b89/c91/b89c9116f013da62422366a0dc754f8c.jpg","date":"2013-12-14","year":2013,"month":12,"lon":141.76459,"lat":40.19,"tags":"canon+ef35mm+f%2F2+is+usm,travel","S2CellId":"89c258fb00000000","result":8987,"accuracy":0.021903357,"title":"IMG_2262","description":"%E4%B9%85%E6%85%88%E5%B8%82++%E9%81%93%E3%81%AE%E9%A7%85%E3%81%8F%E3%81%98+%E3%82%84%E3%81%BE%E3%81%9B%E5%9C%9F%E9%A2%A8%E9%A4%A8"}
