{"id":3119974244,"url":"http://farm4.staticflickr.com/3192/3119974244_468052f2f8.jpg","path":"ab9/983/ab9983f47c042b0704c3767981b649.jpg","date":"2008-12-17","year":2008,"month":12,"lon":-115.108955,"lat":37.24179,"tags":"coot,northern+shoveler","S2CellId":"8620af4000000000","result":7522,"accuracy":0.009166233,"title":"Last+unfrozen+hole","description":"One+Northern+Shoveler+and+several+American+Coot+gathering+around+the+last+ice+free+hole+in+a+pond"}
{"id":2688821493,"url":"http://farm4.staticflickr.com/3180/2688821493_5b570384c7.jpg","path":"705/9dc/7059dc4821787b934e518d8f4d9efc1.jpg","date":"2008-06-28","year":2008,"month":6,"lon":-115.11749,"lat":37.279106,"tags":"pahranagat","S2CellId":"488e400000000000","result":5768,"accuracy":0.062718496,"title":"Pahranagat+Petroglyph","description":"Petroglyph+in+Black+Canyon+of+Pahranagat"}
{"id":8092208523,"url":"http://farm9.staticflickr.com/8188/8092208523_b5cbb9d43f.jpg","path":"ed6/272/ed62728dbcc265f5c1f19dda592c1a.jpg","date":"2010-07-05","year":2010,"month":7,"lon":-115.74504,"lat":37.64414,"tags":"18-200,area+51,d90,extraterrestrial+highway,little+ale+inn,nikon,rachel","S2CellId":"80ac000000000000","result":7132,"accuracy":0.26199743,"title":"Little+A%27Le%27+Inn+Tow+Truck+and+Saucer","description":"Seen+at+the+Little+A%27Le%27+Inn+in+Rachel%2C+Nevada."}
{"id":2412079624,"url":"http://farm3.staticflickr.com/2149/2412079624_b5cd38348d.jpg","path":"564/ff5/564ff5c0e58be2b7f7a897a720ba50e.jpg","date":"2008-03-29","year":2008,"month":3,"lon":-115.01664,"lat":37.18316,"tags":"93,hwy,nevada,pahranagat+valley","S2CellId":"48cd000000000000","result":5785,"accuracy":0.045510907,"title":"Geologic+Upheaval"}
{"id":2162031638,"url":"http://farm3.staticflickr.com/2093/2162031638_ee45471b52.jpg","path":"273/4f7/2734f775f02862e404cb0416ecc7e5d.jpg","date":"2008-01-03","year":2008,"month":1,"lon":-115.76997,"lat":37.624226,"tags":"51,aircraft,area,military,nevada,rachel","S2CellId":"48742b0000000000","result":5106,"accuracy":0.045872934,"title":"Area+51++2002","description":"This+is+one+of+a+series+of+photos+taken+outside+of+Rachel%2C+Nevada+during+%22Red+Flag+Week%22.+There+were+a+variety+of+aircraft+seen+over+the+town+of+Rachel+that+day+flying+at+high+speeds+and+low+altitude.%0A%0A%0A%0A%3Ca+href%3D%22http%3A%2F%2Fwww.rachel-nevada.com%2F%22%3Ewww.rachel-nevada.com%2F%3C%2Fa%3E"}
{"id":4466104302,"url":"http://farm5.staticflickr.com/4017/4466104302_749623be86.jpg","path":"fc4/be6/fc4be6caaa4626a3aec7c5488ee33f1.jpg","date":"2010-03-22","year":2010,"month":3,"lon":-115.50424,"lat":37.477448,"tags":"agavaceae,animal,beetle,coccinelidae,coeloptera,desert,fauna,field+season+2010,insect,joshua+tree,ladybird,mojave+desert,nature,nevada,slideshow20100326,tikaboo+valley%2C+nevada,yucca,yucca+brevifolia","S2CellId":"8fa7000000000000","result":9567,"accuracy":0.009366027,"title":"2010.03.22+-+Ladybird+II"}
