{"id":5901969259,"url":"http://farm6.staticflickr.com/5152/5901969259_707283fc72.jpg","path":"501/927/5019273162aa116b941caedec17ebaec.jpg","date":"2011-07-03","year":2011,"month":7,"lon":9.656209,"lat":50.299866,"tags":"feuerwehr,reschue+challenge,rettung,technische+rettung,vfdu","S2CellId":"8841b50000000000","result":8392,"accuracy":0.12368914,"title":"Team+Th%C3%BCringen"}
{"id":2366632663,"url":"http://farm4.staticflickr.com/3146/2366632663_8a073a46df.jpg","path":"e95/ae3/e95ae37e64e8dd185a6e6d738e126ee.jpg","date":"2008-01-08","year":2008,"month":1,"lon":9.085049,"lat":50.158028,"tags":"cat,katze","S2CellId":"8893000000000000","result":8521,"accuracy":0.009535252,"title":"Queeny"}
{"id":2746041158,"url":"http://farm4.staticflickr.com/3076/2746041158_6f6660d904.jpg","path":"2c5/1df/2c51df72574ceb375e6b432659cceb5.jpg","date":"2007-05-25","year":2007,"month":5,"lon":9.352111,"lat":50.226234,"tags":"bad+orb,deutschland,germany,hesse,hessen,landscape,landschaft,main-kinzig-kreis,natur,nature","S2CellId":"47a3c00000000000","result":3878,"accuracy":0.043579146,"title":"CIMG7980"}
{"id":419319925,"url":"http://farm1.staticflickr.com/130/419319925_dc4b1dd1b3.jpg","path":"f8b/bbc/f8bbbc446072ee8f346985328075.jpg","date":"2007-03-12","year":2007,"month":3,"lon":9.11951,"lat":50.145447,"tags":"deutschland,freigericht,germany,hasen,hesse,hessen,landscape,landschaft,rabbits,sonnenaufgang,sunrise","S2CellId":"47bcc00000000000","result":4080,"accuracy":0.04596362,"title":"Somborner+Feld"}
{"id":447621262,"url":"http://farm1.staticflickr.com/200/447621262_36f5ad6a48.jpg","path":"1bc/147/1bc147d15d496e872cb549bb82da626.jpg","date":"2007-04-04","year":2007,"month":4,"lon":9.027328,"lat":50.151993,"tags":"b%C3%A4ume,baum,deutschland,feld,germany,hessen,natur,nature+reserve,rodenbach,see,teich,wasser,wiese","S2CellId":"47d9bc0000000000","result":4479,"accuracy":0.019353004,"title":"bei+Rodenbach","description":"Digital+camera"}
{"id":5919961119,"url":"http://farm7.staticflickr.com/6006/5919961119_18ba57e2a6.jpg","path":"b95/363/b95363e01578754d2bb5cb0c724679b.jpg","date":"2011-07-09","year":2011,"month":7,"lon":9.115605,"lat":50.144375,"tags":"clouds,deutschland,freigericht,germany,hessen,himmel,main-kinzig-kreis,sky,somborn,sonnenuntergang,sunset,wolken","S2CellId":"88d0a631cabb5071","result":8563,"accuracy":0.054754887,"title":"Sonnenuntergang%2FSunset+2011%2F07%2F09"}
{"id":487247199,"url":"http://farm1.staticflickr.com/177/487247199_82498dc033.jpg","path":"13b/681/13b681b585392d63e93ab5327fa8f597.jpg","date":"2007-05-05","year":2007,"month":5,"lon":9.184741,"lat":50.153614,"tags":"deutschland,duck,ente,freigericht,germany,hesse,hessen,landscape,landschaft,natur,pond,sonne,sun,teich","S2CellId":"46e1000000000000","result":3087,"accuracy":0.02873654,"title":"bei+Waldrode"}
{"id":1409229867,"url":"http://farm2.staticflickr.com/1169/1409229867_a7dca9a95b.jpg","path":"7d5/17d/7d517db5fad38ead80b2bde3a5e220af.jpg","date":"2007-09-19","year":2007,"month":9,"lon":9.11951,"lat":50.145447,"tags":"deutschland,freigericht,germany,hesse,hessen,landscape,landschaft,main-kinzig-kreis,natur,nature,somborn","S2CellId":"47be500000000000","result":4106,"accuracy":0.01910954,"title":"CIMG8779"}
{"id":400373944,"url":"http://farm1.staticflickr.com/140/400373944_889091307a.jpg","path":"9dd/899/9dd8994b01aeacdb08e2bee9645ed.jpg","date":"2007-02-23","year":2007,"month":2,"lon":9.101142,"lat":50.18657,"tags":"abendrot,b%C3%A4ume,baum,germany,gr%C3%BCndau,gras,hasselroth,hesse,landscape,landschaft,natur,nature,niedermittlau,rothenbergen,sonne,sonnenuntergang,sun,sunset,trees,water","S2CellId":"883c400000000000","result":8355,"accuracy":0.009585816,"title":"Abendstimmung"}
{"id":513938343,"url":"http://farm1.staticflickr.com/210/513938343_c7b6faad92.jpg","path":"fb3/4fd/fb34fdd0847ea942448987a95fb79a.jpg","date":"2007-05-18","year":2007,"month":5,"lon":9.784011,"lat":50.211952,"tags":"man,pfadfinder,region,vcp,vcp+region+main-kinzig,w%C3%A4chtersbach","S2CellId":"89e4d00000000000","result":9371,"accuracy":0.018814774,"title":"Tobi"}
{"id":3392107729,"url":"http://farm4.staticflickr.com/3442/3392107729_d72b380df0.jpg","path":"30e/560/30e560b583abf5862915abc35c946e17.jpg","date":"2009-03-27","year":2009,"month":3,"lon":9.356746,"lat":50.2168,"tags":"bad+orb,deutschland,germany,hesse,hessen,landscape,landschaft,main-kinzig-kreis,natur,nature","S2CellId":"884dc00000000000","result":8408,"accuracy":0.067539655,"title":"SDC10060"}
{"id":404121464,"url":"http://farm1.staticflickr.com/173/404121464_f7b105abd3.jpg","path":"b19/d32/b19d3244ac7bd9e1e2ff9502a6048fb.jpg","date":"2007-02-26","year":2007,"month":2,"lon":9.353656,"lat":50.225574,"tags":"bad+orb,deutschland,germany,gras,hesse,hessen,kur,kurstadt,landscape,natur,nature,orbtal,regeneration,spessart,trees,water","S2CellId":"89dc400000000000","result":9274,"accuracy":0.020162864,"title":"Regenbogen+im+Orbtal"}
{"id":4780484190,"url":"http://farm5.staticflickr.com/4123/4780484190_f4f392c632.jpg","path":"b1a/5bc/b1a5bcd5b1d6339734558edeaae03f47.jpg","date":"2010-07-07","year":2010,"month":7,"lon":9.898031,"lat":50.545273,"tags":"deutschland,hessen,milseburg,mittelhessen,rh%C3%B6n,rh%C3%B6n+2010","S2CellId":"4709b00000000000","result":3133,"accuracy":0.05636224,"title":"CRW_8840"}
{"id":4527932082,"url":"http://farm5.staticflickr.com/4031/4527932082_04220238c4.jpg","path":"453/876/4538766b02862dee594363fe68c29b1.jpg","date":"2010-04-08","year":2010,"month":4,"lon":9.738902,"lat":50.728767,"tags":"bach,burghaun,steinbach","S2CellId":"4749000000000000","result":3293,"accuracy":0.025062306,"title":"Steinbach"}
{"id":446551026,"url":"http://farm1.staticflickr.com/215/446551026_3033c88b10.jpg","path":"9eb/faf/9ebfaf9992868d10c46335763a97a5d0.jpg","date":"2007-04-04","year":2007,"month":4,"lon":9.027328,"lat":50.151993,"tags":"deutschland,germany,hesse,hessen,landscape,landschaft,natur,nature,nature+reserve,naturschutzgebiet,rodenbach","S2CellId":"4652c00000000000","result":2868,"accuracy":0.0150128845,"title":"wild+lebende+Graug%C3%A4nse+bei+Rodenbach"}
{"id":447612094,"url":"http://farm1.staticflickr.com/212/447612094_ab8003d56a.jpg","path":"4b8/648/4b86484e1246cc6599977f76a7b9385.jpg","date":"2007-04-04","year":2007,"month":4,"lon":9.027328,"lat":50.151993,"tags":"b%C3%A4ume,baum,deutschland,feld,germany,hessen,natur,nature+reserve,rodenbach,see,teich,wasser,wiese","S2CellId":"40bc000000000000","result":2689,"accuracy":0.01908886,"title":"bei+Rodenbach","description":"Digital+camera"}
{"id":4977417725,"url":"http://farm5.staticflickr.com/4154/4977417725_bfc5884988.jpg","path":"523/359/523359b1eb291caa1ab3d5a24d5d0.jpg","date":"2010-09-04","year":2010,"month":9,"lon":9.977441,"lat":50.39391,"tags":"2010,bavaria,bayern,bayerncup,bischofsheim,children,d,deutschland,germany,haselbach,kinder,rh%C3%B6n,rh%C3%B6n-grabfeld,schisprung,september,skisprung,skisprunganlage,sprunglauf,sprungschanze,unterfranken","S2CellId":"4799400000000000","result":3776,"accuracy":0.020291034,"title":"Bayerncup+am+4.9.2010","description":"Flugphase+auf+der+16m+Schanze."}
{"id":2646111681,"url":"http://farm4.staticflickr.com/3019/2646111681_c807e13d80.jpg","path":"626/155/6261551e5327f42afc15b6bf936c.jpg","date":"2008-07-06","year":2008,"month":7,"lon":9.872303,"lat":50.11051,"tags":"2008,200807,20080706,bavaria,europe,germany,hammbelburg,saaleck+castle,schlo%C3%9F+saaleck","S2CellId":"487e100000000000","result":5634,"accuracy":0.05850889,"title":"IMG_0138+-+Schloss+Saaleck","description":"Saaleck+Castle+%28Schloss+Saaleck%29+the+place+of+our+second+GeoCache+that+day.%0A%0A%3Ca+href%3D%22http%3A%2F%2Fwww.geocaching.com%2Fseek%2Fcache_details.aspx%3Fguid%3D22971b6a-0d1d-4edf-a03a-b75dd25babc4%22%3EBurg+Saaleck+GeoCache%3C%2Fa%3E"}
{"id":4926814395,"url":"http://farm5.staticflickr.com/4099/4926814395_7e0629e8f5.jpg","path":"16a/b70/16ab709747ade6dd5de17f1a4ea57673.jpg","date":"2010-08-25","year":2010,"month":8,"lon":9.25229,"lat":50.783108,"tags":"canon+canoscan+8800f,diana+f%2B,digikam,gimp,hybrid,imagemagick,kodak+farbwelt+400,lomography,xsane","S2CellId":"808fc90000000000","result":7068,"accuracy":0.00401213,"title":"The+opened+entrance","description":"The+ceremony+is+over%2C+and+we%27re+about+to+remove+the+lodges+cover."}
{"id":5471485274,"url":"http://farm6.staticflickr.com/5053/5471485274_a64ef2e4f1.jpg","path":"2be/79d/2be79da57adf5ed491d3addf2cf03edc.jpg","date":"2011-02-23","year":2011,"month":2,"lon":9.732411,"lat":50.733112,"tags":"burghaun,steinbach","S2CellId":"47c0700000000000","result":4138,"accuracy":0.025813522,"title":"Blick+nach+Oberstoppel"}
{"id":423681137,"url":"http://farm1.staticflickr.com/167/423681137_4e3325cd00.jpg","path":"e34/c8e/e34c8e787e01ca41177fe5b5abb6f3e.jpg","date":"2007-03-16","year":2007,"month":3,"lon":9.153928,"lat":50.119946,"tags":"aussicht,deutschland,fernblick,freigericht,germany,hesse,hessen,landscape,landschaft,main-kinzig-kreis,view","S2CellId":"47be700000000000","result":4107,"accuracy":0.116749935,"title":"Fernblick+Neuses","description":"Freigericht-Neuses%2C+a+small+village+located+in+Hesse%2FGermany."}
{"id":4512273202,"url":"http://farm3.staticflickr.com/2700/4512273202_53c93cbef0.jpg","path":"2a6/e7c/2a6e7cac1da3dc7b4556d1a54369ea.jpg","date":"2009-08-29","year":2009,"month":8,"lon":9.724853,"lat":50.693623,"tags":"burghaun,friedhof,j%C3%BCdischer","S2CellId":"47d9bc0000000000","result":4479,"accuracy":0.030278152,"title":"j%C3%BCdischer+Friedhof"}
{"id":2438463335,"url":"http://farm3.staticflickr.com/2309/2438463335_28f3a7a7e4.jpg","path":"8cb/5f1/8cb5f13472a41ccf520aac183725d.jpg","date":"2008-04-23","year":2008,"month":4,"lon":9.945513,"lat":50.498558,"tags":"dc+3,deutsches+segelflugmuseum,deutsches+segelflugmuseum+mit+modellflug,deutschland,el+planeador,el+velero,germany,hessen,hessische+rh%C3%B6n,modellflugmuseum,modellflugzeug,museum,plane,planeur,rh%C3%B6n,segelflugmuseum,segelflugzeug,wasserkuppe","S2CellId":"47fb000000000000","result":4734,"accuracy":0.1907951,"title":"Modellflugzeug+DC+3","description":"Dies+ist+ein+vom+ehemaligen+Besitzer+selbst+gefertigtes+Modelll+mit+elektrischem+Einziehfahrwerk.+Es+handelt+sich+um+eine+DC+3."}
{"id":435371196,"url":"http://farm1.staticflickr.com/162/435371196_169522a94b.jpg","path":"2f1/87c/2f187c2dc39c1e9f8cc197e7342fdf.jpg","date":"2007-03-26","year":2007,"month":3,"lon":9.168262,"lat":50.25582,"tags":"deutschland,germany,gr%C3%BCndau,gras,hesse,hessen,landscape,landschaft,natur,nature,sea,see,trees","S2CellId":"4790300000000000","result":3707,"accuracy":0.014555295,"title":"Breitenborn"}
{"id":7074757145,"url":"http://farm8.staticflickr.com/7269/7074757145_c78198faca.jpg","path":"91b/c0b/91bc0b9de3d14cf59cacce85864ccf5.jpg","date":"2012-04-13","year":2012,"month":4,"lon":9.712981,"lat":50.266598,"tags":"autobahngeschichte,autobahnrelikt,bad+br%C3%BCckenau,gm%C3%BCnden,reichsautobahn,reichsautobahnstrecke,reichsautobahnstrecke+46,ruinenstrecke,rupboden,strecke+46,strecke+46+w%C3%BCrzburg+-+kirchheim,w%C3%BCrzburg","S2CellId":"46ed000000000000","result":3093,"accuracy":0.05966176,"title":"Strecke+46+Bad+Br%C3%BCckenau+-+W%C3%BCrzburg+April+2007_039"}
{"id":6198540027,"url":"http://farm7.staticflickr.com/6020/6198540027_8198e840f7.jpg","path":"8fd/f15/8fdf15afb77bb237fe5d2fb4fa222a.jpg","date":"2011-09-21","year":2011,"month":9,"lon":9.6718,"lat":50.554005,"tags":"2011,21.9.2011,altar,church,city,deu,deutschland,dom,dom+st.+salvator+zu+fulda,fd,fulda,germany,hessen,innenraum,katholisch,kirche,september,st.+salvator,stadt","S2CellId":"4772c00000000000","result":3389,"accuracy":0.13635749,"title":"Fulda+am+21.9.2011","description":"Seitenaltar+in+der+linken+Domh%C3%A4lfte."}
{"id":2745266225,"url":"http://farm4.staticflickr.com/3108/2745266225_f1ab62c4df.jpg","path":"321/a66/321a66ca05d32dce61a1d977a63646.jpg","date":"2007-05-25","year":2007,"month":5,"lon":9.352111,"lat":50.226234,"tags":"bad+orb,deutschland,germany,hesse,hessen,landscape,landschaft,main-kinzig-kreis,natur,nature","S2CellId":"864e640000000000","result":7620,"accuracy":0.032960854,"title":"CIMG8013"}
{"id":4122513209,"url":"http://farm3.staticflickr.com/2624/4122513209_738ed1929a.jpg","path":"c0e/087/c0e08774cddd9481c7edd3a4e5b8569.jpg","date":"2005-03-26","year":2005,"month":3,"lon":9.000007,"lat":50.999992,"tags":"28.0-200.0+mm,mecklenburg-vorpommern,schloss,schwerin","S2CellId":"475d000000000000","result":3308,"accuracy":0.015762461,"title":"Nochmal+im+Schlosspark","description":"Im+Schweiner+Schlosspark"}
{"id":6928681784,"url":"http://farm8.staticflickr.com/7189/6928681784_bbfbe174ab.jpg","path":"acb/71a/acb71a24c525c05f87f96634f14ecee.jpg","date":"2012-04-13","year":2012,"month":4,"lon":9.712981,"lat":50.266598,"tags":"autobahngeschichte,autobahnrelikt,bad+br%C3%BCckenau,gm%C3%BCnden,reichsautobahn,reichsautobahnstrecke,reichsautobahnstrecke+46,ruinenstrecke,rupboden,strecke+46,strecke+46+w%C3%BCrzburg+-+kirchheim,w%C3%BCrzburg","S2CellId":"479e500000000000","result":3836,"accuracy":0.043467294,"title":"Strecke+46+Bad+Br%C3%BCckenau+-+W%C3%BCrzburg+April+2007_053"}
{"id":392459576,"url":"http://farm1.staticflickr.com/127/392459576_337ddb9d6f.jpg","path":"985/0e4/9850e4c39ade2af463ba7dedc444ca8.jpg","date":"2007-02-16","year":2007,"month":2,"lon":9.11539,"lat":50.293945,"tags":"altstadt,buedingen,burg,deutschland,f%C3%BCrst+zu+ysenburg+und+b%C3%BCdingen,friedberg,geschichte,hessen,stadtmauer","S2CellId":"4798c00000000000","result":3775,"accuracy":0.1894698,"title":"B%C3%BCdingen"}
{"id":4060629350,"url":"http://farm3.staticflickr.com/2767/4060629350_2736a702fa.jpg","path":"171/ce3/171ce34fc299a3fabb0fa825dfd7887.jpg","date":"2009-10-28","year":2009,"month":10,"lon":9.119296,"lat":50.292812,"tags":"2009,autumn,b%C3%BCdingen,castle,f30,fall,garden,germany,hessen,park,reflection,river,town,trees,water,wetterau,yellow","S2CellId":"6d318a5000000000","result":6817,"accuracy":0.021236096,"title":"Schlosspark","description":"B%C3%BCdingen+-+Germany+2009%0A%0A%3Ca+href%3D%22http%3A%2F%2Fbighugelabs.com%2Fonblack.php%3Fid%3D4060629350%22+rel%3D%22nofollow%22%3EView+On+Black%3C%2Fa%3E"}
{"id":5911143989,"url":"http://farm7.staticflickr.com/6036/5911143989_2aae7cef8f.jpg","path":"c4e/92b/c4e92b76e64f5257fbbce5ae151623c4.jpg","date":"2011-06-04","year":2011,"month":6,"lon":9.703019,"lat":50.866673,"tags":"%C3%A9glises+romanes,allemagne","S2CellId":"479f540000000000","result":3867,"accuracy":0.09240823,"title":"Bad+Hersfeld+%28Hesse%29%2C+ruines+de+l%27abbatiale"}
{"id":6669123407,"url":"http://farm8.staticflickr.com/7157/6669123407_f4f8499b6d.jpg","path":"2c3/f2b/2c3f2b50811e8fe7b8266bda7a294cb6.jpg","date":"2012-01-07","year":2012,"month":1,"lon":9.743983,"lat":50.30326,"tags":"bad+br%C3%BCckenau,bavaria,bayern,bicycle,deu,deutsches+fahrradmuseum,deutschland,fahrrad,fahrradmuseum,german+bicycle+museum,germany,hochrad,landkreis+bad+kissingen,museum,unterfranken","S2CellId":"80c2b94000000000","result":7162,"accuracy":0.04330209,"title":"Deutsches+Fahrradmuseum+am+7.1.2012","description":"Lenkstange+und+Sattel+eines+Hochrads."}
{"id":474899294,"url":"http://farm1.staticflickr.com/219/474899294_67343dd0cf.jpg","path":"718/676/7186761dd76d8f5e604169a8466c7db1.jpg","date":"2007-04-27","year":2007,"month":4,"lon":9.184741,"lat":50.153614,"tags":"cows,deutschland,ducks,enten,freigericht,germany,gondelteich,hesse,hessen,k%C3%BChe,landscape,landschaft,natur,nature","S2CellId":"4791d00000000000","result":3725,"accuracy":0.0095884865,"title":"Arbendstimmung+bei+Waldrode"}
{"id":10342138103,"url":"http://farm6.staticflickr.com/5511/10342138103_b78fea66c3.jpg","path":"44a/d66/44ad66c65a36832dedccbed87be6aae1.jpg","date":"2007-03-16","year":2007,"month":3,"lon":9.035305,"lat":50.16493,"tags":"deutschland,geo%3Acity%3D,geo%3Acountrys%3D,geo%3Astate%3D,hessen,himmel,kinzigsee,langenselbold,natur,s%C3%BCdhessen,sonne,sonnenuntergang","S2CellId":"88fb990000000000","result":8747,"accuracy":0.08412256,"title":"IMG_0072-2"}
{"id":3391864931,"url":"http://farm4.staticflickr.com/3640/3391864931_82fa1a56d6.jpg","path":"b48/fca/b48fca3e9f9087bd2c02fa5d6e84ce.jpg","date":"2009-03-27","year":2009,"month":3,"lon":9.356746,"lat":50.2168,"tags":"bad+orb,deutschland,germany,hesse,hessen,landscape,landschaft,main-kinzig-kreis,natur,nature","S2CellId":"47b9500000000000","result":4066,"accuracy":0.089989394,"title":"img_1901"}
{"id":419311246,"url":"http://farm1.staticflickr.com/157/419311246_9f3079f063.jpg","path":"dc2/44a/dc244adb7ce429d5e73e6eae3c118b9.jpg","date":"2007-03-12","year":2007,"month":3,"lon":9.11951,"lat":50.145447,"tags":"deutschland,freigericht,germany,hasen,hesse,hessen,landscape,landschaft,rabbits,sonnenaufgang,sunrise","S2CellId":"4798c00000000000","result":3775,"accuracy":0.06088178,"title":"Somborner+Feld"}
{"id":392487713,"url":"http://farm1.staticflickr.com/186/392487713_04bd5ab179.jpg","path":"469/2e1/4692e15e9dbd065e6ce37a0d8dd1.jpg","date":"2007-02-16","year":2007,"month":2,"lon":9.11539,"lat":50.293945,"tags":"altstadt,buedingen,burg,deutschland,f%C3%BCrst+zu+ysenburg+und+b%C3%BCdingen,friedberg,geschichte,hessen,stadtmauer","S2CellId":"487a900000000000","result":5526,"accuracy":0.10821506,"title":"B%C3%BCdingen"}
{"id":474893041,"url":"http://farm1.staticflickr.com/183/474893041_5a50d838cb.jpg","path":"baa/1e1/baa1e11ffdb921fa25b1eb879487422.jpg","date":"2007-04-27","year":2007,"month":4,"lon":9.184741,"lat":50.153614,"tags":"cows,deutschland,ducks,enten,freigericht,germany,gondelteich,hesse,hessen,k%C3%BChe,landscape,landschaft,natur,nature","S2CellId":"8859400000000000","result":8434,"accuracy":0.01756292,"title":"Wald+bei+Horbach"}
{"id":6972947077,"url":"http://farm8.staticflickr.com/7044/6972947077_7e1c207258.jpg","path":"276/623/27662329a12f817041d143a3b035bfd.jpg","date":"2012-03-11","year":2012,"month":3,"lon":9.137355,"lat":50.144733,"tags":"feuerwehr,freigericht,jf,jugend,jugendfeuerwehr,kreisjugendfeuerwehrtag,mai-kinzig-kreis,mkk,sitzung,tagung,versammlung,wahlen,zukunft","S2CellId":"89de100000000000","result":9281,"accuracy":0.009074494,"title":"11.03.2012+Kreisjugendfeuerwehrtag"}
{"id":435357154,"url":"http://farm1.staticflickr.com/164/435357154_8d37381f17.jpg","path":"8c1/02c/8c102cf8793c2bc7398c4eed9aa88a3f.jpg","date":"2007-03-26","year":2007,"month":3,"lon":9.168262,"lat":50.25582,"tags":"deutschland,germany,gr%C3%BCndau,gras,hesse,hessen,landscape,landschaft,natur,nature,sea,see,trees","S2CellId":"47f9000000000000","result":4733,"accuracy":0.07948947,"title":"Breitenborn"}
{"id":446611187,"url":"http://farm1.staticflickr.com/204/446611187_3b335ebd41.jpg","path":"979/43d/97943d39127ccac4bb88a1b6e75a9e.jpg","date":"2007-04-04","year":2007,"month":4,"lon":9.027328,"lat":50.151993,"tags":"deutschland,germany,hesse,hessen,landscape,landschaft,natur,nature,nature+reserve,naturschutzgebiet,rodenbach","S2CellId":"487bb30000000000","result":5594,"accuracy":0.007378076,"title":"bei+Rodenbach"}
{"id":6781518611,"url":"http://farm8.staticflickr.com/7007/6781518611_8549b6f46c.jpg","path":"afb/a69/afba6932238cbd2a51f9fc39c7ecb3.jpg","date":"2009-06-07","year":2009,"month":6,"lon":9.036678,"lat":50.174835,"tags":"bkj,brauchtum,gesang,hessen,hessentag,hvt,kindertag,landesausstellung,langenselbold,mundart,musik,rathausplatz,tanz,theater,tracht,trachtenland,zelt","S2CellId":"4797d40000000000","result":3771,"accuracy":0.4026683,"title":"Trachtenland+Hessen+%40Hessentag+Langenselbold+07.06.2009"}
{"id":8655151549,"url":"http://farm9.staticflickr.com/8105/8655151549_715ee4070b.jpg","path":"34a/915/34a91549ae345c9b99e5c6b54d1fea51.jpg","date":"2009-08-29","year":2009,"month":8,"lon":9.288403,"lat":50.74243,"tags":"30er+jahre,a5,alsfeld,am,autobahn,autobahn+5,autobahnbetriebsdienst,autobahnbilder,autobahngeschichte,autobahnmeisterei,autobahnmeisterei+alsfeld,germany,reichsautobahn,reichsautobahnstrecke,reichsautobahnstrecke+29,stra%C3%9Fenmeisterei,strecke+29,strecke+29+kirchheim+-+gie%C3%9Fen","S2CellId":"47a9400000000000","result":3952,"accuracy":0.02322988,"title":"A5+AM+Alsfeld+August+2009_023"}
{"id":5452690225,"url":"http://farm6.staticflickr.com/5295/5452690225_1cc63d2a79.jpg","path":"c61/1c8/c611c8e3cbb5a994030309259d6f1a2.jpg","date":"2010-05-29","year":2010,"month":5,"lon":9.015805,"lat":50.825653,"tags":"bkj,brauchtum,deutschland,fest,gesang,hessen,hessentag,hvt,mundart,musik,stadtallendorf,tanz,theater,trachten,trachtenland","S2CellId":"4797d40000000000","result":3771,"accuracy":0.44193357,"title":"50.+Hessentag+2010+Stadtallendorf"}
{"id":10341936465,"url":"http://farm4.staticflickr.com/3673/10341936465_ee5020cf6b.jpg","path":"336/0e8/3360e8211af626ff3173d9d6718cccd3.jpg","date":"2007-03-16","year":2007,"month":3,"lon":9.035305,"lat":50.16493,"tags":"deutschland,geo%3Acity%3D,geo%3Acountrys%3D,geo%3Astate%3D,hessen,himmel,kinzigsee,langenselbold,natur,s%C3%BCdhessen,sonne,sonnenuntergang","S2CellId":"89c1c00000000000","result":8931,"accuracy":0.023826417,"title":"IMG_0071-3"}
{"id":1634661056,"url":"http://farm3.staticflickr.com/2263/1634661056_6c2bd2e8bd.jpg","path":"489/470/489470581f1f2f8c9413aea18c9045d0.jpg","date":"2007-10-15","year":2007,"month":10,"lon":9.150087,"lat":50.05947,"tags":"blume,flower,foveon,gecko,iso+50,orange,purple,purple+gecko,sd14,sigma,sigma+50%2F2.8+ex,x3f","S2CellId":"47a85c0000000000","result":3946,"accuracy":0.009227001,"title":"The+heart+of+the+matter...","description":"Another+ISO+50+shot"}
{"id":3845337758,"url":"http://farm4.staticflickr.com/3435/3845337758_ea85352559.jpg","path":"9cd/9a8/9cd9a8368728497f5dc7cf2ff7e0d2bf.jpg","date":"2009-07-29","year":2009,"month":7,"lon":9.818172,"lat":50.748566,"tags":"eiterfeld,gro%C3%9Fentaft,leibolz","S2CellId":"4749000000000000","result":3293,"accuracy":0.05331561,"title":"Blick+von+Leibolz+nach+Gro%C3%9Fentaft"}
{"id":6123298859,"url":"http://farm7.staticflickr.com/6068/6123298859_168515dd0e.jpg","path":"7a5/25e/7a525ea5d8f1d892643ddfa5c4842.jpg","date":"2010-09-05","year":2010,"month":9,"lon":9.676616,"lat":50.55205,"tags":"deutschland,fulda,germany,hesse,hessen","S2CellId":"4794d00000000000","result":3734,"accuracy":0.049195293,"title":"Alte+T%C3%BCr+in+Fulda-+old+door+at+Fulda+city"}
{"id":435402977,"url":"http://farm1.staticflickr.com/147/435402977_570402377a.jpg","path":"5ca/14a/5ca14a387187a36707a75b72ee6268.jpg","date":"2007-03-26","year":2007,"month":3,"lon":9.168262,"lat":50.25582,"tags":"deutschland,germany,gr%C3%BCndau,gras,hesse,hessen,landscape,landschaft,natur,nature,sea,see,trees","S2CellId":"47c3dc0000000000","result":4234,"accuracy":0.04289933,"title":"Breitenborn"}
{"id":3448907022,"url":"http://farm4.staticflickr.com/3594/3448907022_2bed8ef4ce.jpg","path":"bc9/ee6/bc9ee61d9e926c66881c992e2b194ad1.jpg","date":"2009-04-09","year":2009,"month":4,"lon":9.262053,"lat":50.223064,"tags":"cook,cooking,easter,food,germany,wirtheim","S2CellId":"5f0b2c0000000000","result":6349,"accuracy":0.011030716,"title":"germany_9apr2009_7615"}
{"id":4331619241,"url":"http://farm5.staticflickr.com/4034/4331619241_9bbbb054b1.jpg","path":"50b/32c/50b32cfc7c555c3ccd19fed8ac416f45.jpg","date":"2009-12-26","year":2009,"month":12,"lon":9.262591,"lat":50.22316,"tags":"germany,tile,tiles,wirtheim","S2CellId":"89c25a3c00000000","result":9059,"accuracy":0.0025835044,"title":"germany_26.12.2009_6481"}
{"id":5902549024,"url":"http://farm7.staticflickr.com/6009/5902549024_cf757e915a.jpg","path":"22e/be7/22ebe7d6858dece0d192f2f674a3b8.jpg","date":"2011-07-03","year":2011,"month":7,"lon":9.656209,"lat":50.299866,"tags":"feuerwehr,reschue+challenge,rettung,technische+rettung,vfdu","S2CellId":"47b9100000000000","result":4064,"accuracy":0.02056755,"title":"TRT+Lotte","description":"Rapid+Pit"}
{"id":6770921117,"url":"http://farm8.staticflickr.com/7163/6770921117_e9974208ea.jpg","path":"58c/82d/58c82dbd668e7ae58d8b5c9fc0e1611.jpg","date":"2012-01-18","year":2012,"month":1,"lon":9.751866,"lat":50.69033,"tags":"b27,b84,h%C3%BCnfeld,konrad,stadt,zuse","S2CellId":"808f770000000000","result":7015,"accuracy":0.03375262,"title":"Konrad+Zuse+Stadt+Monument","description":"Denkmal+in+der+Nordumfahrung+H%C3%BCnfeld"}
{"id":3650714348,"url":"http://farm3.staticflickr.com/2421/3650714348_959f1bdfdf.jpg","path":"dcf/f18/dcff1858bd47cc219c682aab47bef47.jpg","date":"2009-06-11","year":2009,"month":6,"lon":9.995958,"lat":50.33615,"tags":"11.06.2009,35+jahre+jubil%C3%A4um,bavaria,bayerische+bergwacht,bayern,bereitschaftsleiter,bergwacht,bergwacht+waldberg,bergwachtbereitschaft,deutschland,dorf,feier,fest,festzelt,gemeinde,germany,ortschaft,rh%C3%B6n,rh%C3%B6n-grabfeld,unterfranken,village,waldberg","S2CellId":"47c9b00000000000","result":4397,"accuracy":0.18819433,"title":"35+Jahre+BW+Waldberg+%2836%29","description":"Der+Bereitschaftsleiter+der+Bayerischen+Bergwachtbereitschaft+Waldberg+bei+seinem+Vortrag."}
{"id":4543580336,"url":"http://farm5.staticflickr.com/4057/4543580336_fa7ef8ee43.jpg","path":"8bd/0f8/8bd0f8dedbc90113b8325bf4628ae1d.jpg","date":"2010-04-08","year":2010,"month":4,"lon":9.753277,"lat":50.71785,"tags":"burghaun,clausmarbach,flugplatz+pl%C3%A4tzer,klausmarbach,pl%C3%A4tzer,pl%C3%A4tzer+wald,steinbach","S2CellId":"479e7c0000000000","result":3861,"accuracy":0.041323382,"title":"Pl%C3%A4tzer"}
{"id":404111629,"url":"http://farm1.staticflickr.com/124/404111629_7356a05d8b.jpg","path":"95e/dbe/95edbe321e84a65be5e3137215917fd.jpg","date":"2007-02-26","year":2007,"month":2,"lon":9.353656,"lat":50.225574,"tags":"bad+orb,deutschland,germany,gras,hesse,hessen,kur,kurstadt,landscape,natur,nature,orbtal,regeneration,spessart,trees,water","S2CellId":"47b9500000000000","result":4066,"accuracy":0.024655012,"title":"Orbtal"}
{"id":423672735,"url":"http://farm1.staticflickr.com/151/423672735_fafa2b52ac.jpg","path":"826/c64/826c6440248227ba20d7fa9d1218e8e.jpg","date":"2007-03-16","year":2007,"month":3,"lon":9.153928,"lat":50.119946,"tags":"aussicht,deutschland,fernblick,freigericht,germany,hesse,hessen,landscape,landschaft,main-kinzig-kreis,view","S2CellId":"47a0c00000000000","result":3872,"accuracy":0.03224728,"title":"Fernblick+Neuses"}
{"id":2343416884,"url":"http://farm3.staticflickr.com/2283/2343416884_cfe520e5e9.jpg","path":"ce4/7e4/ce47e4c27bb1c5b3c9bf37b983fabc1d.jpg","date":"2008-03-17","year":2008,"month":3,"lon":9.115047,"lat":50.144897,"tags":"cute,hamster,haustier,pet,rodent,tier","S2CellId":"46b5370000000000","result":3055,"accuracy":0.03013209,"title":"PIC_0035","description":"Digital+camera"}
{"id":10341883594,"url":"http://farm4.staticflickr.com/3688/10341883594_b595d97380.jpg","path":"5f1/3d0/5f13d065854372a4a4e1e97dc4651cd.jpg","date":"2007-03-16","year":2007,"month":3,"lon":9.035305,"lat":50.16493,"tags":"deutschland,geo%3Acity%3D,geo%3Acountrys%3D,geo%3Astate%3D,hessen,himmel,kinzigsee,langenselbold,natur,s%C3%BCdhessen,sonne,sonnenuntergang","S2CellId":"47c7500000000000","result":4373,"accuracy":0.017775403,"title":"IMG_0060-1"}
{"id":4498188612,"url":"http://farm3.staticflickr.com/2755/4498188612_bb6038ff05.jpg","path":"62b/338/62b338ccdbc513f797ee36523414bb0.jpg","date":"2010-04-02","year":2010,"month":4,"lon":9.320955,"lat":50.546566,"tags":"games,jenseits+der+siegel,jenseits+der+siegel+2010,larp,live+action+role+play,mitten+im+matsch,mythodea,ot,outtime,role+playing+games,rollenspiele,spiele,steinbr%C3%BCck,steinbr%C3%BFck,steinbrueck","S2CellId":"8717000000000000","result":7728,"accuracy":0.018750817,"title":"IMG_7577"}
{"id":404119963,"url":"http://farm1.staticflickr.com/187/404119963_d57e5617f6.jpg","path":"e23/1f3/e231f32f2e1bd03849fd3571182f885a.jpg","date":"2007-02-26","year":2007,"month":2,"lon":9.353656,"lat":50.225574,"tags":"bad+orb,deutschland,germany,gras,hesse,hessen,kur,kurstadt,landscape,natur,nature,orbtal,regeneration,spessart,trees,water","S2CellId":"89c2f3c000000000","result":9104,"accuracy":0.027371928,"title":"Orbtal"}
{"id":438137265,"url":"http://farm1.staticflickr.com/164/438137265_9bb626204e.jpg","path":"4ad/43b/4ad43b97299e1057ae7c497bb6616a10.jpg","date":"2007-03-28","year":2007,"month":3,"lon":9.190063,"lat":50.203056,"tags":"ausblick,deutschland,fernblick,gelnhausen,germany,hesse,hessen","S2CellId":"883c400000000000","result":8355,"accuracy":0.007994301,"title":"Wolkenhimmel"}
{"id":513926792,"url":"http://farm1.staticflickr.com/224/513926792_95d2782c3e.jpg","path":"e0b/349/e0b3494829f4eba4fddc7965a7c6608c.jpg","date":"2007-05-18","year":2007,"month":5,"lon":9.784011,"lat":50.211952,"tags":"gathering,pfadfinder,region,scouting,together,vcp,vcp+region+main-kinzig,w%C3%A4chtersbach","S2CellId":"48792c0000000000","result":5465,"accuracy":0.10609396,"title":"DSC_1264"}
{"id":5453310412,"url":"http://farm6.staticflickr.com/5132/5453310412_2ef64fec57.jpg","path":"1fb/16a/1fb16ad57bac916d31d5ffd0d9a71736.jpg","date":"2010-06-01","year":2010,"month":6,"lon":9.015805,"lat":50.825653,"tags":"bkj,brauchtum,deutschland,fest,gesang,hessen,hessentag,hvt,mundart,musik,stadtallendorf,tanz,theater,trachten,trachtenland","S2CellId":"47c9b00000000000","result":4397,"accuracy":0.04404704,"title":"50.+Hessentag+2010+Stadtallendorf"}
{"id":400366448,"url":"http://farm1.staticflickr.com/130/400366448_2d7746917e.jpg","path":"826/657/826657f5c6bad4417f17e81f6a49859f.jpg","date":"2007-02-23","year":2007,"month":2,"lon":9.101142,"lat":50.18657,"tags":"abendrot,b%C3%A4ume,baum,germany,gr%C3%BCndau,gras,hasselroth,hesse,landscape,landschaft,natur,nature,niedermittlau,rothenbergen,sonne,sonnenuntergang,sun,sunset,trees,water","S2CellId":"487e8c0000000000","result":5657,"accuracy":0.0039981916,"title":"Sonnenuntergang+am+23.02.2007"}
{"id":5902569458,"url":"http://farm7.staticflickr.com/6027/5902569458_f90080e030.jpg","path":"937/dbf/937dbfa3fea4da63b6c14f4ac8b78d9.jpg","date":"2011-07-03","year":2011,"month":7,"lon":9.656209,"lat":50.299866,"tags":"feuerwehr,reschue+challenge,rettung,technische+rettung,vfdu","S2CellId":"47a3400000000000","result":3877,"accuracy":0.33866394,"title":"TR+Sinntal","description":"Rapid+Pit"}
{"id":2900877581,"url":"http://farm4.staticflickr.com/3040/2900877581_6013769847.jpg","path":"6f7/487/6f748754f739f9841e848919b1ef7.jpg","date":"2008-09-27","year":2008,"month":9,"lon":9.945995,"lat":50.49844,"tags":"aviation,deu,deutschland,ffr,flieger-funk-runde,gersfeld,herbst,hessen,nikon+d70s,rh%C3%B6n,segelflugmuseum","S2CellId":"89b6440000000000","result":8829,"accuracy":0.021383137,"title":"2008_09_27-FFR+Wasserkuppe_DH7DJ_029"}
{"id":5514687110,"url":"http://farm6.staticflickr.com/5020/5514687110_c5a17d40d6.jpg","path":"efa/ea1/efaea18f928bd1ebb4717af22c65a2cd.jpg","date":"2011-03-02","year":2011,"month":3,"lon":9.753233,"lat":50.661045,"tags":"h%C3%BCnfeld,haune","S2CellId":"864e640000000000","result":7620,"accuracy":0.12319375,"title":"Haune"}
{"id":8604928534,"url":"http://farm9.staticflickr.com/8531/8604928534_61c98c2a58.jpg","path":"e17/54c/e1754c7cd56ca1db767aff953527c.jpg","date":"2013-03-30","year":2013,"month":3,"lon":9.348485,"lat":50.225327,"tags":"at+night-time,bad+orb,deutschland,germany,hesse,hessen,hessi,kurstadt,langzeitbelichtung,main-kinzig-kreis,mkk,nacht,nachtaufnahme,night,night+photograph,night+shot,spa+town,spessart,stadt,town","S2CellId":"479ec00000000000","result":3862,"accuracy":0.03031081,"title":"Bad+Orb+-+in+the+town+%22Bad+Orb%22"}
{"id":2900875861,"url":"http://farm4.staticflickr.com/3088/2900875861_2a23a40ba5.jpg","path":"52e/03f/52e03f5cbb278c224a68db66b6ae32.jpg","date":"2008-09-27","year":2008,"month":9,"lon":9.945995,"lat":50.49844,"tags":"aviation,deu,deutschland,ffr,flieger-funk-runde,gersfeld,herbst,hessen,nikon+d70s,rh%C3%B6n,segelflugmuseum","S2CellId":"89b6440000000000","result":8829,"accuracy":0.22943741,"title":"2008_09_27-FFR+Wasserkuppe_DH7DJ_024"}
{"id":487216026,"url":"http://farm1.staticflickr.com/224/487216026_a7a3f1aaf0.jpg","path":"209/759/209759cbccfcfc53d10891defc9827.jpg","date":"2007-05-05","year":2007,"month":5,"lon":9.184741,"lat":50.153614,"tags":"deutschland,duck,ente,freigericht,germany,hesse,hessen,landscape,landschaft,natur,pond,sonne,sun,teich","S2CellId":"4b5f000000000000","result":5826,"accuracy":0.020187657,"title":"bei+Waldrode"}
{"id":3262006359,"url":"http://farm4.staticflickr.com/3476/3262006359_cfee2f9c5b.jpg","path":"aa6/af2/aa6af2d9f8d1e0b1b448fe2b96aa7cdd.jpg","date":"2009-02-07","year":2009,"month":2,"lon":9.992963,"lat":50.385567,"tags":"07.02.2009,bavaria,bayerische+bergwacht,bayern,bergwacht,bergwachtbereitschaft+bad+neustadt,bischofsheim,deutschland,drei-tannen-lift,germany,kreuzberg,lift,rh%C3%B6n,rh%C3%B6n-grabfeld,schi+fahren,schipiste,schlepplift,schnee,skilift,skipiste,unterfranken,winter,winterausbildung","S2CellId":"463f000000000000","result":2783,"accuracy":0.041596342,"title":"Winterausbildung+am+07.02.2009+%2892%29","description":"Ankunft+des+Akjas+bei+der+Talstation+des+Drei-Tannen-Lifts+auf+dem+Kreuzberg."}
{"id":402265027,"url":"http://farm1.staticflickr.com/148/402265027_291fc66807.jpg","path":"06c/1ab/06c1abdfe7314142fa62f85ff4d24.jpg","date":"2005-05-22","year":2005,"month":5,"lon":9.353656,"lat":50.225574,"tags":"bad,orb,salzsieden","S2CellId":"89e7400000000000","result":9386,"accuracy":0.019423297,"title":"Salzsieden+in+Bad+Orb","description":"Digital+camera"}
{"id":435352255,"url":"http://farm1.staticflickr.com/150/435352255_54cde94460.jpg","path":"d3a/08c/d3a08c39a98c90d33aa4792c0c166.jpg","date":"2007-03-26","year":2007,"month":3,"lon":9.168262,"lat":50.25582,"tags":"deutschland,germany,gr%C3%BCndau,gras,hesse,hessen,landscape,landschaft,natur,nature,sea,see,trees","S2CellId":"4790300000000000","result":3707,"accuracy":0.034326836,"title":"Breitenborn"}
{"id":4254351522,"url":"http://farm5.staticflickr.com/4047/4254351522_a6bb568e68.jpg","path":"25f/124/25f124c58e9ab68257a3c86c7727c317.jpg","date":"2010-01-06","year":2010,"month":1,"lon":9.17839,"lat":50.515938,"tags":"basaltmassiv,deutschland,geotag,germany,hessen,hoherodskopf,jorbasa,mittelhessen,osthessen,schildvulkan,sonne,sonnenuntergang,sun,sunraise,vogelsberg,volcano,vulkan,wetterau","S2CellId":"4691000000000000","result":2978,"accuracy":0.05106027,"title":"Winter+im+Vogelsberg+%28Hoherodskopf%29","description":"Januar+2010%0ABlick+auf+den+Hoherodskopf+%28764m+%C3%BC.+NN%29+%0A%0ADer+Vogelsberg+ist+ein+Mittelgebirge+in+Mittel-+bzw.+Osthessen.+Er+ist+der+einzige+Schildvulkan+in+Deutschland+und+zugleich+das+gr%C3%B6%C3%9Fte+Basaltmassiv+Europas.%0A+Der+Vogelsberg+ist+kein+Berg.+Er+ist+ein+Gebirge%2C+eines+der+deutschen+Mittelgebirge+und+der+Hoherodskopf+ist+einer+der+h%C3%B6chsten+Berge+in+diesem+Gebirge.%0ADer+Hoherodskopf+ist+ein+Vulkanschlot+des+hessischen+Schildvulkans+Vogelsberg."}
{"id":6022685812,"url":"http://farm7.staticflickr.com/6204/6022685812_a1ac194152.jpg","path":"b9c/e12/b9ce12aef3d777f33dced016aa421cb8.jpg","date":"2011-03-04","year":2011,"month":3,"lon":9.685158,"lat":50.754295,"tags":"friedhof,haunetal,j%C3%BCdischer,rhina","S2CellId":"4799d40000000000","result":3790,"accuracy":0.046654064}
{"id":189407750,"url":"http://farm1.staticflickr.com/72/189407750_f5641dca42.jpg","path":"d64/a8b/d64a8bfbadc8eb5aae4a9c071d539a4.jpg","date":"2006-07-10","year":2006,"month":7,"lon":9.150087,"lat":50.05947,"tags":"backlit,beeren,berries,currant,foveon,garden,garten,gecko,gegenlicht,germany,johannisbeere,purple,purple+gecko,red,red+currant,sd9,sigma,sigma+50%2F2.8+ex,sigma+sd9,x3f","S2CellId":"3468f00000000000","result":2167,"accuracy":0.019335764,"title":"Johannisbeeren","description":"Johannisbeeren+also+known+as+Red+Currant"}
{"id":2721808455,"url":"http://farm4.staticflickr.com/3171/2721808455_5b49023bd2.jpg","path":"ffd/513/ffd5134ccaca2525cce51c9603caac.jpg","date":"2008-07-27","year":2008,"month":7,"lon":9.913101,"lat":50.450836,"tags":"canon,g9","S2CellId":"47bdb00000000000","result":4101,"accuracy":0.032682553,"title":"100_6750"}
{"id":6825213679,"url":"http://farm8.staticflickr.com/7159/6825213679_65d257e341.jpg","path":"497/86c/49786cdcbe212a18e6fc7a4263fee1e.jpg","date":"2012-02-05","year":2012,"month":2,"lon":9.993922,"lat":50.386284,"tags":"2012,5.2.2012,bavaria,bayerische+bergwacht,bayern,bereitschaft+bad+neustadt,bergwacht,bischofheim+an+der+rh%C3%B6n,deu,deutschland,drk,februar,germany,kreuzberg,rettungsstelle+bischofsheim,rettungswagen,rh%C3%B6n-grabfeld,rtw,unterfranken,winter,winterdienst","S2CellId":"47a3400000000000","result":3877,"accuracy":0.048407536,"title":"Winterdienst+Kreuzberg+am+5.2.2012","description":"Hier+wurde+gerade+ein+Verletzter+an+den+Landrettungsdienst+%C3%BCbergeben%2C+der+weitere+Transport+erfolgt+mittels+RTW."}
{"id":2468153789,"url":"http://farm4.staticflickr.com/3244/2468153789_a74cf2ce6b.jpg","path":"6c7/ddb/6c7ddbd9cb8a136c3ac5d3edb5961b8.jpg","date":"2007-06-24","year":2007,"month":6,"lon":9.150087,"lat":50.05947,"tags":"branch,foveon,fruit,gecko,obst,pflaumen,plum,prunus+domestica,purple,purple+gecko,sd14,sigma,sigma+50%2F2.8+ex,x3f,zwei,zwetschgen","S2CellId":"6d318a3000000000","result":6816,"accuracy":0.005639839,"title":"Plums..","description":"I+liked+the+DOF+on+this+one+and+how+the+background+is...+%3A%29++Hopefully+you+will+like+it+too."}
{"id":423675437,"url":"http://farm1.staticflickr.com/171/423675437_1dc2f88f8e.jpg","path":"7c2/e9e/7c2e9e3b8e330343366b5d721c12390.jpg","date":"2007-03-16","year":2007,"month":3,"lon":9.153928,"lat":50.119946,"tags":"aussicht,deutschland,fernblick,freigericht,germany,hesse,hessen,landscape,landschaft,main-kinzig-kreis,view","S2CellId":"47be700000000000","result":4107,"accuracy":0.05914448,"title":"Fernblick+Neuses"}
{"id":2900839285,"url":"http://farm4.staticflickr.com/3072/2900839285_cc658f5ba3.jpg","path":"e15/61b/e1561b7b11cfe86a7281c14329833c4.jpg","date":"2008-09-26","year":2008,"month":9,"lon":9.938464,"lat":50.5027,"tags":"aviation,deu,deutschland,ffr,flieger-funk-runde,gersfeld,herbst,hessen,nikon+d70s,rh%C3%B6n,wasserkuppe","S2CellId":"470e400000000000","result":3186,"accuracy":0.052362945,"title":"2008_09_26-FFR+Wasserkuppe_DH7DJ_128"}
{"id":1410102962,"url":"http://farm2.staticflickr.com/1121/1410102962_9fbebf92c1.jpg","path":"be3/3cb/be33cbdc758371aefeb8da21935357a.jpg","date":"2007-09-19","year":2007,"month":9,"lon":9.11951,"lat":50.145447,"tags":"deutschland,freigericht,germany,hesse,hessen,landscape,landschaft,main-kinzig-kreis,natur,nature,somborn","S2CellId":"89e1c00000000000","result":9291,"accuracy":0.0658102,"title":"CIMG8744"}
{"id":419291458,"url":"http://farm1.staticflickr.com/123/419291458_f93a25614c.jpg","path":"39a/3c4/39a3c482ffecf67aaf50ec3367af147a.jpg","date":"2007-03-12","year":2007,"month":3,"lon":9.11951,"lat":50.145447,"tags":"deutschland,freigericht,germany,hasen,hesse,hessen,landscape,landschaft,rabbits,sonnenaufgang,sunrise","S2CellId":"47d9900000000000","result":4475,"accuracy":0.015955398,"title":"Somborner+Feld"}
{"id":467672087,"url":"http://farm1.staticflickr.com/193/467672087_e847111d2a.jpg","path":"d61/c70/d61c70f3a5fb34adfdc9689186d5b69.jpg","date":"2007-04-21","year":2007,"month":4,"lon":9.353656,"lat":50.225574,"tags":"bad+orb,deutschland,erholung,fr%C3%BChling,hesse,hessen,kur,landscape,main-kinzig-kreis,natur,nature,orbtal,spring","S2CellId":"4643000000000000","result":2806,"accuracy":0.031165227,"title":"Abendstimmung+bei+Bad+Orb"}
{"id":5901977165,"url":"http://farm7.staticflickr.com/6028/5901977165_d8fc620f40.jpg","path":"dbd/942/dbd942b622cbe37b0367330f5c2ad4a.jpg","date":"2011-07-03","year":2011,"month":7,"lon":9.656209,"lat":50.299866,"tags":"feuerwehr,reschue+challenge,rettung,technische+rettung,vfdu","S2CellId":"47df1c0000000000","result":4514,"accuracy":0.037665904,"title":"Ravensburg","description":"Standard+Pit"}
{"id":2746134296,"url":"http://farm4.staticflickr.com/3206/2746134296_5464b0a6fb.jpg","path":"387/eee/387eeed2e1399c568177301d1e9f7623.jpg","date":"2007-05-25","year":2007,"month":5,"lon":9.352111,"lat":50.226234,"tags":"bad+orb,deutschland,germany,hesse,hessen,landscape,landschaft,main-kinzig-kreis,natur,nature","S2CellId":"864e640000000000","result":7620,"accuracy":0.010281544,"title":"CIMG8046"}
{"id":406358807,"url":"http://farm1.staticflickr.com/157/406358807_efa3a9399c.jpg","path":"ca6/fd5/ca6fd55717af5e9e4c506e419a6c79a.jpg","date":"2005-07-23","year":2005,"month":7,"lon":9.115047,"lat":50.144897,"tags":"goldhamster,hamster,haustier,teddyhamster,tier","S2CellId":"8840840000000000","result":8379,"accuracy":0.027806789,"title":"Furby","description":"Digital+camera"}
{"id":2745772560,"url":"http://farm4.staticflickr.com/3085/2745772560_fab3f3722f.jpg","path":"912/75f/91275feabbca22271fa695468854a88.jpg","date":"2007-05-25","year":2007,"month":5,"lon":9.240875,"lat":50.241936,"tags":"deutschland,germany,hessen,sonnenuntergang,sunset","S2CellId":"4709400000000000","result":3131,"accuracy":0.020942606,"title":"CIMG8067"}
{"id":5452698179,"url":"http://farm6.staticflickr.com/5012/5452698179_1fd7696f36.jpg","path":"7be/31b/7be31bd2c95e4576d239e6e514f739b.jpg","date":"2010-06-01","year":2010,"month":6,"lon":9.015805,"lat":50.825653,"tags":"bkj,brauchtum,deutschland,fest,gesang,hessen,hessentag,hvt,mundart,musik,stadtallendorf,tanz,theater,trachten,trachtenland","S2CellId":"47bdb00000000000","result":4101,"accuracy":0.16273923,"title":"50.+Hessentag+2010+Stadtallendorf"}
{"id":404043053,"url":"http://farm1.staticflickr.com/162/404043053_bd2478d0a5.jpg","path":"3cf/8d6/3cf8d6d653a90503b92b61131be66e5.jpg","date":"2007-02-26","year":2007,"month":2,"lon":9.353656,"lat":50.225574,"tags":"bad+orb,deutschland,germany,gras,hesse,hessen,kur,kurstadt,landscape,natur,nature,orbtal,regeneration,spessart,trees,water","S2CellId":"89dc400000000000","result":9274,"accuracy":0.06790978,"title":"Orbtal"}
{"id":2367414418,"url":"http://farm3.staticflickr.com/2269/2367414418_f01927f914.jpg","path":"649/9e8/6499e8cc64acc254dd4b3e9f5dc5ec7.jpg","date":"2007-01-25","year":2007,"month":1,"lon":9.085049,"lat":50.158028,"tags":"cat,katze","S2CellId":"89d4d40000000000","result":9260,"accuracy":0.078842826,"title":"Queeny"}
{"id":6928692052,"url":"http://farm8.staticflickr.com/7238/6928692052_2b86f5b245.jpg","path":"e2e/c54/e2ec54345657de78c06aff6b41a29181.jpg","date":"2012-04-13","year":2012,"month":4,"lon":9.712981,"lat":50.266598,"tags":"autobahngeschichte,autobahnrelikt,bad+br%C3%BCckenau,gm%C3%BCnden,reichsautobahn,reichsautobahnstrecke,reichsautobahnstrecke+46,ruinenstrecke,rupboden,strecke+46,strecke+46+w%C3%BCrzburg+-+kirchheim,w%C3%BCrzburg","S2CellId":"4876f00000000000","result":5401,"accuracy":0.043467466,"title":"Strecke+46+Bad+Br%C3%BCckenau+-+W%C3%BCrzburg+April+2007_087"}
{"id":480198569,"url":"http://farm1.staticflickr.com/214/480198569_437df4ed96.jpg","path":"7c1/6c6/7c16c6af2d3646997fe05bac394f87ae.jpg","date":"2007-04-27","year":2007,"month":4,"lon":9.184741,"lat":50.153614,"tags":"deutschland,enten,feld,germany,ground,hessen,kaulquappen,landscape,meadow,natur,pond,see,tadpole,teich,wiese","S2CellId":"864e640000000000","result":7620,"accuracy":0.03349192,"title":"Kaulquappen"}
{"id":4927402820,"url":"http://farm5.staticflickr.com/4136/4927402820_862e4fceeb.jpg","path":"60f/b83/60fb83505b6c8f86a7f845b2b6a51533.jpg","date":"2010-08-25","year":2010,"month":8,"lon":9.256333,"lat":50.78099,"tags":"canon+canoscan+8800f,digikam,gimp,holga+120cfn,hybrid,imagemagick,kodak+farbwelt+400,lomography,xsane","S2CellId":"463a400000000000","result":2769,"accuracy":0.003195762,"title":"Street+lamp+at+night"}
{"id":2439325656,"url":"http://farm4.staticflickr.com/3191/2439325656_6ab5465c29.jpg","path":"108/ebb/108ebbcdc7fc8eda698ff2d75a49377.jpg","date":"2008-04-24","year":2008,"month":4,"lon":9.945513,"lat":50.498558,"tags":"au%C3%9Fenansicht,deutsches+segelflugmuseum,deutsches+segelflugmuseum+mit+modellflug,deutschland,el+planeador,el+velero,geb%C3%A4ude,germany,hallen,hessen,hessische+rh%C3%B6n,modelflugzeugmuseum,museum,panorama,planeur,rh%C3%B6n,segelflugmuseum,segelflugzeug,wasserkuppe","S2CellId":"6d318a3000000000","result":6816,"accuracy":0.015813066,"title":"Deutsches+Segelflugmuseum+Au%C3%9Fenansicht","description":"Dieses+Panorama+entstanden+aus+mehreren+Einzelaufnahmen+zeigt+die+Geb%C3%A4ude+des+Deutschen+Segelflugmuseums+auf+der+Wasserkuppe.+Am+linken+Bildrand+sind+die+neueren+Anteile+des+Museums+erkennbar.+Im+rechten+Bildteil+zeigt+sich+die+schon+l%C3%A4nger+existierende+Rundhalle+mit+dem+Eingang+ganz+rechts."}
{"id":6037161544,"url":"http://farm7.staticflickr.com/6189/6037161544_6071d12b15.jpg","path":"4bb/d4d/4bbd4d9f5f1aa704fae4237fdc5560.jpg","date":"2010-08-10","year":2010,"month":8,"lon":9.228129,"lat":50.304474,"tags":"k%C3%A4fer,ladybeetle,ladybug,makro,marienk%C3%A4fer","S2CellId":"80e9500000000000","result":7405,"accuracy":0.009060105,"title":"Marienk%C3%A4fer+-+ladybug+-++ladybeetle"}
{"id":12952341423,"url":"http://farm4.staticflickr.com/3682/12952341423_2f63ac438f.jpg","path":"77d/a54/77da54d1b3ee7aaae63c8bb07fd8c96b.jpg","date":"2013-08-11","year":2013,"month":8,"lon":9.708577,"lat":50.5085,"tags":"18.+jahrhundert,18th+century,reenactment,schloss+fasanerie","S2CellId":"47fb000000000000","result":4734,"accuracy":0.12674901,"title":"Zeitreise+ins+18.+Jahrhundert"}
{"id":404175638,"url":"http://farm1.staticflickr.com/155/404175638_34eb8f6aae.jpg","path":"957/c5a/957c5a61e176a83ab39be4bc57728fa4.jpg","date":"2007-02-26","year":2007,"month":2,"lon":9.353656,"lat":50.225574,"tags":"bad+orb,deutschland,germany,gras,hesse,hessen,kur,kurstadt,landscape,natur,nature,orbtal,regeneration,spessart,trees,water","S2CellId":"47b9500000000000","result":4066,"accuracy":0.07796922,"title":"Orbtal"}
{"id":435416305,"url":"http://farm1.staticflickr.com/159/435416305_8cf99ccf83.jpg","path":"866/0ae/8660ae5e4723d55980a5ccbe5122a523.jpg","date":"2007-03-26","year":2007,"month":3,"lon":9.168262,"lat":50.25582,"tags":"deutschland,germany,gr%C3%BCndau,gras,hesse,hessen,landscape,landschaft,natur,nature,sea,see,trees","S2CellId":"47f9000000000000","result":4733,"accuracy":0.025241503,"title":"Breitenborn"}
{"id":400368961,"url":"http://farm1.staticflickr.com/128/400368961_4c97ebf00c.jpg","path":"16d/c29/16dc2991078b360768bcfa7f157994c.jpg","date":"2007-02-23","year":2007,"month":2,"lon":9.101142,"lat":50.18657,"tags":"abendrot,b%C3%A4ume,baum,germany,gr%C3%BCndau,gras,hasselroth,hesse,landscape,landschaft,natur,nature,niedermittlau,rothenbergen,sonne,sonnenuntergang,sun,sunset,trees,water","S2CellId":"8830d00000000000","result":8284,"accuracy":0.0070351777,"title":"Sonnenuntergang+am+23.02.2007"}
{"id":4926815125,"url":"http://farm5.staticflickr.com/4081/4926815125_46d2201790.jpg","path":"465/438/465438dc78be0e82533ac2368f04014.jpg","date":"2010-08-25","year":2010,"month":8,"lon":9.256333,"lat":50.78099,"tags":"canon+canoscan+8800f,diana+f%2B,digikam,gimp,hybrid,imagemagick,kodak+farbwelt+400,lomography,xsane","S2CellId":"47a9400000000000","result":3952,"accuracy":0.014845231,"title":"Drying+blankets"}
{"id":2765720402,"url":"http://farm4.staticflickr.com/3229/2765720402_8c5b0f8803.jpg","path":"736/94c/73694cf0a78a944bfa8e69b63236cf79.jpg","date":"2008-08-09","year":2008,"month":8,"lon":9.728393,"lat":50.522976,"tags":"alpha,alpha300,fulda,hdr,pilgerzell,sony","S2CellId":"4655000000000000","result":2880,"accuracy":0.05685405,"title":"Vista+da+Pilgerzell","description":"Panormama+in+HDR+dalla+finestra+dell%27albergo+a+Pilgerzell"}
{"id":2901700088,"url":"http://farm4.staticflickr.com/3269/2901700088_ef66789466.jpg","path":"c8e/5c4/c8e5c47f2d691f3b94982bf514e98af.jpg","date":"2008-09-26","year":2008,"month":9,"lon":9.948205,"lat":50.49799,"tags":"aviation,deu,deutschland,ffr,flieger-funk-runde,gersfeld,herbst,hessen,nikon+d70s,rh%C3%B6n,wasserkuppe","S2CellId":"4cb9c00000000000","result":5872,"accuracy":0.5116233,"title":"2008_09_26-FFR+Wasserkuppe_DH7DJ_252"}
{"id":3830769321,"url":"http://farm3.staticflickr.com/2455/3830769321_71bd301eb3.jpg","path":"022/27d/02227d4aee83e97e86befcf5286c.jpg","date":"2009-08-11","year":2009,"month":8,"lon":9.245638,"lat":50.907715,"tags":"glider,segelflugzeug,ziegenhain","S2CellId":"48741c0000000000","result":5103,"accuracy":0.3317499,"title":"P1480071"}
{"id":435391191,"url":"http://farm1.staticflickr.com/155/435391191_d7f7d91fa4.jpg","path":"abb/699/abb699fc61eea7b972477fe32865a95.jpg","date":"2007-03-26","year":2007,"month":3,"lon":9.168262,"lat":50.25582,"tags":"deutschland,germany,gr%C3%BCndau,gras,hesse,hessen,landscape,landschaft,natur,nature,sea,see,trees","S2CellId":"47b9500000000000","result":4066,"accuracy":0.059203543,"title":"Breitenborn"}
{"id":8592635495,"url":"http://farm9.staticflickr.com/8104/8592635495_d1759deeea.jpg","path":"987/2b2/9872b2fcecc8285d9749fcef0b5118c.jpg","date":"2013-03-26","year":2013,"month":3,"lon":9.352798,"lat":50.219204,"tags":"bath,deutschland,garden,germany,grounds,health+resort,hesse,hessen,hessi,kurstadt,main-kinzig-kreis,place,pleasure+ground,spa,spa+town","S2CellId":"463a400000000000","result":2769,"accuracy":0.036153384,"title":"Im+Kurpark+Bad+Orb+-+In+the+spa+gardens+from+Bad+Orb"}
{"id":474885870,"url":"http://farm1.staticflickr.com/213/474885870_6ca0a7346b.jpg","path":"181/639/181639df9fe72e6549bfe5fd16b6209e.jpg","date":"2007-04-27","year":2007,"month":4,"lon":9.184741,"lat":50.153614,"tags":"cows,deutschland,ducks,enten,freigericht,germany,gondelteich,hesse,hessen,k%C3%BChe,landscape,landschaft,natur,nature","S2CellId":"463f000000000000","result":2783,"accuracy":0.06160274,"title":"Wald+bei+Horbach"}
{"id":6036620495,"url":"http://farm7.staticflickr.com/6124/6036620495_cf99967f66.jpg","path":"b74/69a/b7469ac75b53161ca47cee486c83ff.jpg","date":"2011-08-10","year":2011,"month":8,"lon":9.228129,"lat":50.304474,"tags":"deutschland,feld,flur,garmany,hesse,hessen,himmel,lichtstimmung,main-kinzig-kreis,w%C3%A4chtersbach,waldensberg,wolken","S2CellId":"4724000000000000","result":3252,"accuracy":0.012768684,"title":"Im+Feld+-++in+the+field"}
{"id":4497620077,"url":"http://farm5.staticflickr.com/4062/4497620077_51ea22a744.jpg","path":"325/3e0/3253e02527e784a7761353b7cab6a13.jpg","date":"2010-04-03","year":2010,"month":4,"lon":9.320955,"lat":50.546566,"tags":"adult,erwachsene,erwachsener,games,grown-up,halbnackt,half+naked,intime,it,jenseits+der+siegel,jenseits+der+siegel+2010,kampf,larp,live+action+role+play,m%C3%A4nner,m%C5%A1nner,man,mann,men,mitten+im+matsch,mythodea,personen,persons,role+playing+games,rollenspiele,spiele,steinbr%C3%BCck,steinbr%C3%BFck,steinbrueck,t%C3%A4tigkeiten,t%C5%A1tigkeiten","S2CellId":"132f100000000000","result":1072,"accuracy":0.24021685,"title":"Die+harten+wagen+sich+aus+ihrem+Bau+um+zu+kaempfen"}
{"id":414495407,"url":"http://farm1.staticflickr.com/122/414495407_3ae84bad9d.jpg","path":"2f9/2c9/2f92c99b43d6cfb67728767625c2624.jpg","date":"2007-03-08","year":2007,"month":3,"lon":9.03059,"lat":50.16843,"tags":"deutschland,hessen,kinzigsee,langenselbold,main-kinzig-kreis,nature,sea,sonnenaufgang,sunrise,water","S2CellId":"47d9fc0000000000","result":4490,"accuracy":0.020577936,"title":"Kinzigsee"}
{"id":3625000078,"url":"http://farm4.staticflickr.com/3323/3625000078_c4208331c8.jpg","path":"316/ca6/316ca66b4f984433f31e5616b9a8df97.jpg","date":"2009-06-14","year":2009,"month":6,"lon":9.063935,"lat":50.177834,"tags":"2009,feuerwerk,flugtag,hessentag,langenselbold,nightglow","S2CellId":"809f000000000000","result":7130,"accuracy":0.06416712,"title":"Hessentag_Flugtag_NightGlow1"}
{"id":435402238,"url":"http://farm1.staticflickr.com/182/435402238_d4ae0cec10.jpg","path":"3a5/9a4/3a59a49c093c9833222db7960a757ba.jpg","date":"2007-03-26","year":2007,"month":3,"lon":9.168262,"lat":50.25582,"tags":"deutschland,germany,gr%C3%BCndau,gras,hesse,hessen,landscape,landschaft,natur,nature,sea,see,trees","S2CellId":"4776f00000000000","result":3424,"accuracy":0.01361787,"title":"Breitenborn"}
{"id":439267468,"url":"http://farm1.staticflickr.com/186/439267468_1fefe17911.jpg","path":"ef5/38b/ef538b60cd32c3214ada4d45d7b99a.jpg","date":"2007-03-28","year":2007,"month":3,"lon":9.190063,"lat":50.203056,"tags":"abendstimmung,ausblick,deutschland,evening,fernblick,gelnhausen,germany,hesse,hessen,himmel,landschaft","S2CellId":"4797c40000000000","result":3769,"accuracy":0.043093607,"title":"Blick+%C3%BCber+Gelnhausen","description":"Digital+camera"}
{"id":2557460573,"url":"http://farm4.staticflickr.com/3094/2557460573_b074185cae.jpg","path":"46e/476/46e4768dc22bdbcc9934edf98fb7397.jpg","date":"2008-06-02","year":2008,"month":6,"lon":9.97753,"lat":50.46219,"tags":"bavaria,bayern,bl%C3%BCte,blossom,blumen,blumenwiese,butterblumen,deutschland,fleur,flower,germany,la+flor,rh%C3%B6n,unterfranken,wanderung,wiese,wiesenkn%C3%B6terich","S2CellId":"5496400000000000","result":6277,"accuracy":0.014112196,"title":"Holzberghof+-+Rotes+Moor+%2845%29","description":"Blumen+am+Wegrand."}
{"id":404042286,"url":"http://farm1.staticflickr.com/129/404042286_acf6dcc8a7.jpg","path":"ee7/27f/ee727f46b44465a65979fb76e2c3da6.jpg","date":"2007-02-26","year":2007,"month":2,"lon":9.353656,"lat":50.225574,"tags":"bad+orb,deutschland,germany,gras,hesse,hessen,kur,kurstadt,landscape,natur,nature,orbtal,regeneration,spessart,trees,water","S2CellId":"466f000000000000","result":2947,"accuracy":0.03800563,"title":"Orbtal"}
{"id":9539203853,"url":"http://farm6.staticflickr.com/5545/9539203853_2546c23298.jpg","path":"e1c/619/e1c61943949c829db87c392b6275a6ef.jpg","date":"2013-08-16","year":2013,"month":8,"lon":9.026634,"lat":50.179333,"tags":"2.platz,brandschutzwoche,fest,feuerwehren,gaudispiele,spa%C3%9Fwettbewerb,vereine","S2CellId":"47c0700000000000","result":4138,"accuracy":0.019193389,"title":"16.08.2013+Gaudispiele+in+Langenselbold"}
{"id":8656251472,"url":"http://farm9.staticflickr.com/8103/8656251472_7d4abbc257.jpg","path":"41a/67a/41a67a6e1ce3d4849a1b229b81a722.jpg","date":"2009-08-29","year":2009,"month":8,"lon":9.288403,"lat":50.74243,"tags":"30er+jahre,a5,alsfeld,am,autobahn,autobahn+5,autobahnbetriebsdienst,autobahnbilder,autobahngeschichte,autobahnmeisterei,autobahnmeisterei+alsfeld,germany,reichsautobahn,reichsautobahnstrecke,reichsautobahnstrecke+29,stra%C3%9Fenmeisterei,strecke+29,strecke+29+kirchheim+-+gie%C3%9Fen","S2CellId":"47bdb00000000000","result":4101,"accuracy":0.07489898,"title":"A5+AM+Alsfeld+August+2009_018"}
{"id":423680482,"url":"http://farm1.staticflickr.com/160/423680482_d7817cb43b.jpg","path":"402/3ca/4023cab6ddd0b47d873d90e93f2ee8ac.jpg","date":"2007-03-16","year":2007,"month":3,"lon":9.153928,"lat":50.119946,"tags":"aussicht,deutschland,fernblick,freigericht,germany,hesse,hessen,landscape,landschaft,main-kinzig-kreis,view","S2CellId":"47bc400000000000","result":4079,"accuracy":0.0714881,"title":"Fernblick+Neuses"}
{"id":487254861,"url":"http://farm1.staticflickr.com/224/487254861_f9b988eac4.jpg","path":"ae2/56c/ae256c22f52de18c3ce2d21d1819.jpg","date":"2007-05-05","year":2007,"month":5,"lon":9.184741,"lat":50.153614,"tags":"deutschland,duck,ente,freigericht,germany,hesse,hessen,landscape,landschaft,natur,pond,sonne,sun,teich","S2CellId":"8085790000000000","result":6916,"accuracy":0.024278605,"title":"bei+Waldrode"}
{"id":2596403728,"url":"http://farm4.staticflickr.com/3161/2596403728_f7cb4f5f22.jpg","path":"8ca/9d6/8ca9d6f48055b1f2b6b59bc2a58b17.jpg","date":"2008-06-20","year":2008,"month":6,"lon":9.11273,"lat":50.29071,"tags":"b%C3%BCdingen,neup%C3%A4rtl","S2CellId":"47e6734000000000","result":4672,"accuracy":0.0035490145,"title":"Joseph+Neup%C3%A4rtl+fotoalbum"}
{"id":12992318983,"url":"http://farm4.staticflickr.com/3086/12992318983_37cd18b0f7.jpg","path":"7d8/6fa/7d86fa791e37b163756a722dfa5615.jpg","date":"2014-03-06","year":2014,"month":3,"lon":9.026384,"lat":50.32497,"tags":"burning+sunset,deutschland,geotag,germany,gl%C3%BChende+sonne,hessen,jorbasa,sonne,sonnenuntergang,sun,sunset,wetterau","S2CellId":"47c0500000000000","result":4137,"accuracy":0.012990374,"title":"gl%C3%BChende+Sonne+-+burning+sunset+%281%29","description":"M%C3%A4rz+2014%0AStockheim%2FWetterau%0A%0ASonnenuntergang+in+der+Wetterau+-+sunset+in+a+german+region"}
{"id":11801613904,"url":"http://farm3.staticflickr.com/2846/11801613904_eb20d1b438.jpg","path":"2c4/537/2c45378625feb0bae8ea451a867eb49.jpg","date":"2013-04-27","year":2013,"month":4,"lon":9.686388,"lat":50.06222,"tags":"%403811015,2013-04-27,andreas+witte,bayern,de,deutschland,gem%C3%BCnden,landesparteitag,lptby+2013.2,piratenpartei+bayern","S2CellId":"88e77e4000000000","result":8673,"accuracy":0.10408903,"title":"LPTBY+2013.2","description":"Lptby+2013.2"}
{"id":6022570050,"url":"http://farm7.staticflickr.com/6183/6022570050_0d6d5e0d99.jpg","path":"b34/bb8/b34bb88e79faa42448ae4629ec215b3.jpg","date":"2011-03-04","year":2011,"month":3,"lon":9.683433,"lat":50.753044,"tags":"friedhof,haunetal,j%C3%BCdischer,rhina","S2CellId":"8837000000000000","result":8319,"accuracy":0.020716976}
{"id":447636597,"url":"http://farm1.staticflickr.com/207/447636597_6927ffcf12.jpg","path":"b5c/166/b5c166588ecac59b13cdab5e6297ffbc.jpg","date":"2007-04-04","year":2007,"month":4,"lon":9.027328,"lat":50.151993,"tags":"b%C3%A4ume,baum,deutschland,feld,germany,hessen,natur,nature+reserve,rodenbach,see,teich,wasser,wiese","S2CellId":"47c7ac0000000000","result":4377,"accuracy":0.012270208,"title":"bei+Rodenbach","description":"Digital+camera"}
{"id":435402586,"url":"http://farm1.staticflickr.com/182/435402586_9121592d04.jpg","path":"136/530/136530bd66c35c86547fc3d84085b9.jpg","date":"2007-03-26","year":2007,"month":3,"lon":9.168262,"lat":50.25582,"tags":"deutschland,germany,gr%C3%BCndau,gras,hesse,hessen,landscape,landschaft,natur,nature,sea,see,trees","S2CellId":"4799900000000000","result":3777,"accuracy":0.09742778,"title":"Breitenborn"}
{"id":513951190,"url":"http://farm1.staticflickr.com/215/513951190_fca2471656.jpg","path":"a7d/bfc/a7dbfc8311ec2bda32988c5d62a217.jpg","date":"2007-05-19","year":2007,"month":5,"lon":9.784011,"lat":50.211952,"tags":"guitar,man,pfadfinder,region,scouting,sunglasses,tent,vcp,vcp+region+main-kinzig,w%C3%A4chtersbach","S2CellId":"87b21c0000000000","result":7934,"accuracy":0.06734016,"title":"DSC_1402"}
{"id":513871736,"url":"http://farm1.staticflickr.com/229/513871736_d9f2e5c7ee.jpg","path":"d55/594/d555941d19464a14b43c884fdc7ef4.jpg","date":"2007-05-17","year":2007,"month":5,"lon":9.784011,"lat":50.211952,"tags":"pfadfinder,region,scouting,tents,vcp,vcp+region+main-kinzig,w%C3%A4chtersbach","S2CellId":"8859900000000000","result":8435,"accuracy":0.15246664,"title":"DSC_0964"}
