{"id":2812742423,"url":"http://farm3.staticflickr.com/2325/2812742423_6df9105185.jpg","path":"4fe/da7/4feda7d8f468ebe0e16ee0e9d7eda313.jpg","date":"2008-08-06","year":2008,"month":8,"lon":-65.03357,"lat":-42.773792,"tags":"argentina,clouds,patagonia,puerto+madryn,seashore,sky,sun","S2CellId":"88fd000000000000","result":8754,"accuracy":0.013095857,"title":"Albachiara","description":"Puerto+Madryn+-+Argentina%0A%0A%3Ca+href%3D%22http%3A%2F%2Fbighugelabs.com%2Fflickr%2Fonblack.php%3Fid%3D2812742423%26size%3Dlarge%22%3EView+Large+On+Black%3C%2Fa%3E"}
{"id":310324508,"url":"http://farm1.staticflickr.com/112/310324508_4068274ed7.jpg","path":"57e/d82/57ed82fe8d9c3725d995ee2fde3ac67.jpg","date":"2006-11-25","year":2006,"month":11,"lon":-64.52133,"lat":-42.627644,"tags":"argentina,baleen+whale,biedma,chubut,patagonia,peninsula,puerto+madryn,southern+right+whale,valdes,whale","S2CellId":"2bfc000000000000","result":1527,"accuracy":0.17085595,"title":"Puerto+Madryn+%23017+%28DSCF4465%29","description":"Southern+right+whale+as+seen+from+the+ship"}
{"id":421564031,"url":"http://farm1.staticflickr.com/124/421564031_3e10d8a670.jpg","path":"38a/82e/38a82e1b6a9aafa289f9b20daf1c0a2.jpg","date":"2007-03-08","year":2007,"month":3,"lon":-63.615646,"lat":-42.507286,"tags":"argentina,peninsula+vald%C3%A9s,puerto+madryn,south+america","S2CellId":"9aab000000000000","result":9926,"accuracy":0.013517053,"title":"DSCN1086"}
{"id":6297791051,"url":"http://farm7.staticflickr.com/6218/6297791051_23f463829f.jpg","path":"373/968/373968678255f199aeb775176de883b.jpg","date":"2010-03-28","year":2010,"month":3,"lon":-63.631218,"lat":-42.756195,"tags":"argentina,chubut,punta+delgada","S2CellId":"4c90000000000000","result":5830,"accuracy":0.023208743,"title":"Elefantes+marinos+-+17"}
{"id":12819730223,"url":"http://farm3.staticflickr.com/2871/12819730223_4c5b6f9bf6.jpg","path":"23a/c19/23ac191728ae52e84ff62103a6f220.jpg","date":"2013-03-20","year":2013,"month":3,"lon":-65.21854,"lat":-44.048267,"tags":"%C3%B1andu,animal,animals,argentina,chubut,fauna,natural+reserve,nature,patagonia,punta+tombo,reserva+ecologica,rhea,wildlife","S2CellId":"88d0a631cabb5071","result":8563,"accuracy":0.27732357,"title":"%C3%91and%C3%BA+en+Punta+Tombo+1","description":"Tomada+en+Punta+Tombo%2C+Chubut%2C+Argentina%0A%0A%0AIf+you+want%2C+you+can+visit+my+Tumblr%3A+%3Ca+href%3D%22http%3A%2F%2Fmsreddyph.tumblr.com%2F%22+rel%3D%22nofollow%22%3Emsreddyph.tumblr.com%2F%3C%2Fa%3E+where+not+only+I+upload+my+own+photographs+but+also+pick+the+ones+I+really+like+from+other+photographers."}
{"id":7865435834,"url":"http://farm8.staticflickr.com/7119/7865435834_3ef65bb260.jpg","path":"e15/462/e1546219e151fcf90c3b3289a83adce.jpg","date":"2012-02-03","year":2012,"month":2,"lon":-65.22508,"lat":-44.04298,"tags":"argentina,colony,magellanic+penguins,nature,penguins,punta+tombo,spheniscus+magellanicus","S2CellId":"60188c3000000000","result":6489,"accuracy":0.039753575,"title":"Happy+Feet","description":"It%27s+so+fluffy+i+could+die%21"}
{"id":8420847911,"url":"http://farm9.staticflickr.com/8096/8420847911_cd9f1f1577.jpg","path":"20b/f91/20bf919d9f5c5fa8e21d8ee3e4f808b.jpg","date":"2012-11-07","year":2012,"month":11,"lon":-64.28908,"lat":-42.57028,"tags":"argentina,ballenas,pen%C3%ADnsula+vald%C3%A9s,puerto+pir%C3%A1mides","S2CellId":"4b10000000000000","result":5820,"accuracy":0.02524945,"title":"Cola+de+ballena"}
{"id":3100567312,"url":"http://farm4.staticflickr.com/3001/3100567312_9cef529a9c.jpg","path":"75e/8ad/75e8adbca818c897f1485a339cfd22b.jpg","date":"2008-12-03","year":2008,"month":12,"lon":-63.497543,"lat":-42.4607,"tags":"argentina,puertomadryn,rightwhale,whale","S2CellId":"bf00000000000000","result":9968,"accuracy":0.42814568,"title":"Right+Whale"}
{"id":422162009,"url":"http://farm1.staticflickr.com/128/422162009_c30d3a37d1.jpg","path":"505/d12/505d12fe71b18d8ed3ee182c42608ae6.jpg","date":"2007-03-08","year":2007,"month":3,"lon":-63.897858,"lat":-42.834686,"tags":"argentina,peninsula+vald%C3%A9s,puerto+madryn,south+america","S2CellId":"48cf000000000000","result":5786,"accuracy":0.20750104,"title":"DSCN1096"}
{"id":5066721107,"url":"http://farm5.staticflickr.com/4111/5066721107_381f3a2940.jpg","path":"768/bee/768bee5747401c6d924ed3b43b8ca48.jpg","date":"2010-01-08","year":2010,"month":1,"lon":-65.03254,"lat":-42.805225,"tags":"day+trips,holidays,nature+reserve,penguin,puerto+madryn","S2CellId":"47d6400000000000","result":4406,"accuracy":0.024665922,"title":"Puerto+Madryn"}
{"id":8421672130,"url":"http://farm9.staticflickr.com/8466/8421672130_ef0a6af1be.jpg","path":"5dc/848/5dc84833abfc5d55203827ae1fa30d3.jpg","date":"2012-11-07","year":2012,"month":11,"lon":-64.28908,"lat":-42.57028,"tags":"argentina,barcos,puerto+pir%C3%A1mides","S2CellId":"48d5000000000000","result":5789,"accuracy":0.07462622,"title":"Avistando"}
{"id":8442330368,"url":"http://farm9.staticflickr.com/8469/8442330368_faf9d0ef84.jpg","path":"8bc/3ee/8bc3eedb20c5ae78232c6cd4f9e8ace0.jpg","date":"2012-11-09","year":2012,"month":11,"lon":-64.28908,"lat":-42.57028,"tags":"animales,argentina,naturaleza,pen%C3%ADnsula+vald%C3%A9s,puerto+pir%C3%A1mides,tar%C3%A1ntula","S2CellId":"4cb8b00000000000","result":5868,"accuracy":0.03864879,"title":"Tara%CC%81ntula"}
{"id":304824340,"url":"http://farm1.staticflickr.com/122/304824340_5d09e275d2.jpg","path":"ae5/bd7/ae5bd75fece348654a7c24594fc0b88b.jpg","date":"2006-11-15","year":2006,"month":11,"lon":-65.21604,"lat":-44.045033,"tags":"argentina,patagonia,peninsula+valdes,ping%C3%BCino","S2CellId":"4873840000000000","result":5084,"accuracy":0.062421355,"title":"PB151811","description":"Punta+Tombo"}
{"id":5258453267,"url":"http://farm6.staticflickr.com/5289/5258453267_a7533c6be7.jpg","path":"5f6/18f/5f618f3fc7a957aebb1536bbd1c6b57.jpg","date":"2010-11-23","year":2010,"month":11,"lon":-65.462036,"lat":-43.496765,"tags":"argentina","S2CellId":"a82b000000000000","result":9932,"accuracy":0.06814438,"title":"acquerelli"}
{"id":2085312164,"url":"http://farm3.staticflickr.com/2125/2085312164_14e99013a1.jpg","path":"fe8/ab1/fe8ab13371a195311a6d7c315d7efc0.jpg","date":"2007-11-01","year":2007,"month":11,"lon":-65.22274,"lat":-44.047375,"tags":"ping%C3%BCinos,pululando+por+patagonia","S2CellId":"9aab000000000000","result":9926,"accuracy":0.14539358,"title":"Punta+Tombo"}
{"id":7005217323,"url":"http://farm8.staticflickr.com/7064/7005217323_aa75892aa5.jpg","path":"5e3/9de/5e39de5dcac24a7648f3ea2a3ff.jpg","date":"2011-12-12","year":2011,"month":12,"lon":-63.888245,"lat":-42.53082,"tags":"argentina,argentini%C3%AB,argentini%E2%80%98,argentinie,peninsula,puerto+madryn,south+america,valdez,valdez+peninsula,walvis,walvissen,whale,whales,zuid+amerika","S2CellId":"9aab000000000000","result":9926,"accuracy":0.058773585,"title":"Valdez+Peninsula"}
{"id":2913727662,"url":"http://farm4.staticflickr.com/3296/2913727662_09a31368fb.jpg","path":"6b5/8df/6b58dfc7d9764da299bc83c9ae223.jpg","date":"2006-07-02","year":2006,"month":7,"lon":-63.63547,"lat":-42.765038,"tags":"argentina,atlantic,beach,chubut,colony,delgada,elephants,golfo,gulf,nacional,national,new,nuevo,ocean,park,parque,patagonia,peninsula,punta,sea,seal,valdes","S2CellId":"bf00000000000000","result":9968,"accuracy":0.21839814,"title":"So+cute","description":"%3Cem%3EPunta+Delgada%2C+Parque+Nacional+Pen%C3%ADnsula+de+Vald%C3%A9s%2C+Argentina%3C%2Fem%3E"}
{"id":3332316780,"url":"http://farm4.staticflickr.com/3318/3332316780_8fedc92eaa.jpg","path":"f35/eff/f35effa87918a5cb2d3cab35ac1b06d.jpg","date":"2009-03-05","year":2009,"month":3,"lon":-63.757668,"lat":-42.078503,"tags":"argentinien,tiere,valdes","S2CellId":"4875851000000000","result":5148,"accuracy":0.028076038,"title":"Auf+Wanderschaft"}
{"id":663070270,"url":"http://farm2.staticflickr.com/1166/663070270_fb2b5b7056.jpg","path":"968/da8/968da81ccc6b532ac78baa5be469795.jpg","date":"2007-06-13","year":2007,"month":6,"lon":-65.04593,"lat":-42.76365,"tags":"2007,argentina,ocean,patagonia,puerto+madryn,right+whale,sea,south+america,water,whale","S2CellId":"2bfc000000000000","result":1527,"accuracy":0.18578824,"title":"Whale"}
{"id":256433134,"url":"http://farm1.staticflickr.com/84/256433134_dae2e006e3.jpg","path":"0cf/6d6/0cf6d6c1f34bc6e27129f1d1e4.jpg","date":"2004-03-30","year":2004,"month":3,"lon":-64.96018,"lat":-42.78822,"tags":"argentina","S2CellId":"86fc000000000000","result":7713,"accuracy":0.02180123,"title":"Patagonia"}
{"id":8268439418,"url":"http://farm9.staticflickr.com/8069/8268439418_67bde567b7.jpg","path":"d89/85f/d8985ff21eea6a9b0bc57ac8a13478.jpg","date":"2012-12-02","year":2012,"month":12,"lon":-65.19544,"lat":-44.03812,"tags":"madryn,patagonia,pingouin,pinguin,puerto,punta,tombo","S2CellId":"48651c0000000000","result":4873,"accuracy":0.015411311,"title":"P1060684"}
{"id":394605584,"url":"http://farm1.staticflickr.com/145/394605584_319655cc96.jpg","path":"ecd/38f/ecd38f10a871feb67df8df15be599ba.jpg","date":"2006-11-30","year":2006,"month":11,"lon":-64.434814,"lat":-42.661232,"tags":"argentina,patagonia,puerto+madryn,whale+watching","S2CellId":"548f7c0000000000","result":6173,"accuracy":0.040933516,"title":"IMG_6512"}
{"id":5515433386,"url":"http://farm6.staticflickr.com/5298/5515433386_ba047c8a10.jpg","path":"8e2/e7f/8e2e7f2a87c3a3fda47877f25ddede58.jpg","date":"2010-11-11","year":2010,"month":11,"lon":-63.636246,"lat":-42.76327,"tags":"america+do+sul,arg,argentina,beach,colonia,fauna,magalh%C3%A3es,magallanes,magellanic,patagonia,penguin,peninsula+valdez,pinguim,pinguino,playa,praia,puerto+madryn,south+america,stock","S2CellId":"1dcc300000000000","result":1448,"accuracy":0.17892756,"title":"stk_000286","description":"pinguim+caminha+em+santu%C3%A1rio+ecol%C3%B3gico+da+Pen%C3%ADnsula+Valdez%2C+Puerto+Madryn%2C+Patagonia+Argentina.+Data%3A+novembro+de+2010.%0A%0ATodas+as+imagens+da+galeria+s%C3%A3o+para+uso+comercial+com+direitos+controlados.%0APor+favor+entre+em+contato+atrav%C3%A9s+de+mensagem+flickr+ou+zebarretta_stock%40yahoo.com.br+para+solicitar+a+foto.%0A%0AAll+images+in+the+gallery+are+for+comercial+use+rights-managed.%0APlease+contact+via+flickr+mail+or+zebarretta_stock%40yahoo.com.br+to+request+the+photo.%0A%0ATodas+las+imagenes+de+la+galeria+son+para+uso+comercial+con+derechos+controlados.%0AP%C3%B3ngase+en+contacto+por+correo+flickr+o+zebarretta_stock%40yahoo.com.br+para+solicitar+la+foto."}
{"id":6298292162,"url":"http://farm7.staticflickr.com/6115/6298292162_df2b513dc1.jpg","path":"178/aab/178aab4e418101a97170493acc949a.jpg","date":"2010-03-28","year":2010,"month":3,"lon":-64.31047,"lat":-42.58241,"tags":"argentina,chubut,puerto+pira%CC%81mides,puerto+piramides","S2CellId":"bc50000000000000","result":9959,"accuracy":0.21875887,"title":"Puerto+Pira%CC%81mides+-+51"}
{"id":474450982,"url":"http://farm1.staticflickr.com/227/474450982_4a4259f2fc.jpg","path":"2d5/416/2d54164769fdd48c20d2b24c668def63.jpg","date":"2007-04-27","year":2007,"month":4,"lon":-64.627075,"lat":-42.623856,"tags":"argentina,ballenas,costa,estepa,mar,patagonia,peninsula+valdes,pinguinos","S2CellId":"bf00000000000000","result":9968,"accuracy":0.7662503,"title":"avistaje-ballenas-7.jpg"}
{"id":2912981183,"url":"http://farm4.staticflickr.com/3057/2912981183_f816a30cec.jpg","path":"a08/062/a080625f91aa6ab87b11ef5edc13427f.jpg","date":"2004-09-19","year":2004,"month":9,"lon":-65.22703,"lat":-44.04466,"tags":"argentina,le%C3%A3o+marinho,patagonia,penguim,penguinos,pinguim,pinguins,punta+tombo,sea+lion","S2CellId":"808f940000000000","result":7049,"accuracy":0.020714086,"title":"Hey%2C+where+are+you+going%3F"}
{"id":310335940,"url":"http://farm1.staticflickr.com/112/310335940_b69b89e85f.jpg","path":"998/5ce/9985ce373991170d928ef91796c4e96.jpg","date":"2006-11-27","year":2006,"month":11,"lon":-65.33432,"lat":-43.788445,"tags":"argentina,biedma,chubut,patagonia,penguin,peninsula,puerto+madryn,valdes","S2CellId":"bf00000000000000","result":9968,"accuracy":0.15832978,"title":"Puerto+Madryn+%23063+%28DSCF4655%29","description":"Penguins+in+Punta+Tombo%27s+natural+reserve"}
{"id":2085295870,"url":"http://farm3.staticflickr.com/2072/2085295870_cf64f86677.jpg","path":"9b1/97f/9b197f602c184be18dd4a5dfcb7fd.jpg","date":"2007-11-01","year":2007,"month":11,"lon":-65.22274,"lat":-44.047375,"tags":"ping%C3%BCinos,pululando+por+patagonia","S2CellId":"1950000000000000","result":1435,"accuracy":0.067318216,"title":"Ping%C3%BCinos+en+Punta+Tombo"}
{"id":6297747981,"url":"http://farm7.staticflickr.com/6092/6297747981_81fe1f71ba.jpg","path":"585/fcf/585fcf725e13c01b345319bdb45f1e8e.jpg","date":"2010-03-28","year":2010,"month":3,"lon":-64.49917,"lat":-42.465,"tags":"argentina,puerto+pira%CC%81mides","S2CellId":"89c2588f00000000","result":8969,"accuracy":0.505915,"title":"Esqueleto+ballena+franca+austral+-+06","description":"Centro+de+visitantes%2C+Istmo+Carlos+Ameghino"}
{"id":8441142061,"url":"http://farm9.staticflickr.com/8081/8441142061_2c64ccf153.jpg","path":"378/731/378731cad520f585131f60a793de6fd8.jpg","date":"2012-11-09","year":2012,"month":11,"lon":-64.28908,"lat":-42.57028,"tags":"animales,argentina,aves,caleta+vald%C3%A9s,naturaleza,pen%C3%ADnsula+vald%C3%A9s,ping%C3%BCinos,ping%C3%BCinos+de+magallanes","S2CellId":"bf00000000000000","result":9968,"accuracy":0.21755591,"title":"Pingu%CC%88inos+de+Magallanes"}
{"id":7865424052,"url":"http://farm8.staticflickr.com/7271/7865424052_37bd0c4045.jpg","path":"157/648/157648b63536972652fce5cf3a55152.jpg","date":"2012-02-03","year":2012,"month":2,"lon":-65.22457,"lat":-44.05333,"tags":"argentina,colony,magellanic+penguins,nature,penguins,punta+tombo,spheniscus+magellanicus","S2CellId":"12cddac000000000","result":887,"accuracy":0.21839352,"title":"Punta+Tombo","description":"Van+de+woeste+bergen+en+meren%2C+was+het+weer+op+naar+de+kust.+De+oostkust+van+Argentini%C3%AB%2C+heel+wat+anders+dan+de+west+kant+in+Chili.+Veel+droger%2C+zeker+in+de+buurt+van+Puerto+Madryn+midden+in+de+zomer.+Toch+is+er+veel+natuur+en+leven+er+geweldige+diersoorten.+Zo+is+er+de+pingu%C3%AFn+kolonie+bij+Punta+Tombo.+Hier+komen+duizenden+Magelhaenpingu%C3%AFns+bij+elkaar+om+voort+te+planten.+Een+magisch+gezicht%21"}
{"id":8882648693,"url":"http://farm9.staticflickr.com/8412/8882648693_513af7ceac.jpg","path":"658/f68/658f684cbec937e5ee19485beb8df8bc.jpg","date":"2012-10-25","year":2012,"month":10,"lon":-64.26487,"lat":-42.584686,"tags":"2012,argentina,argentina-chile,pen%C3%ADnsula+vald%C3%A9s,pen%E2%80%99nsula+vald%C5%BEs,puerto+madryn,viaje","S2CellId":"bf00000000000000","result":9968,"accuracy":0.21251246,"title":"Pen%C3%ADnsula+Vald%C3%A9s","description":"%3Ca+href%3D%22http%3A%2F%2Fwww.mivertigo.com%2Fargentina-y-chile-en-transito-dia-14%2F%22+rel%3D%22nofollow%22%3Ewww.mivertigo.com%2Fargentina-y-chile-en-transito-dia-14%2F%3C%2Fa%3E"}
{"id":3213721326,"url":"http://farm4.staticflickr.com/3434/3213721326_072392df9e.jpg","path":"b75/af0/b75af0e184da8b55dbb359bebaf8e8e3.jpg","date":"2007-01-24","year":2007,"month":1,"lon":-63.742676,"lat":-42.13286,"tags":"argentina,canon,docampo,guanacos,patagonia","S2CellId":"47edc00000000000","result":4703,"accuracy":0.27740777,"title":"dos+guanacos"}
{"id":5066700411,"url":"http://farm5.staticflickr.com/4154/5066700411_2eb0ccef51.jpg","path":"ad9/9a4/ad99a492c79469cc7c7f3c422cb242.jpg","date":"2010-01-08","year":2010,"month":1,"lon":-65.03254,"lat":-42.805225,"tags":"day+trips,holidays,nature+reserve,penguin,puerto+madryn","S2CellId":"bdb4000000000000","result":9964,"accuracy":0.279995,"title":"Puerto+Madryn"}
{"id":289736800,"url":"http://farm1.staticflickr.com/120/289736800_5e825714f2.jpg","path":"fe8/45a/fe845ac679c652cdb92b7bc7fb328f.jpg","date":"2006-09-26","year":2006,"month":9,"lon":-65.51697,"lat":-43.285202,"tags":"argentina,gaiman,patagonia","S2CellId":"47d8f40000000000","result":4466,"accuracy":0.032345157,"title":"The+Welsh+Teahouse"}
