{"id":4003722189,"url":"http://farm3.staticflickr.com/2514/4003722189_0ae16c3219.jpg","path":"917/c64/917c6440addf6b46942199f1216aebfd.jpg","date":"2009-10-12","year":2009,"month":10,"lon":138.88258,"lat":-35.54476,"tags":"12of12,podcacher","S2CellId":"8644cc0000000000","result":7595,"accuracy":0.015263015,"title":"Dave+leaves","description":"Dave+is+always+leaving+me.+Monday+night+he+is+going+to+South+Australian+Country+Fire+Service+training+at+Middleton%2C+where+he+is+a+member.+He+is+a+volunteer+fire-fighter+of+approx.+15+years."}
{"id":4395866185,"url":"http://farm5.staticflickr.com/4065/4395866185_4589036568.jpg","path":"169/c7c/169c7ceae4634a5f0e31b2692ad46c7.jpg","date":"2010-02-28","year":2010,"month":2,"lon":138.93723,"lat":-35.152058,"tags":"adelaide,australia,bush+fire,eucalyptus,fire,grass,highland,smoke,south,tree,valley","S2CellId":"6acc000000000000","result":6609,"accuracy":0.06669336,"title":"block+fire","description":"%22Huston%2C+we+have+a+problem...%22"}
{"id":8920678221,"url":"http://farm4.staticflickr.com/3676/8920678221_c1f652f5fc.jpg","path":"3ca/679/3ca679c7e68fe997312365e1d0ffb50.jpg","date":"2013-06-02","year":2013,"month":6,"lon":138.62398,"lat":-35.556206,"tags":"victor-harbor,whaletime-festival","S2CellId":"47bd0b0000000000","result":4083,"accuracy":0.010952573,"title":"Whale+milk","description":"How+much+milk+a+Southern+Right+Whale+calf+drinks+on+day+1"}
{"id":9390863924,"url":"http://farm4.staticflickr.com/3683/9390863924_8e338ebbba.jpg","path":"c58/e34/c58e346ec09e54e719ad59eb172be7ec.jpg","date":"2013-07-29","year":2013,"month":7,"lon":138.70085,"lat":-35.518448,"tags":"australia,calf,middleton,south+australia,southern-right-whale,whale","S2CellId":"89fd000000000000","result":9400,"accuracy":0.10337156,"title":"Southern+Right+Whales","description":"calf%27s+head+markings"}
{"id":4025710772,"url":"http://farm3.staticflickr.com/2493/4025710772_a73e3f8525.jpg","path":"907/893/907893783f9b6ca8c18e9fb3af4595.jpg","date":"2009-10-10","year":2009,"month":10,"lon":138.53183,"lat":-35.212,"tags":"bike+sa,day+7","S2CellId":"6b93f00000000000","result":6773,"accuracy":0.15148768,"title":"Tents"}
{"id":9414555564,"url":"http://farm4.staticflickr.com/3733/9414555564_88abde94ca.jpg","path":"192/99d/19299d783654ce1f0cb1cfa55169d2b.jpg","date":"2013-08-01","year":2013,"month":8,"lon":138.70175,"lat":-35.522076,"tags":"calf,dolphin,southern-right-whale,whale","S2CellId":"0d2e7c4000000000","result":286,"accuracy":0.021277895,"title":"Southern+Right+Whale+calf+playing+with+dolphins","description":"The+calf+is+head+bobbing+with+one+of+dozens+of+dolphins+within+a+few+feet+of+it.++The+calf+and+the+dolphins+played+for+about+2+minutes."}
{"id":2091515722,"url":"http://farm3.staticflickr.com/2125/2091515722_353d76f767.jpg","path":"382/898/382898cc5aae2c39d4ae8e13ae19ac.jpg","date":"2007-12-05","year":2007,"month":12,"lon":138.71864,"lat":-35.006817,"tags":"heathfield+high+school,heathfield+high+school+2007+summer+proms,high+school+music,high+school+proms,music+festivals,school+proms,student+music,student+musicians","S2CellId":"5495900000000000","result":6258,"accuracy":0.036040924,"title":"Heathfield+High+School+2007+Summer+Proms"}
{"id":5807315522,"url":"http://farm3.staticflickr.com/2062/5807315522_be040e6295.jpg","path":"37b/8cc/37b8cc2d04e67731326df1456a4fcff.jpg","date":"2008-09-06","year":2008,"month":9,"lon":138.82666,"lat":-35.532043,"tags":"goolwa","S2CellId":"95d0000000000000","result":9860,"accuracy":0.011967438,"title":"DSCF5940"}
{"id":6547152685,"url":"http://farm8.staticflickr.com/7143/6547152685_31febb049d.jpg","path":"192/4c3/1924c31f36fbe54941fad1e2d5199ac.jpg","date":"2011-11-19","year":2011,"month":11,"lon":138.64687,"lat":-35.000793,"tags":"scrub,undergrowth,xanthorrhoea","S2CellId":"6b0d000000000000","result":6662,"accuracy":0.09357814,"title":"IMG_0494"}
{"id":7200032548,"url":"http://farm8.staticflickr.com/7245/7200032548_c3119300aa.jpg","path":"1ab/f54/1abf54cd4e79b8170faf2019b0dc51.jpg","date":"2012-05-12","year":2012,"month":5,"lon":138.75848,"lat":-35.00926,"tags":"about+time,adelaide+hills,bridgewater,history+festival,south+australia","S2CellId":"0d379c0000000000","result":323,"accuracy":0.043243542,"title":"Bridgewater+Pictorial+Kaleidoscope"}
{"id":11216124654,"url":"http://farm6.staticflickr.com/5485/11216124654_0623a69707.jpg","path":"af6/2df/af62dff13b6999f4d3053fcd4bf715.jpg","date":"2013-11-29","year":2013,"month":11,"lon":138.47693,"lat":-35.154243,"tags":"onkaparinga+river,port+noarlunga,river+banks,sand+bar","S2CellId":"6ab1400000000000","result":6602,"accuracy":0.14335652,"title":"Living+on+the+Onka"}
{"id":2369901575,"url":"http://farm4.staticflickr.com/3067/2369901575_eece785602.jpg","path":"c79/8ca/c798cadc717bd822d824f03f8e819f.jpg","date":"2008-03-24","year":2008,"month":3,"lon":138.62222,"lat":-35.566025,"tags":"granite+island,sculpture,seal","S2CellId":"808de10000000000","result":6990,"accuracy":0.10044102,"title":"Seaside+A+Granite+Island+Seal","description":"This+was+a+surprise+to+see+from+the+tram+among+the+rocks."}
{"id":5053678977,"url":"http://farm5.staticflickr.com/4086/5053678977_d4ec32ac2e.jpg","path":"641/e50/641e50a9e8dc4881516fcad6d3d81c64.jpg","date":"2010-10-04","year":2010,"month":10,"lon":138.76363,"lat":-35.0139,"tags":"bridgewater+adelaide+hills,cox+creek,pool,rocks,stream","S2CellId":"2bfc000000000000","result":1527,"accuracy":0.05269864,"title":"Rock+Pool"}
{"id":6913177307,"url":"http://farm8.staticflickr.com/7068/6913177307_895b0af215.jpg","path":"c6f/00c/c6f00cb35afa4243a34bbcc5ebf0a8.jpg","date":"2012-02-09","year":2012,"month":2,"lon":138.4701,"lat":-35.237873,"tags":"adelaide,australia,beach,maslin+beach","S2CellId":"bf00000000000000","result":9968,"accuracy":0.06629669,"title":"maslin+beach","description":"Maslin+Beach+near+Adelaide%2C+Australia"}
{"id":9718656837,"url":"http://farm4.staticflickr.com/3681/9718656837_873abbb911.jpg","path":"eb3/d63/eb3d63c5da38ac293e1414434b396e1.jpg","date":"2013-06-15","year":2013,"month":6,"lon":138.543,"lat":-35.01317,"tags":"abstract,adelaide,australia,blanko+freedom,camera+phone,geometrical+abstract,hipstamatic,iphone+4s,iphone+art,iphone+only,iphoneography,michelle+robinson,michmutters,mobile+photography,phone+photography,pure+hipsta,salvador+84,south+australia","S2CellId":"89c258f900000000","result":8986,"accuracy":0.0148366485,"title":"Dali%27s+Circles+3+of+3","description":"facebook.com%2Fmichmutters%0A--%0ASA+Aquatic+Centre+%0AHipstamatic+Salvador+84+%2B+Blanko+Freedom"}
{"id":2250187794,"url":"http://farm3.staticflickr.com/2245/2250187794_17f4a746af.jpg","path":"a48/9ce/a489ced272d2fbe3c4bddb7737aa7e5.jpg","date":"2008-02-08","year":2008,"month":2,"lon":138.78665,"lat":-35.50336,"tags":"australia,bridge,fleurieu,goolwa,murray,river,southaustralia","S2CellId":"477eb1b000000000","result":3470,"accuracy":0.015355804,"title":"Bridge+columns","description":"Hindmarsh+Island+bridge+pylons+and+columns.+The+water+level+is+so+low+now+that+the+metal+piles+are+well+exposed"}
{"id":6994189753,"url":"http://farm8.staticflickr.com/7058/6994189753_6234b108c2.jpg","path":"352/3cc/3523cc389c231e1e71fbc2406b6e6e34.jpg","date":"2012-03-19","year":2012,"month":3,"lon":138.88214,"lat":-35.54483,"tags":"australia,clouds,fleurieu,sky,sunrise","S2CellId":"88d0a631cabb5071","result":8563,"accuracy":0.056239847,"title":"Sunrise+19-3-2012","description":"Sunrise+on+Hindmarsh+Island%2C+Australia.+The+sky+was+alight+in+all+directions"}
{"id":3329015783,"url":"http://farm4.staticflickr.com/3586/3329015783_f4e2481a0a.jpg","path":"caf/9c0/caf9c06a6e727915693497570d91936.jpg","date":"2009-03-04","year":2009,"month":3,"lon":138.78719,"lat":-35.508892,"tags":"australia,drought,fleurieu,goolwa,murray,river,southaustralia,water","S2CellId":"5240000000000000","result":5966,"accuracy":0.047893446,"title":"So+shallow","description":"Looking+towards+the+Goolwa+barrage+from+the+Goolwa+wharf%2C+birds+wade+on+the+sand+islands"}
{"id":9277402296,"url":"http://farm8.staticflickr.com/7458/9277402296_71d5bdc510.jpg","path":"996/d8c/996d8c9c3dd0cfb1c3f3b76b90ff5e.jpg","date":"2013-07-10","year":2013,"month":7,"lon":138.49905,"lat":-35.068016,"tags":"coast,gate,hallett+cove,path,turnstile","S2CellId":"4652340000000000","result":2846,"accuracy":0.021441536,"title":"Turnstile"}
{"id":4238763303,"url":"http://farm3.staticflickr.com/2752/4238763303_5de838dbbb.jpg","path":"4c2/235/4c2235efe159821c5398984eec442b.jpg","date":"2010-01-02","year":2010,"month":1,"lon":138.97464,"lat":-35.408394,"tags":"boat,cloud,esmay,foreshore,grass,high+%26+dry,lake+alexandrina,milang,sky","S2CellId":"877c000000000000","result":7905,"accuracy":0.00785597,"title":"Moored"}
{"id":8029120278,"url":"http://farm9.staticflickr.com/8318/8029120278_34b9ece5f4.jpg","path":"d44/0a1/d440a1c4728daeaad267e716cb796d4.jpg","date":"2012-09-27","year":2012,"month":9,"lon":138.46172,"lat":-35.288364,"tags":"australian+reed-warbler,reed-warbler,wetland+bird","S2CellId":"88d0a631cabb5071","result":8563,"accuracy":0.017686354,"title":"Australian+Reed-Warbler","description":"Aldinga+Scrub+Conservation+Park%2C+%0ASouth+Australia."}
{"id":4345401490,"url":"http://farm3.staticflickr.com/2732/4345401490_2cbdb683a1.jpg","path":"38a/89e/38a89e4283ee2cda14607c2f7afdb034.jpg","date":"2010-01-16","year":2010,"month":1,"lon":138.19016,"lat":-35.52538,"tags":"%2B61,australia,country,fleurieu+peninsula,south+australia","S2CellId":"6d50000000000000","result":6846,"accuracy":0.028445562,"title":"Rapid+Bay_065_January+16_2010","description":"%3Ca+href%3D%22http%3A%2F%2Fwww.flickr.com%2Fphotos%2Ftk_five_0%2Fshow%2F%22%3Ewww.flickr.com%2Fphotos%2Ftk_five_0%2Fshow%2F%3C%2Fa%3E"}
{"id":497484346,"url":"http://farm1.staticflickr.com/191/497484346_7a71f6b206.jpg","path":"dc3/1f1/dc31f1529d97e303e3c7fce3bb82d.jpg","date":"2007-05-08","year":2007,"month":5,"lon":138.82736,"lat":-35.506657,"tags":"24hoursofflickr,australia,fleurieu,hindmarshisland,may5,southaustralia","S2CellId":"0d55500000000000","result":468,"accuracy":0.34747958,"title":"Vineyards","description":"Angas+Vineyards+on+Hindmarsh+Island"}
{"id":9825904005,"url":"http://farm6.staticflickr.com/5543/9825904005_0a7c53c583.jpg","path":"3fc/394/3fc3942ec1afc5427a949be833ec2.jpg","date":"2013-09-01","year":2013,"month":9,"lon":138.6187,"lat":-35.558,"tags":"austraila,fleurieu+peninsula,people,plants,sea,sky,south+australia,victor+harbor,water","S2CellId":"6d6f000000000000","result":6854,"accuracy":0.06325336,"title":"Injoying+the+Water","description":"Victor+Harbor+September+1%2C+2013%2C+Australia.%0A+%0AVictor+Harbor+is+a+city+on+the+coast+of+the+Fleurieu+Peninsula%2C+about+80+km+south+of+Adelaide%2C+South+Australia.+The+city+is+the+largest+population+centre+on+the+peninsula%2C+with+an+economy+based+upon+agriculture%2C+fisheries+and+various+industries.+It+is+also+a+highly+popular+tourist+destination%2C+with+the+city%27s+population+greatly+expanded+during+the+summer+holidays.%0AFor+More+Info%3A+%3Ca+href%3D%22http%3A%2F%2Fen.wikipedia.org%2Fwiki%2FVictor_Harbor%2C_South_Australia%22+rel%3D%22nofollow%22%3Een.wikipedia.org%2Fwiki%2FVictor_Harbor%2C_South_Australia%3C%2Fa%3E"}
{"id":8266908135,"url":"http://farm9.staticflickr.com/8339/8266908135_59f1ba3e14.jpg","path":"da5/bf5/da5bf5fb8426a94f84dc41e5ff563e.jpg","date":"2012-11-30","year":2012,"month":11,"lon":138.88258,"lat":-35.54476,"tags":"floral,flower,garlic,hat,seed","S2CellId":"4876750000000000","result":5372,"accuracy":0.011203308,"title":"Garlic+flower+and+seed+pod","description":"I+love+how+the+seed+pod+looks+like+a+hat+when+the+flower+on+the+garlic+is+opening"}
{"id":8550687362,"url":"http://farm9.staticflickr.com/8509/8550687362_fc16a39c57.jpg","path":"413/c1d/413c1dc65588ecaff44bef0481836.jpg","date":"2013-03-12","year":2013,"month":3,"lon":138.88278,"lat":-35.544624,"tags":"12of12,garden,tomato,vegetable","S2CellId":"6b9c000000000000","result":6776,"accuracy":0.009707031,"title":"See+how+my+garden+grows","description":"The+tomatoes+are+still+producing%2C+I+am+picking+a+bowl+full+every+third+day.+They+are+smaller+than+earlier+in+the+season+but+still+taste+as+yummy."}
{"id":6912939627,"url":"http://farm8.staticflickr.com/7190/6912939627_8181f2b81f.jpg","path":"68d/573/68d573d26f928ac14596ca3e1687351.jpg","date":"2012-02-20","year":2012,"month":2,"lon":138.46733,"lat":-35.14423,"tags":"af-s+vr+dx+18-55mm+%C6%92%2F3.5%7E5.6+g,aperture,australia,cp+filter,nik,nikon+d40x,port+noarlunga,sa","S2CellId":"6ab1400000000000","result":6602,"accuracy":0.12741616,"title":"Looking+South+along+the+Fleurieu+Peninsula","description":"2+image+over%2Funder+composite%2C+was+a+little+soft%2C+so+I+decided+to+roll+with+it+and+soften+it+further+with+NIK+filtering%2C+and+showcase+the+color+contrast+a+little+more."}
{"id":8079100984,"url":"http://farm9.staticflickr.com/8327/8079100984_849f1d889b.jpg","path":"90f/bc6/90fbc67eea17c5222293ae781844fc8.jpg","date":"2012-10-12","year":2012,"month":10,"lon":138.77068,"lat":-35.504284,"tags":"12of12,australia,fleurieu,food,goolwa,pet,shop,south+australia,treats","S2CellId":"6ab0b00000000000","result":6591,"accuracy":0.16206841,"title":"Pet+supplies","description":"Stopped+off+to+get+dog+food+and+dog+treats+at+local+business+A1+Hire+in+Goolwa.++The+expanded+pet+section+is+very+popular."}
{"id":5536835038,"url":"http://farm6.staticflickr.com/5212/5536835038_8d2ee6ece7.jpg","path":"277/39a/27739a57883351b19397b5d10127cb7.jpg","date":"2011-03-18","year":2011,"month":3,"lon":138.97267,"lat":-35.407345,"tags":"abcopen,june1,lake+alexandrina,milang,moshcc","S2CellId":"6b2c000000000000","result":6729,"accuracy":0.008570067,"title":"Alison","description":"From+Ayr%2C+fifty+kilometres+south+of+Glasgow.++Alison+works+four+days+a+week+as+a+bookkeeper+for+two+clients+in+Adelaide.+Her+emerging+passion+is+a+role+as+a+Nutrimetics+representative.+This+work+satisfies+an+artistic+flair%2C+in+particular+a+good+instinct+for+colour+combination.+She+takes+pride+in+enhancing+a+client%E2%80%99s+natural+strengths+and+minimising+any+weaknesses.+She+does+not+like+makeup+to+be+used+as+a+mask%3A+the+person+should+be+immediately+recognisable.+%0ANutrimetics+also+complements+Alyson%E2%80%99s+conservationist+ideals%3A+all+products+and+even+packaging%2C+is+recyclable.+Nature+is+important+to+her%3A+she+loves+nothing+more+than+a+morning+forest+walk+with+Emma+the+dog+when+the+sun%E2%80%99s+early+rays+strike+through+trees.++She+relishes+the+freedom+of+being+able+to+leave+the+city+grind%3A++her+photo+was+taken+at+Friday+lunch+at+the+Pier+Hotel%2C+lakeside+Milang.+Earlier%2C+she+had+walked+in+Kuitpo+pine+forest+with+Emma+and+husband+Tony.+They+had+then+taken+Emma+to+plunge+into+Lake+Alexandrina."}
{"id":6877246115,"url":"http://farm8.staticflickr.com/7049/6877246115_4798c79e1f.jpg","path":"c08/041/c08041e976fd62739f17923e497543a.jpg","date":"2012-02-13","year":2012,"month":2,"lon":138.4953,"lat":-35.089115,"tags":"135,35mm,af+nikkor+28-80mm+%C6%92%2F3.5%7E5.6+d,aperture,australia,film,fuji+superia+400,hallet+cove,nature,nik,nikon+fe,sa","S2CellId":"2cb0000000000000","result":1530,"accuracy":0.572229}
{"id":4344437155,"url":"http://farm5.staticflickr.com/4034/4344437155_878f662440.jpg","path":"c76/85f/c7685fad233b2142ca89828649a6d88.jpg","date":"2010-01-16","year":2010,"month":1,"lon":138.63484,"lat":-35.56372,"tags":"australia,country,encounter+bay,fleurieu+peninsula,great+southern+ocean,south+australia,victor+harbour","S2CellId":"6ab1400000000000","result":6602,"accuracy":0.24783374,"title":"Encounter+Bay_01_January+16_2010"}
{"id":6818795403,"url":"http://farm8.staticflickr.com/7155/6818795403_369d032baf.jpg","path":"182/c8a/182c8ab953c2251db922d63ed14c465.jpg","date":"2012-01-29","year":2012,"month":1,"lon":138.99008,"lat":-35.584156,"tags":"adelaide,australia","S2CellId":"12b0500000000000","result":797,"accuracy":0.08633363,"title":"DSC00514.jpg"}
{"id":7240468944,"url":"http://farm9.staticflickr.com/8014/7240468944_3e05fc3bc2.jpg","path":"aae/f91/aaef918b9b1a355dd981c15c83314f.jpg","date":"2012-05-18","year":2012,"month":5,"lon":138.54033,"lat":-35.018166,"tags":"%D0%BF%D0%B8%D0%B2%D0%BE,adelaide,australia,beer","S2CellId":"4876540000000000","result":5363,"accuracy":0.038849123,"title":"Real+Beer+in+Australia"}
{"id":1521685614,"url":"http://farm3.staticflickr.com/2053/1521685614_590e10e687.jpg","path":"eae/51e/eae51ed58716eae3b7b81d56cd703650.jpg","date":"2007-10-09","year":2007,"month":10,"lon":138.87617,"lat":-35.0748,"tags":"boat,boatbuilding,bote+cote,construction,epoxy,glue,goat,island,plywood,skiff,stitch,west+system","S2CellId":"548ff00000000000","result":6177,"accuracy":0.8092234,"title":"PA090806","description":"Internal+view"}
{"id":4729857525,"url":"http://farm2.staticflickr.com/1145/4729857525_0a04841f4f.jpg","path":"a37/ff3/a37ff3fac480928356e8261b164d1db.jpg","date":"2010-06-24","year":2010,"month":6,"lon":138.51366,"lat":-35.003582,"tags":"brighton,information,minda,neglected,rundown","S2CellId":"6ad5c00000000000","result":6614,"accuracy":0.05678087,"title":"Information+Board"}
{"id":8726113356,"url":"http://farm8.staticflickr.com/7421/8726113356_cf9bc94c44.jpg","path":"b62/9dd/b629dd45d9a17e528a433bfb4b7d38be.jpg","date":"2013-04-28","year":2013,"month":4,"lon":138.65923,"lat":-35.01425,"tags":"belair+national+park,chimney,cottage,heritage,iron,picket+fence","S2CellId":"6b2c000000000000","result":6729,"accuracy":0.07399983,"title":"Simple+Heritage+Cottage"}
{"id":4097919490,"url":"http://farm3.staticflickr.com/2644/4097919490_85259b8d7e.jpg","path":"569/036/569036b9e5d3a1e3dacc30aae0f787ba.jpg","date":"2009-11-12","year":2009,"month":11,"lon":138.88258,"lat":-35.54476,"tags":"12of12,beer,drink,podcacher","S2CellId":"465253c000000000","result":2863,"accuracy":0.019828048,"title":"Cold+beer","description":"It%27s+hot+today%21+We+got+home+around+midday+and+the+temperature+was+37C+-+100F+and+a+cold+beer+was+the+first+thing+we+had+after+unloading+the+groceries+from+the+car.+The+brand+is+West+End+Draught+%28a+South+Australian+beer%29+for+those+who+are+curious."}
{"id":6630637091,"url":"http://farm8.staticflickr.com/7153/6630637091_e5ba7eea26.jpg","path":"b18/875/b18875039d4ce1fa2c915be7f85f17.jpg","date":"2012-01-04","year":2012,"month":1,"lon":138.67561,"lat":-35.536556,"tags":"6x6,architecture,coastal,encounter+bay,epson+v700+scan,gary+sauer-thompson,gitzo+tripod,imac,kodak+portra+160nc,lightroom+3.6,phototrip,pm,port+elliot,pro-lab+processing,residential,rolleiflex+sl66,sea,under+construction,zeiss+distagon+50mm+f4","S2CellId":"80dc070000000000","result":7326,"accuracy":0.21397045,"title":"Encounter+Bay","description":"Port+Elliot%2C+Victor+Harbor"}
{"id":8664358527,"url":"http://farm9.staticflickr.com/8253/8664358527_577f7aa040.jpg","path":"49b/21e/49b21e5f32fbbf29e4ed6835e195c.jpg","date":"2013-04-20","year":2013,"month":4,"lon":138.36102,"lat":-35.438545,"tags":"art,festival,leafy-sea-dragon,south+australia,yankalilla","S2CellId":"2b40000000000000","result":1520,"accuracy":0.07971253,"title":"IMG_1620","description":"Mulberry+Farm+Sculpture+Walk"}
{"id":146768586,"url":"http://farm1.staticflickr.com/45/146768586_d3e3b57213.jpg","path":"36d/ac9/36dac99323207e57223c28a3de2e70.jpg","date":"2006-05-15","year":2006,"month":5,"lon":138.78204,"lat":-35.500927,"tags":"australia,fleurieu,goolwa,southaustralia","S2CellId":"6ad1000000000000","result":6610,"accuracy":0.035470832,"title":"Cadell+Street+14-5-06","description":"Looking+north+from+the+Cadell+Street+Crocker+Street+corner+in+Goolwa%2C+South+Australia++See+where+this+photo+was+taken+at+%3Ca+href%3D%22http%3A%2F%2Fmaps.yuan.cc%22+rel%3D%22nofollow%22%3Emaps.yuan.cc%3C%2Fa%3E."}
{"id":5806799007,"url":"http://farm3.staticflickr.com/2298/5806799007_98ccca9a9c.jpg","path":"135/793/135793509881107dfef1b075932dbc2.jpg","date":"2008-12-04","year":2008,"month":12,"lon":138.82666,"lat":-35.532043,"tags":"goolwa","S2CellId":"876bd00000000000","result":7867,"accuracy":0.063026875,"title":"DSCF9270"}
{"id":8572845138,"url":"http://farm9.staticflickr.com/8389/8572845138_58dfb388c7.jpg","path":"b26/fc6/b26fc668b72dca1246c0c6eb404b87b2.jpg","date":"2013-03-20","year":2013,"month":3,"lon":138.88214,"lat":-35.54483,"tags":"electricity,underground","S2CellId":"8084c00000000000","result":6909,"accuracy":0.11877422,"title":"Coiling+the+un-needed+cable+onto+the+old+pole"}
{"id":12185984114,"url":"http://farm6.staticflickr.com/5525/12185984114_7b5a84a879.jpg","path":"895/9ff/8959ff49b33cd499a64a57b0954cb9.jpg","date":"2014-01-27","year":2014,"month":1,"lon":138.05891,"lat":-35.783413,"tags":"bird,kangaroo+island,kangaroo+island+holiday","S2CellId":"89fb400000000000","result":9399,"accuracy":0.013504575,"title":"Oystercatcher"}
{"id":5406295199,"url":"http://farm6.staticflickr.com/5093/5406295199_7d75c2f66a.jpg","path":"a7c/1de/a7c1de541db0c2855b5085f4ad7bff99.jpg","date":"2011-01-17","year":2011,"month":1,"lon":138.73392,"lat":-35.03743,"tags":"turtle","S2CellId":"88fb990000000000","result":8747,"accuracy":0.009069989,"title":"2011-01-17+12%3A05%3A51","description":"Turtle"}
{"id":6311337547,"url":"http://farm7.staticflickr.com/6118/6311337547_a8bb8e2630.jpg","path":"eac/03b/eac03b51f0a6549b99052b725f805c.jpg","date":"2011-11-01","year":2011,"month":11,"lon":138.88214,"lat":-35.54483,"tags":"australia,birds,fleurieu,hindmarsh+island","S2CellId":"88d0a631cabb5071","result":8563,"accuracy":0.040278308,"title":"Pelican+flying","description":"I+am+amazed+at+the+spread+of+feathers+of+this+pelican+as+it+flew+overhead.+Amazing+large+bird+that+is+so+graceful+in+flight."}
{"id":8982607039,"url":"http://farm6.staticflickr.com/5345/8982607039_b57f8f8fdc.jpg","path":"75a/732/75a7329942a9c56c53d627611eb9fee.jpg","date":"2013-06-08","year":2013,"month":6,"lon":138.71419,"lat":-35.5179,"tags":"middleton,surfers,winter","S2CellId":"5493000000000000","result":6233,"accuracy":0.04819578,"title":"Surf%27s+Up","description":"I+have+never+seen+so+many+surfers+in+this+area+before."}
{"id":5405953560,"url":"http://farm6.staticflickr.com/5213/5405953560_834babc2eb.jpg","path":"1a9/818/1a981893281e1814f0f2e0e324b2ad40.jpg","date":"2011-01-08","year":2011,"month":1,"lon":138.6169,"lat":-35.02128,"tags":"home,memories,spiders","S2CellId":"88d0a631cabb5071","result":8563,"accuracy":0.012183081,"title":"Gary+the+spider","description":"Gary+the+spider+%28December+2010+-+January+31+2011%29%2C+who+came+into+my+life+one+day+as+he+set+up+a+huge+web+in+the+back+yard+and+started+collecting+insects%2C+some+of+which+are+shown+above.+Over+time%2C+Gary+turned+out+to+be+a+female+%28based+on+the+eggs+which+appeared+in+her+web%29%2C+and+she+relocated+to+a+prime+north-facing+wall+nearer+the+front+of+the+house.+Watching+her+grow+and+collect+more+insects+was+a+daily+routine+as+I+walked+past+her+morning+and+night%2C+until+sadly+Adelaide%27s+summer+finally+found+the+%27on%27+button+and+hit+us+with+a+string+of+40%2B+degree+days.+On+returning+home+on+the+worst+of+these+days+%2842.6+degrees+from+memory%29+Gary+had+left+us+-+a+dessicated+husk+left+on+the+web%2C+the+rest+of+her+on+the+ground.+She+will+be+missed."}
{"id":6930258024,"url":"http://farm8.staticflickr.com/7244/6930258024_bface4361a.jpg","path":"2a2/cc6/2a2cc6586d585498c3c11f777446e4a.jpg","date":"2012-04-13","year":2012,"month":4,"lon":138.46883,"lat":-35.24747,"tags":"port+willunga,sigma+10-20mm,star+trails","S2CellId":"0c6a840000000000","result":152,"accuracy":0.029429516,"title":"Port+Willunga+star+trails","description":"First+attempt+at+star+trails.+This+one+at+Port+Willunga.+Matt%2C+Ashley+%26+I+went+for+an+evening+drive+to+try+star+trail+shots+-+with+mixed+success%2C+but+fun+never-the-less.+Sensor+noise+is+a+problem+-+will+need+to+fiddle+around+with+this."}
{"id":8551980009,"url":"http://farm9.staticflickr.com/8100/8551980009_e11dc265db.jpg","path":"e1a/5f4/e1a5f43156477f3848a221a1ff38192.jpg","date":"2013-03-12","year":2013,"month":3,"lon":138.88214,"lat":-35.54483,"tags":"12of12,australia,hindmarsh+island","S2CellId":"88d0a631cabb5071","result":8563,"accuracy":0.09851091,"title":"Still+picking+figs","description":"I+am+amazed+that+after+a+month+I+am+still+picking+figs+from+the+neighbours+tree.+Usually+the+birds+decimate+them+in+the+first+weeks."}
{"id":3019192346,"url":"http://farm4.staticflickr.com/3294/3019192346_c6a915f1af.jpg","path":"d49/7eb/d497eb87e17783cca27dbe23cb7f93d3.jpg","date":"2008-10-18","year":2008,"month":10,"lon":138.5169,"lat":-35.03561,"tags":"boat,irb,pam+brooks,rescue,seacliff","S2CellId":"808587c000000000","result":6980,"accuracy":0.046107784,"title":"IMG_0484"}
{"id":7179671482,"url":"http://farm8.staticflickr.com/7081/7179671482_c85392c3b7.jpg","path":"f6f/588/f6f5884f7577576b5c1a2bf3b255af6.jpg","date":"2011-06-01","year":2011,"month":6,"lon":138.9692,"lat":-35.40352,"tags":"agriculture,fleurieu+peninsula,museum,south+australia","S2CellId":"6ab0b00000000000","result":6591,"accuracy":0.09347765,"title":"Port+Milang+Museum"}
{"id":13662847223,"url":"http://farm3.staticflickr.com/2904/13662847223_5acb4bb07e.jpg","path":"bb3/e17/bb3e17241812bd9e1bc33e70d67ab1.jpg","date":"2014-04-06","year":2014,"month":4,"lon":138.89029,"lat":-35.257652,"tags":"corellas","S2CellId":"6bd0000000000000","result":6778,"accuracy":0.031413093,"title":"Corella"}
{"id":4915772092,"url":"http://farm5.staticflickr.com/4079/4915772092_b91a31466b.jpg","path":"418/3ee/4183ee4337edad407d2ab685719d9e.jpg","date":"2010-08-22","year":2010,"month":8,"lon":138.58548,"lat":-35.047897,"tags":"bird,eye,magpie","S2CellId":"88d0a631cabb5071","result":8563,"accuracy":0.0062524215,"title":"Magpie","description":"A+local+Magpie."}
{"id":6818866297,"url":"http://farm8.staticflickr.com/7012/6818866297_b70388b7fd.jpg","path":"4ee/c64/4eec649cc6d14f25d3e961f1170e0fe.jpg","date":"2012-01-29","year":2012,"month":1,"lon":138.99382,"lat":-35.58725,"tags":"adelaide,australia","S2CellId":"12b6700000000000","result":815,"accuracy":0.114897855,"title":"DSC00523.jpg"}
{"id":348786123,"url":"http://farm1.staticflickr.com/132/348786123_af18bf1af6.jpg","path":"f65/f4b/f65f4bed8841fffe3cdfb8db6c56ec4.jpg","date":"2007-01-06","year":2007,"month":1,"lon":138.46883,"lat":-35.24747,"tags":"adelaide,beach,beauty,fleurieu,port+willunga,southcoast","S2CellId":"0d1b400000000000","result":239,"accuracy":0.1323651,"title":"Port+Willunga"}
{"id":6199570585,"url":"http://farm7.staticflickr.com/6163/6199570585_351d7af3d6.jpg","path":"617/c76/617c76bb596e2238307f994e45db48.jpg","date":"2011-09-11","year":2011,"month":9,"lon":138.45818,"lat":-35.291096,"tags":"aldinga+scrub+conservation+park,opercularia+turpis,rubiaceae,twiggy+stinkweed","S2CellId":"88fd000000000000","result":8754,"accuracy":0.014959336,"title":"Opercularia+turpis","description":"Rubiaceae%3A+Twiggy+Stinkweed.+Habit.%0AAldinga+Scrub+Conservation+Park%2C%0ASouth+Australia."}
{"id":11699739586,"url":"http://farm4.staticflickr.com/3782/11699739586_428ae31c3f.jpg","path":"2af/0ac/2af0aca0d48774ca39c678866e104247.jpg","date":"2013-12-25","year":2013,"month":12,"lon":138.6789,"lat":-35.53673,"tags":"australia,ocean,port+elliot,south+australia,sunset,waves","S2CellId":"345d4c0000000000","result":2109,"accuracy":0.05563805,"title":"curling+crashing+wave+at+green+bay%2C+port+elliot%2C+around+sunset","description":"A+1%2F2+second+exposure%2C+taken+without+a+tripod+%28I+didn%27t+bring+it%2C+so+I+just+rested+my+camera+carefully+on+the+rocks%29.+Despite+how+it+might+look%2C+I+was+actually+quite+high+up+on+the+rocks+away+from+the+wave+itself."}
{"id":6757571197,"url":"http://farm8.staticflickr.com/7022/6757571197_6f3b042692.jpg","path":"519/32b/51932bfa5d40cdfea074bd8c456583.jpg","date":"2012-01-21","year":2012,"month":1,"lon":138.57123,"lat":-35.286217,"tags":"bicycles,south+australia,tdu,tour+down+under+2012,willunga","S2CellId":"1e70000000000000","result":1463,"accuracy":0.074691005,"title":"DSCN8686"}
{"id":881892821,"url":"http://farm2.staticflickr.com/1398/881892821_cc55efe3e7.jpg","path":"922/c21/922c216dde0d427d76456550fc2ef2.jpg","date":"2007-07-18","year":2007,"month":7,"lon":138.21608,"lat":-35.510918,"tags":"family,natalie,ocean,people","S2CellId":"5f0f000000000000","result":6353,"accuracy":0.05756661,"title":"DSC_2909"}
{"id":6489927499,"url":"http://farm8.staticflickr.com/7026/6489927499_f692121503.jpg","path":"e58/db5/e58db5e29ba9c6bca97fe723dfddedf.jpg","date":"2011-11-08","year":2011,"month":11,"lon":138.49976,"lat":-35.076424,"tags":"geology,hallett+cove+conservation+park,the+amphitheatre,the+sugarloaf","S2CellId":"5330000000000000","result":6023,"accuracy":0.32836238,"title":"Hallett+Cove+Conservation+Park","description":"featuring+%22The+Amphitheatre%22+and+%22The+Sugarloaf%22+%0ASouth+Australia"}
{"id":3814504050,"url":"http://farm3.staticflickr.com/2571/3814504050_9dafe0399e.jpg","path":"408/a97/408a975910d139c41b3a38ef99ee3c1b.jpg","date":"2009-08-12","year":2009,"month":8,"lon":138.88452,"lat":-35.5529,"tags":"12of12,coorong,dredge,murray,podcacher","S2CellId":"bf00000000000000","result":9968,"accuracy":0.16608013,"title":"Dredging","description":"The+dredges+are+still+there+dredging+the+exit+of+the+longest+river+in+Australia%2C+the+Murray+River%2C+as+it+exits+to+the+ocean+around+Hindmarsh+Island.+This+is+across+the+paddock+from+my+house+and+the+area+is+also+part+of+and+area+called+the+Coorong.%0A%0AThese+dredges+were+supposed+to+be+here+for+7+months%2C+it+has+now+been+7+years.+They+are+likely+to+be+here+for+a+lot+longer+because+the+Murray+River+is+dry+and+there+is+no+flow+coming+down+it.+No+flow+means+the+mouth+closes.+The+dredges+keep+it+open."}
{"id":55083281,"url":"http://farm1.staticflickr.com/24/55083281_f5c404859c.jpg","path":"45e/97d/45e97de3402e11eb304e254fcbf424c6.jpg","date":"2005-10-23","year":2005,"month":10,"lon":138.70128,"lat":-35.524124,"tags":"australia,elliot,fleurieu,ocean,port,portelliot,southaustralia,view","S2CellId":"486adc0000000000","result":4920,"accuracy":0.07300484,"title":"Port+Elliot","description":"Looking+along+the+coast+towards+Victor+Harbor%0ASee+where+this+photo+was+taken+at+%3Ca+href%3D%22http%3A%2F%2Fmaps.yuan.cc%22+rel%3D%22nofollow%22%3Emaps.yuan.cc%3C%2Fa%3E."}
{"id":849800268,"url":"http://farm2.staticflickr.com/1155/849800268_220890ab67.jpg","path":"e07/620/e076202f4f97b59fcfe18e67ce96a72.jpg","date":"2007-07-19","year":2007,"month":7,"lon":138.78221,"lat":-35.50407,"tags":"australia,clouds,fleurieu,goolwa,sky,southaustralia,sunset","S2CellId":"47fb000000000000","result":4734,"accuracy":0.008723346,"title":"Sunset+16-7-2007","description":"Sunset+in+Goolwa+South+Australia"}
{"id":586283526,"url":"http://farm2.staticflickr.com/1096/586283526_bd32badf5e.jpg","path":"903/9ca/9039ca335ee2cbcb372b5c4c485a6e3.jpg","date":"2007-06-22","year":2007,"month":6,"lon":138.79543,"lat":-35.506935,"tags":"bird,wildlife+of+australia","S2CellId":"89c3700000000000","result":9120,"accuracy":0.08977554,"title":"Juvenile+Red+Wattlebird"}
{"id":5026565119,"url":"http://farm5.staticflickr.com/4154/5026565119_0c1e89e95c.jpg","path":"d08/62e/d0862e31b942293b3d246acc83ffee.jpg","date":"2010-09-18","year":2010,"month":9,"lon":138.6099,"lat":-35.0235,"tags":"ef-s60mm+f%2F2.8+macro+usm,flower,garden,infloresence,nature+watcher,plants","S2CellId":"88d0a631cabb5071","result":8563,"accuracy":0.013934121,"title":"Chamelaucium+uncinatum+%28Myrtaceae%29"}
{"id":5305608717,"url":"http://farm6.staticflickr.com/5009/5305608717_a91cffca00.jpg","path":"c8b/83c/c8b83cb6306072b4e3b6a0eb12bf3238.jpg","date":"2010-11-20","year":2010,"month":11,"lon":138.4947,"lat":-35.19004,"tags":"photography,wedding","S2CellId":"8084500000000000","result":6907,"accuracy":0.035396755,"title":"Sally251"}
{"id":5612572299,"url":"http://farm6.staticflickr.com/5069/5612572299_e8ff43a25a.jpg","path":"f85/870/f8587036f37908dd89441896e6ce2b7.jpg","date":"2011-04-10","year":2011,"month":4,"lon":138.52411,"lat":-35.12259,"tags":"australia,church,morphett+vale,presbyterian,relic,ruin,sa,south+australia","S2CellId":"87c5000000000000","result":7979,"accuracy":0.017214166,"title":"Old+derelict+Morphett+Vale+Presbyterian+Church","description":"This+is+a+shot+of+the+right+hand+side+of+the+church%2C+this+is+the+water+issue+i+was+talking+about+earlier%2C+this+will+destabilize+the+wall+fairly+quickly.%0A%0AThis+is+a+set+of+shots+of+an+abandoned+church+in+Morphett+Vale.+The+John+Knox+Free+Presbyterian+Church%2C+Morphett+Vale+was+built+in+1856%2C+It+has+been+boarded+up+since+at+least+1976+due+to+movement+of+the+church+and+possibility+for+collapse.%0A%3Ca+href%3D%22http%3A%2F%2Fimages.slsa.sa.gov.au%2Fmpcimg%2F13500%2FB13391.htm%22+rel%3D%22nofollow%22%3EHave+a+look+at+this+historic+shot+to+see+what+it+looked+like+originally%3C%2Fa%3E%0A%0AIt+looks+like+around+1876ish+they+replaced+the+slate+roof+with+corrugated+iron%2C+and+installed+buttresses+to+support+the+walls.+It+would+be+a+safe+assumption+to+say+there+was+movement+back+then+and+they+replaced+the+heavy+slate+roof+for+a+newer+and+lighter+material%2C+then+re-inforced+the+walls.%0A%0A%3Ca+href%3D%22http%3A%2F%2Fimages.slsa.sa.gov.au%2Fmpcimg%2F13500%2FB13388.htm%22+rel%3D%22nofollow%22%3EHere+is+a+picture+from+the+archives+around+the+time+they+put+the+iron+roof+on.%3C%2Fa%3E%0A%0AIt+is+a+real+shame+that+nothing+has+been+done+about+this+church+%3Ca+href%3D%22http%3A%2F%2Fwww.environment.gov.au%2Fcgi-bin%2Fheritage%2Fphotodb%2Fimagesearch.pl%3Fproc%3Ddetail%3Bbarcode_no%3Drt19530%22+rel%3D%22nofollow%22%3Esince+1979%3C%2Fa%3E+I+guess+its+one+of+these+cases+%28I+was+unable+to+find+any+detailed+evidence%2C+so+this+is+my+opinion%29++where+the+heritage+laws+stop+people+from+changing+the+building+enough+to+actually+save+it.+It+is+easier+to+let+it+just+sit+there.+Back+when+i+did+building+drafting+i+looked+at+a+similar+situation+as+a+project.+One+possible+solution+is+to+internally+rebuild+it+using+prefabricated+concrete%2C+floor+and+walls.+Once+assembled+inside+you+would+bolt+the+existing+walls+onto+the+prefabricated+inner+shell.+Allowing+you+to+keep+the+external+beauty+and+make+the+church+usable+again.+Who+knows+they+may+already+have+a+plan%2C+i+hope+so+i+hate+to+see+buildings+like+this+fade+away.%0A%0AThis+church+is+at+10+William+Street+Morphett+Vale"}
{"id":318432760,"url":"http://farm1.staticflickr.com/124/318432760_a103a256b4.jpg","path":"a6c/cb8/a6ccb8ef4fde70c26f2c348d01288ce.jpg","date":"2006-12-10","year":2006,"month":12,"lon":138.78172,"lat":-35.50215,"tags":"2006,australia,christmas,fleurieu,goolwa,parade,southaustralia,street+parade,xmas","S2CellId":"537dc00000000000","result":6064,"accuracy":0.03034655,"title":"In+the+parade","description":"One+of+the+%27floats%27+in+the+Goolwa+Pageant+on+10th+Dec.+2006"}
{"id":2597294104,"url":"http://farm4.staticflickr.com/3213/2597294104_67cc238703.jpg","path":"139/6b2/1396b28ffae6e21a69bba66865f5da4a.jpg","date":"2008-06-21","year":2008,"month":6,"lon":138.8824,"lat":-35.544483,"tags":"australia,bird,egret,fleurieu,hindmarshisland,southaustralia,water","S2CellId":"89a4000000000000","result":8776,"accuracy":0.09912926,"title":"Egret","description":"Egret+sitting+on+the+jetty"}
{"id":8664340189,"url":"http://farm9.staticflickr.com/8252/8664340189_09d6130c45.jpg","path":"f16/6ac/f166ac2d5cedfd40a2e6b533904826.jpg","date":"2013-04-20","year":2013,"month":4,"lon":138.3618,"lat":-35.43849,"tags":"art,festival,leafy-sea-dragon,south+australia,yankalilla","S2CellId":"80d9700000000000","result":7306,"accuracy":0.02308527,"title":"IMG_1595","description":"Mulberry+Farm+Sculpture+Walk"}
{"id":10299856603,"url":"http://farm3.staticflickr.com/2850/10299856603_1de7453438.jpg","path":"dd7/252/dd725239b85f8b44f91f4795da05b.jpg","date":"2013-09-06","year":2013,"month":9,"lon":138.53604,"lat":-35.18436,"tags":"artwork,clouds,d%27arenberg,mclaren+vale,sky,south+australia,trees,wine+region","S2CellId":"2a32a50000000000","result":1500,"accuracy":0.044938006,"title":"Ever+So+Green","description":"d%27Arenberg+Winery+on+our+wine+tour+of+the+McLaren+Vale+September+6%2C+2013+South+Australia.%0A%0Ad%27Arenberg+is+an+Australian+wine+company+founded+in+1912.+All+of+their+vineyards+are+located+in+South+Australia%27s+McLaren+Vale%2C+although+some+of+the+wines+they+make+are+produced+from+grapes+sourced+from+the+Adelaide+Hills+and+Fleurieu+Peninsula.+It+is+now+owned+by+the+fourth+generation+of+the+Osborn+family%2C+headed+by+Chester+Osborn.+d%27Arenberg+are+known+for+the+quirky+names+of+their+wines%2C+and+their+specialism+in+the+vines+of+the+Rhone+valley.+They+also+produce+many+of+their+wines+in+a+traditional+manner%2C+using+basket+pressing+for+both+reds+and+whites+%28the+only+winery+in+Australia+to+do+so%29%5Bcitation+needed%5D+and+leaving+the+vast+majority+of+the+red+wines+unfiltered+and+unfined+which+can+cause+the+wine+to+throw+a+sediment+in+bottle+but+leaves+the+flavour+intact.+The+majority+of+their+red+wines+are+suitable+for+ageing+as+well+as+for+drinking+fairly+young+and+even+the+cheaper+wines+show+very+well+after+a+few+years+in+bottle.+Perhaps+their+best+known+wine+is+%27The+Dead+Arm+Shiraz%27%2C+made+from+fungus-infected+shiraz+grape+vines.%0ATaken+from+and+for+More+Info%3A+%3Ca+href%3D%22http%3A%2F%2Fen.wikipedia.org%2Fwiki%2FD%27Arenberg%22+rel%3D%22nofollow%22%3Een.wikipedia.org%2Fwiki%2FD%2527Arenberg%3C%2Fa%3E%0A%0AAll+about+the+McLaren+Vale+Valley%3A+%3Ca+href%3D%22http%3A%2F%2Fen.wikipedia.org%2Fwiki%2FMcLaren_Vale%22+rel%3D%22nofollow%22%3Een.wikipedia.org%2Fwiki%2FMcLaren_Vale%3C%2Fa%3E"}
{"id":2747455805,"url":"http://farm4.staticflickr.com/3243/2747455805_f0c946b66b.jpg","path":"824/6ff/8246ffdf25c020c3bb3282c826e094.jpg","date":"2008-02-08","year":2008,"month":2,"lon":138.534,"lat":-35.189453,"tags":"2008,australia,friends,sa,wine","S2CellId":"0716c00000000000","result":92,"accuracy":0.01966192,"title":"McLaren+Vale","description":"at+the+chilli+farm"}
{"id":5807354094,"url":"http://farm4.staticflickr.com/3398/5807354094_c760cfee0a.jpg","path":"e52/3ad/e523ad015cc6e74237a6f36037b30.jpg","date":"2008-12-04","year":2008,"month":12,"lon":138.82666,"lat":-35.532043,"tags":"goolwa","S2CellId":"87c5000000000000","result":7979,"accuracy":0.01126941,"title":"DSCF9263"}
{"id":63832931,"url":"http://farm1.staticflickr.com/34/63832931_eac41184f9.jpg","path":"714/baa/714baaf779e851d8b4cf343f82fbb11.jpg","date":"2005-11-16","year":2005,"month":11,"lon":138.6006,"lat":-35.028942,"tags":"animal,australia,bread,ezcreate,feed,feeding,fingers,gardens,green,mouth,national,native,native+species,neck,park,plants,shell,south+australia,turtle,turtles,turtles+feeding,water,wittunga","S2CellId":"9aab000000000000","result":9926,"accuracy":0.033496693,"title":"Don%27t+Make+Me+Come+Up+There+and+Eat+Your+Finger+Too%21","description":"Couldn%27t+see+much+down+their+throat%2C+not+even+teeth+-+yet+they+clamped+onto+the+bread+quite+well."}
{"id":10837467725,"url":"http://farm4.staticflickr.com/3811/10837467725_1855b9858d.jpg","path":"152/c52/152c52724da8ce8a5aaebf21534a9ea.jpg","date":"2013-11-08","year":2013,"month":11,"lon":138.8594,"lat":-35.069664,"tags":"coat,feeding,grass,grazing,horse,mt+barker,purple","S2CellId":"1740000000000000","result":1415,"accuracy":0.024083376,"title":"Grazing+Horse+with+Purple+Coat"}
{"id":3464897679,"url":"http://farm4.staticflickr.com/3540/3464897679_420739d4a8.jpg","path":"341/a32/341a32c3cbd2b219161fa6fd717177a2.jpg","date":"2009-04-22","year":2009,"month":4,"lon":138.50978,"lat":-35.04384,"tags":"coast,marino,marino+rocks,mc,rocks,sea","S2CellId":"4cad000000000000","result":5833,"accuracy":0.09879112,"title":"Michael+Gazing"}
{"id":5806664022,"url":"http://farm3.staticflickr.com/2311/5806664022_b55329562e.jpg","path":"d4a/964/d4a964b79af943f1df6799316fee641c.jpg","date":"2010-11-11","year":2010,"month":11,"lon":138.82666,"lat":-35.532043,"tags":"goolwa,saltmarsh","S2CellId":"12a4740000000000","result":691,"accuracy":0.017359797,"title":"goolwa+104"}
{"id":9022877045,"url":"http://farm8.staticflickr.com/7329/9022877045_472aa8cc08.jpg","path":"108/47d/10847d7e96f2e7b532d20de302ae5f.jpg","date":"2013-06-09","year":2013,"month":6,"lon":138.86102,"lat":-35.067986,"tags":"christianity,church,mt+barker,religion,tower,veranda","S2CellId":"6b2c000000000000","result":6729,"accuracy":0.033558734,"title":"Religious+Environment"}
{"id":12497656973,"url":"http://farm8.staticflickr.com/7329/12497656973_e261585a2f.jpg","path":"e3b/735/e3b735b761495d4a15ad1bc4a456e9a.jpg","date":"2014-01-26","year":2014,"month":1,"lon":138.51363,"lat":-35.01425,"tags":"brighton,circle,females,generations,holding+hands,protection,security,trust","S2CellId":"40e4000000000000","result":2711,"accuracy":0.04781595,"title":"Circle+of+Trust"}
{"id":5806736725,"url":"http://farm4.staticflickr.com/3020/5806736725_f568ff7249.jpg","path":"6c1/1ac/6c11accf35c52c71f63738c23acb13fa.jpg","date":"2008-02-26","year":2008,"month":2,"lon":138.82666,"lat":-35.532043,"tags":"goolwa","S2CellId":"1bc0000000000000","result":1443,"accuracy":0.017991498,"title":"DSCF3355"}
{"id":5391190570,"url":"http://farm6.staticflickr.com/5297/5391190570_c4a78294f7.jpg","path":"67e/9f2/67e9f243f8bf7bc69167d5f937f8b8e.jpg","date":"2011-01-27","year":2011,"month":1,"lon":138.88693,"lat":-35.544796,"tags":"australia,clouds,sky,sunrise,water","S2CellId":"88db500000000000","result":8610,"accuracy":0.03617173,"title":"Sunrise+27-1-11","description":"Sunrise+on+Hindmarsh+Island%2C+Australia"}
{"id":36155176,"url":"http://farm1.staticflickr.com/26/36155176_4d1b0f1b64.jpg","path":"5e1/2ba/5e12ba39e3e36fc7b9b2f9973b9cd51d.jpg","date":"2005-01-26","year":2005,"month":1,"lon":138.79578,"lat":-35.07623,"tags":"wedding","S2CellId":"475d000000000000","result":3308,"accuracy":0.012832353,"title":"Reception+area","description":"Reception+area+before+all+of+the+excitement."}
{"id":8679671072,"url":"http://farm9.staticflickr.com/8257/8679671072_3d54013f37.jpg","path":"3f1/66b/3f166bd3445f3b6fdff68156adede4c.jpg","date":"2013-04-25","year":2013,"month":4,"lon":138.88354,"lat":-35.543922,"tags":"anzac,anzacday,australia,cloud,fleurieu,sun,sunrise,water","S2CellId":"88d0a631cabb5071","result":8563,"accuracy":0.046786923,"title":"Dawn+25-4-2013","description":"Dawn+for+Anzac+Day+25+April+in+Australia+on+Hindmarsh+Island.%0A%0AThey+shall+grow+not+old%2C+as+we+that+are+left+grow+old%3B%0AAge+shall+not+weary+them%2C+nor+the+years+condemn.%0AAt+the+going+down+of+the+sun+and+in+the+morning%0AWe+will+remember+them"}
{"id":7794616628,"url":"http://farm9.staticflickr.com/8304/7794616628_6258baf8e4.jpg","path":"bfe/774/bfe774fdcfc7041cff10e6e5ed084.jpg","date":"2012-08-13","year":2012,"month":8,"lon":138.56085,"lat":-35.017765,"tags":"bugs,bush,concrete,curved,display,information,insects,installation,metallic,park,public+art,shiny,warriparinga","S2CellId":"6b17c00000000000","result":6723,"accuracy":0.031735826,"title":"Displaying+the+Water+Life"}
{"id":10353708883,"url":"http://farm6.staticflickr.com/5538/10353708883_332a97fb04.jpg","path":"ec8/e42/ec8e42961795da28cc11f198d6fa9141.jpg","date":"2013-10-18","year":2013,"month":10,"lon":138.80862,"lat":-35.52591,"tags":"bird,cormorant,goolwa","S2CellId":"8620a54000000000","result":7507,"accuracy":0.32020277,"title":"Great+Cormorant"}
{"id":5806916493,"url":"http://farm3.staticflickr.com/2639/5806916493_247b8b46f3.jpg","path":"65b/f9a/65bf9a6f0e8ba41f0d4f858b8a8ffc.jpg","date":"2009-12-13","year":2009,"month":12,"lon":138.82666,"lat":-35.532043,"tags":"goolwa","S2CellId":"12cbc00000000000","result":869,"accuracy":0.019059135,"title":"Photo0350"}
{"id":5309932989,"url":"http://farm6.staticflickr.com/5243/5309932989_6a4a70ef0c.jpg","path":"81d/eb2/81deb29f81187e317f2beafa5efc58.jpg","date":"2011-01-01","year":2011,"month":1,"lon":138.88997,"lat":-35.545284,"tags":"1-1-11,australia,jetty,sky,sunrise,water","S2CellId":"89a4000000000000","result":8776,"accuracy":0.10243724,"title":"Sunrise+1-1-11","description":"There+was+no+sun+to+be+seen+because+of+the+heavy+cloud+cover+but+the+water+reflected+the+pinkness+of+the+hidden+sunrise.+It+was+also+spotting+with+rain.+Sunrise+on+1-1-11+at+6%3A05+AM++Duration+of+day%3A+14+hours%2C+27+minutes+%2831+seconds+shorter+than+yesterday%29"}
{"id":10877201224,"url":"http://farm8.staticflickr.com/7332/10877201224_230ccd5902.jpg","path":"aac/35c/aac35cd7db35321725d5db7e8e7e87a.jpg","date":"2013-11-09","year":2013,"month":11,"lon":138.76558,"lat":-35.103413,"tags":"camouflaged,echunga,gate,grass,gum+trees,overgrown,peace","S2CellId":"6acc000000000000","result":6609,"accuracy":0.1014563,"title":"Gate+to+Peace"}
{"id":2550084091,"url":"http://farm4.staticflickr.com/3080/2550084091_249bd184bd.jpg","path":"918/ada/918adae41ce6bcb20c4ce6c9dc23a1e.jpg","date":"2008-05-27","year":2008,"month":5,"lon":138.71248,"lat":-35.02165,"tags":"heathfield+high+school+2008+hot+jazz","S2CellId":"00a6990000000000","result":54,"accuracy":0.016260313,"title":"2008+Hot+Jazz"}
{"id":2875169704,"url":"http://farm4.staticflickr.com/3224/2875169704_bb1fc31a66.jpg","path":"484/f74/484f7469c5c5bbfa8a9b6f8f1a8b9b47.jpg","date":"2008-09-07","year":2008,"month":9,"lon":138.78073,"lat":-35.502445,"tags":"boats,fleurieu,goolwa,model,murraysmith,smith","S2CellId":"808f9c0000000000","result":7050,"accuracy":0.076200575,"title":"Model+boats","description":"The+boats+all+lined+up+with+their+owners+on+the+grass."}
{"id":4284078499,"url":"http://farm5.staticflickr.com/4004/4284078499_10c4e48b67.jpg","path":"be1/883/be18831c505a9d22641a64d294455.jpg","date":"2010-01-16","year":2010,"month":1,"lon":138.7078,"lat":-35.50941,"tags":"bikini,comp,festival,girls,heatwave,hip-hop,live,middleton,music,rap","S2CellId":"85d2010000000000","result":7483,"accuracy":0.20223384,"title":"Bikini+comp","description":"%3Ca+href%3D%22http%3A%2F%2Fwww.fasterlouder.com.au%2Fgallery%2F13761%2FHeatwave-ft-Xzibit-.htm%22+rel%3D%22nofollow%22%3Ewww.fasterlouder.com.au%2Fgallery%2F13761%2FHeatwave-ft-Xzibit-...%3C%2Fa%3E"}
{"id":9034321442,"url":"http://farm3.staticflickr.com/2857/9034321442_1f335120c8.jpg","path":"63f/f95/63ff955c37a32cc1bb5213255a66a6b.jpg","date":"2013-06-09","year":2013,"month":6,"lon":138.7756,"lat":-35.103264,"tags":"backyard,echunga,house,log,play,toys,wheelbarrow","S2CellId":"6ab0b00000000000","result":6591,"accuracy":0.13433062,"title":"Happy+House"}
{"id":3438152792,"url":"http://farm4.staticflickr.com/3338/3438152792_b154e6d957.jpg","path":"27b/08e/27b08e64b7e90d46e5530415e1f3ab8.jpg","date":"2009-04-13","year":2009,"month":4,"lon":138.50978,"lat":-35.04384,"tags":"coast,fishermen,fishing,marino,rock+fishing,sea,sunset","S2CellId":"12d35c0000000000","result":909,"accuracy":0.046334453,"title":"Fishing+from+Rocks"}
{"id":2856026906,"url":"http://farm4.staticflickr.com/3055/2856026906_69fb0a7824.jpg","path":"737/aec/737aecde22404c429fa2149db1af934.jpg","date":"2008-09-14","year":2008,"month":9,"lon":138.62437,"lat":-35.55695,"tags":"south+australia,victor+harbor","S2CellId":"477bd00000000000","result":3447,"accuracy":0.054491214,"title":"Clydesdale","description":"These+huge+horses+single+hoofedly+pull+the+Trams+across+to+Granite+Island%2C+Victor+Harbor"}
{"id":2867452820,"url":"http://farm4.staticflickr.com/3081/2867452820_bb093094ea.jpg","path":"8f8/8ac/8f88acdee84b842a1776a72d7734390.jpg","date":"2008-09-06","year":2008,"month":9,"lon":138.82666,"lat":-35.532043,"tags":"goolwa","S2CellId":"89fb400000000000","result":9399,"accuracy":0.02494818,"title":"Goolwa"}
{"id":5764904473,"url":"http://farm4.staticflickr.com/3294/5764904473_001124e302.jpg","path":"2ca/82a/2ca82a63739d3bc1d7b09532fd27b844.jpg","date":"2011-04-26","year":2011,"month":4,"lon":138.68369,"lat":-35.537674,"tags":"australia,fleurieu+peninsula,port+elliot,south+australia","S2CellId":"0d1b400000000000","result":239,"accuracy":0.07393353,"title":"Pt+Elliot","description":"26+April+2011%0A%0APt+Elliot"}
{"id":8373051261,"url":"http://farm9.staticflickr.com/8356/8373051261_f28fcbcea5.jpg","path":"834/871/834871d2f3d7ef62295b934dca4c4287.jpg","date":"2012-09-01","year":2012,"month":9,"lon":138.44766,"lat":-35.327335,"tags":"%D0%B0%D0%B2%D1%81%D1%82%D1%80%D0%B0%D0%BB%D0%B8%D1%8F,%D0%B0%D0%B4%D0%B5%D0%BB%D0%B0%D0%B8%D0%B4%D0%B0,%D1%81%D0%B5%D0%BB%D0%B8%D0%BA%D1%81+%D0%B1%D0%B8%D1%87,%D1%8E%D0%B6%D0%BD%D0%B0%D1%8F+%D0%B0%D0%B2%D1%81%D1%82%D1%80%D0%B0%D0%BB%D0%B8%D1%8F,australia,south+australia","S2CellId":"4872c00000000000","result":5082,"accuracy":0.02221872,"title":"IMG_2590"}
{"id":5306199018,"url":"http://farm6.staticflickr.com/5087/5306199018_4f539c9138.jpg","path":"cc2/bde/cc2bdeb321556d90fd76f9a290820d.jpg","date":"2010-11-20","year":2010,"month":11,"lon":138.4947,"lat":-35.19004,"tags":"photography,wedding","S2CellId":"80e8240000000000","result":7393,"accuracy":0.017535593,"title":"Sally216"}
{"id":186185637,"url":"http://farm1.staticflickr.com/72/186185637_11f5c9eb43.jpg","path":"866/c61/866c614c026d5baea60f283ea7ffe1.jpg","date":"2006-07-09","year":2006,"month":7,"lon":138.8792,"lat":-35.54368,"tags":"sea,water","S2CellId":"88d0a631cabb5071","result":8563,"accuracy":0.028329087,"title":"Sunrise+10-7-2006","description":"Sunrise+on+Mundoo+Channel+Hindmarsh+Island+July+2006"}
{"id":9687331620,"url":"http://farm8.staticflickr.com/7451/9687331620_ce0e22e0d2.jpg","path":"6ee/45f/6ee45fba3edfe76da2361288429ec630.jpg","date":"2012-12-13","year":2012,"month":12,"lon":138.81067,"lat":-35.031155,"tags":"50mm,a850,australia,hahndorf,schneider+kreuznach,south+australia","S2CellId":"3e2c000000000000","result":2583,"accuracy":0.0049511082,"title":"Hahndorf17"}
{"id":3277059817,"url":"http://farm4.staticflickr.com/3467/3277059817_c97310167f.jpg","path":"449/79c/44979ce6a85bb66764c1e8d53a6b74a8.jpg","date":"2009-02-14","year":2009,"month":2,"lon":138.89337,"lat":-35.5448,"tags":"australia,bird,black,hindmarsh+osland,nature,southaustralia,swan,water","S2CellId":"0d63100000000000","result":535,"accuracy":0.015735235,"title":"Black+swans"}
{"id":8674319511,"url":"http://farm9.staticflickr.com/8521/8674319511_6d4a6162a0.jpg","path":"c26/9e5/c269e58f6b54731db41345ede7442e7e.jpg","date":"2013-04-12","year":2013,"month":4,"lon":138.46927,"lat":-35.129738,"tags":"christie%27s+beach,disused,infrastructure,port+stanvac,sunset,wharf","S2CellId":"80dd311000000000","result":7373,"accuracy":0.06250524,"title":"Stanvac+Wharf"}
{"id":196653049,"url":"http://farm1.staticflickr.com/77/196653049_d61aa970f3.jpg","path":"cb7/450/cb7450a2f56aacecfa23e419ac8ce1.jpg","date":"2006-07-23","year":2006,"month":7,"lon":138.88202,"lat":-35.54539,"tags":"australia,flat,flat+stanley,stanley","S2CellId":"879c000000000000","result":7927,"accuracy":0.0063064485,"title":"Dimi","description":"Dimi+and+Stanley+sit+around+relaxing.%0A%0AFollow+Stanley%27s+adventures+while+visiting+Australia.%0A%3Ca+href%3D%22http%3A%2F%2Fflatstanleyinoz.blogspot.com%22%3Eflatstanleyinoz.blogspot.com%3C%2Fa%3E"}
{"id":5315626381,"url":"http://farm6.staticflickr.com/5165/5315626381_b89ca69dbc.jpg","path":"dbd/c21/dbdc21ddb3337bd2936f441a4d6ae5f0.jpg","date":"2011-01-02","year":2011,"month":1,"lon":138.78625,"lat":-35.50271,"tags":"concrete,goolwa,pylon,rising,river+murray,sail,water+level,yacht","S2CellId":"866c000000000000","result":7681,"accuracy":0.063993506,"title":"Concrete+and+Wind"}
{"id":9399365960,"url":"http://farm6.staticflickr.com/5472/9399365960_cf1c74d4e8.jpg","path":"979/bf6/979bf6756c526f6da9b571310a9999a.jpg","date":"2013-07-30","year":2013,"month":7,"lon":138.70128,"lat":-35.518845,"tags":"australia,blowing,middleton,south+australia,southern-right-whale,whale","S2CellId":"489f000000000000","result":5781,"accuracy":0.02507776,"title":"Southern+Right+Whales","description":"Thar+she+blows"}
{"id":5807291120,"url":"http://farm3.staticflickr.com/2784/5807291120_2a589e513a.jpg","path":"a8a/a81/a8aa815d7747b51da5d212e4b568aee6.jpg","date":"2008-02-26","year":2008,"month":2,"lon":138.82666,"lat":-35.532043,"tags":"goolwa","S2CellId":"89a4000000000000","result":8776,"accuracy":0.030282216,"title":"DSCF3343"}
{"id":4844468039,"url":"http://farm5.staticflickr.com/4108/4844468039_4379e82164.jpg","path":"581/369/5813697a5b5135c586156e9bd60862.jpg","date":"2010-07-31","year":2010,"month":7,"lon":138.88208,"lat":-35.544796,"tags":"australia,cloud,fleurieu,jetty,sun,sunrise,water","S2CellId":"0d63100000000000","result":535,"accuracy":0.03505026,"title":"Sunrise+31-7-10","description":"Sunrise+31-7-10+Hindmarsh+Island%2C+Australia.+Watched+the+sun+rise+with+%40Snuva+who+was+staying+with+me."}
{"id":6627007969,"url":"http://farm8.staticflickr.com/7005/6627007969_cc8a0059e2.jpg","path":"2f2/09b/2f209b3249a72e70689a6bbd2ed2e0ad.jpg","date":"2011-12-28","year":2011,"month":12,"lon":138.59988,"lat":-35.591824,"tags":"landscape,seascape,sunrise","S2CellId":"0c60500000000000","result":148,"accuracy":0.07337063,"title":"Sunrise","description":"Decided+to+get+up+early+on+the+day+after+the+Light+on+the+Land+workshop+for+a+sunrise+shot.+It+was+very+overcast+and+I+only+had+a+couple+of+minutes+between+the+sun+rising+and+disappearing+behind+the+clouds."}
{"id":9037975206,"url":"http://farm6.staticflickr.com/5466/9037975206_1920a2d4bc.jpg","path":"c3b/0b3/c3b0b3a6bf4b7e4a9d7f8a1e28de4d4.jpg","date":"2013-06-12","year":2013,"month":6,"lon":138.82884,"lat":-35.515896,"tags":"12+of+12,crew,electricity,hindmarsh+island,power","S2CellId":"12a6f00000000000","result":767,"accuracy":0.024147153,"title":"Electricty+crews+working","description":"Those+of+you+who+know+me+know+I+often+report+that+the+power+has+gone+out.+Well+it+happened+this+afternoon+on+the+island+and+on+my+way+home+from+the+museum+I+saw+the+electricity+crews+repairing+the+lines+on+Monument+road."}
{"id":5304069741,"url":"http://farm6.staticflickr.com/5130/5304069741_bed6a7eed3.jpg","path":"72a/158/72a1584354b91efa2ddbb8844dad1127.jpg","date":"2010-11-20","year":2010,"month":11,"lon":138.4947,"lat":-35.19004,"tags":"nature,scenery,wallpaper","S2CellId":"2b40000000000000","result":1520,"accuracy":0.1604672,"title":"City+On+A+Hill+%28Thumbnail%29"}
{"id":12791172944,"url":"http://farm8.staticflickr.com/7441/12791172944_7056c57131.jpg","path":"1ac/497/1ac4972959da7f088e141cb455cf5f.jpg","date":"2014-02-26","year":2014,"month":2,"lon":138.30772,"lat":-35.44613,"tags":"beach,normanville,south+australia","S2CellId":"5140000000000000","result":5964,"accuracy":0.009614955,"title":"Beach+Camping+Trip","description":"Normanville%2C+SA"}
{"id":380129578,"url":"http://farm1.staticflickr.com/147/380129578_2f071e7f21.jpg","path":"e72/945/e72945571e6910a3747762ea8105212.jpg","date":"2007-02-05","year":2007,"month":2,"lon":138.80196,"lat":-35.512035,"tags":"australia,fleurieu,hindmarsh+island,marina,southaustralia","S2CellId":"89a4000000000000","result":8776,"accuracy":0.04548415,"title":"Waterways+and+houses","description":"Housing+and+waterways+at+the+Marina+Hindmarsh+Island"}
{"id":4827540963,"url":"http://farm5.staticflickr.com/4136/4827540963_c431ee1051.jpg","path":"8e3/0cf/8e30cf534ac7b79b3673b056dcd2ca2f.jpg","date":"2010-07-02","year":2010,"month":7,"lon":138.5706,"lat":-35.286648,"tags":"2010,australia,clouds,colour,sunset,water,willunga","S2CellId":"2bfc000000000000","result":1527,"accuracy":0.039353304,"title":"Willunga%2C+Australia+%2852%29"}
{"id":252204062,"url":"http://farm1.staticflickr.com/97/252204062_a333fdfc1d.jpg","path":"a5d/95d/a5d95de720f345dc8557fc119de454c0.jpg","date":"2006-09-24","year":2006,"month":9,"lon":138.8883,"lat":-35.546124,"tags":"australia,clouds,hindmarshisland,scenicwater,sky,southaustralia,sun,sunrise,water","S2CellId":"89c1c00000000000","result":8931,"accuracy":0.025383249,"title":"Sunrise+24-9-06","description":"Sunrise+on+Mundoo+Channel+Hindmarsh+Island"}
{"id":1520304733,"url":"http://farm3.staticflickr.com/2122/1520304733_22e3e516a7.jpg","path":"ff4/3dc/ff43dc6eaf3653d4772d88c8b5eb5d.jpg","date":"2007-10-08","year":2007,"month":10,"lon":138.87617,"lat":-35.0748,"tags":"boat,boatbuilding,bote+cote,construction,epoxy,glue,goat,island,plywood,skiff,stitch,west+system","S2CellId":"548ff00000000000","result":6177,"accuracy":0.041466974,"title":"PA080730"}
{"id":303952680,"url":"http://farm1.staticflickr.com/107/303952680_dc921670f5.jpg","path":"ab1/357/ab1357926114c88f8b43d24135fe7987.jpg","date":"2006-11-23","year":2006,"month":11,"lon":138.77809,"lat":-35.50526,"tags":"bird,garbage,ibis,scavenger,urban","S2CellId":"8819ad0000000000","result":8204,"accuracy":0.02317711,"title":"Urban+ferals","description":"Ibis+birds+scavenging+through+the+garbage+bins+in+the+shopping+centre.+I+notice+these+birds+aren%27t+the+nice+white+colour+that+I+normally+see%2C+they+are+a+dirty+grey"}
{"id":405594897,"url":"http://farm1.staticflickr.com/135/405594897_39bedbc1af.jpg","path":"af9/d91/af9d91d9cdcdd6ce7ae0b89068cb16fb.jpg","date":"2007-02-25","year":2007,"month":2,"lon":138.8792,"lat":-35.54368,"tags":"clouds,moon,sky,sunset","S2CellId":"88d0a631cabb5071","result":8563,"accuracy":0.01413994,"title":"Sunset+and+moon","description":"As+the+sun+set+the+1%2F2+moon+was+cradled+by+the+clouds"}
{"id":6144079668,"url":"http://farm7.staticflickr.com/6161/6144079668_e42b85af35.jpg","path":"33f/488/33f488d0bad58fd856778c27c11533a.jpg","date":"2011-08-20","year":2011,"month":8,"lon":138.45703,"lat":-35.29271,"tags":"aldinga+scrub+conservation+park,fanflower,goodeniaceae,scaevola+albida","S2CellId":"883c400000000000","result":8355,"accuracy":0.012603637,"title":"Scaevola+albida","description":"Goodeniaceae%3A+Fanflower%2C%0AAldinga+Scrub+Conservation+Park%2C%0ASouth+Australia."}
{"id":5020004138,"url":"http://farm5.staticflickr.com/4105/5020004138_f4dea36dfe.jpg","path":"11b/9d3/11b9d3209f2ed45ece388e45ac3ee174.jpg","date":"2010-09-16","year":2010,"month":9,"lon":138.63402,"lat":-35.5187,"tags":"ef-s60mm+f%2F2.8+macro+usm,garden,infloresence,leaf,plants","S2CellId":"12a4740000000000","result":691,"accuracy":0.030801151,"title":"Hakea+newbeyana+%28Proteaceae%29"}
{"id":497552908,"url":"http://farm1.staticflickr.com/226/497552908_95b5b167c6.jpg","path":"23d/573/23d5739bc5911d22fcb588c92aa88c2.jpg","date":"2007-05-05","year":2007,"month":5,"lon":138.2535,"lat":-35.581314,"tags":"24hoursofflickr,australia,crows,fleurieu,flickr24,may+5th+2007,may5,parawa,southaustralia,streetart","S2CellId":"6ad6300000000000","result":6616,"accuracy":0.07860269,"title":"Sitting+on+the+fence","description":"At+Parawa+footballer+crows+make+a+colouful+display+on+a+fence"}
{"id":2835545229,"url":"http://farm4.staticflickr.com/3025/2835545229_232b880443.jpg","path":"466/b23/466b23fbb0c89188a6648a50ae369f1.jpg","date":"2008-09-07","year":2008,"month":9,"lon":138.58533,"lat":-35.047993,"tags":"flood,rain,storm","S2CellId":"6b9c000000000000","result":6776,"accuracy":0.025757525,"title":"Storm+aftermath.","description":"Downpour+for+15+minutes+-+Backyard+a+bit+%22moist%22.."}
{"id":5369975719,"url":"http://farm6.staticflickr.com/5170/5369975719_efe38b0a0b.jpg","path":"77d/9be/77d9be235dbba22f0b14f827fad3d3b.jpg","date":"2011-01-16","year":2011,"month":1,"lon":138.2777,"lat":-35.484158,"tags":"adelaide+to+kangaroo+island,ferry,island,kangaroo,kangaroo+island,sa,sealink,south+australia,trip","S2CellId":"8093000000000000","result":7088,"accuracy":0.19922772,"title":"IMG_1196"}
{"id":1963329166,"url":"http://farm3.staticflickr.com/2122/1963329166_5a7b8dcffd.jpg","path":"fe2/edc/fe2edcdc3ea7d2e3b1c52dc49d63036.jpg","date":"2005-05-20","year":2005,"month":5,"lon":138.46927,"lat":-35.139282,"tags":"lifesaving,seacliff,surf+life+saving","S2CellId":"4804400000000000","result":4751,"accuracy":0.14697619,"title":"P5200192.JPG"}
{"id":8036467443,"url":"http://farm9.staticflickr.com/8170/8036467443_4d1cf70481.jpg","path":"c2e/4ff/c2e4ff18bf15f27d0c8e322834e19a5.jpg","date":"2012-09-29","year":2012,"month":9,"lon":138.24605,"lat":-35.500393,"tags":"instagram+app,iphoneography,lo-fi,square,square+format","S2CellId":"808ff00000000000","result":7083,"accuracy":0.102102526,"title":"Finding+my+path.+%23grass+%23skyporn+%23skysnappers+%23skystyles_gf+%23gf_daily+%23green+%23gang_family+%23picoftheday+%23adelaide+%23wirrina+%23iphonesia+%23iphoneonly+%23instagramadelaide+%23insomniagram"}
{"id":381357944,"url":"http://farm1.staticflickr.com/170/381357944_abbb4e89a5.jpg","path":"dd9/789/dd9789982cc11a3e5814e4a41581e.jpg","date":"2007-02-05","year":2007,"month":2,"lon":138.57921,"lat":-35.034714,"tags":"steak,steakclub","S2CellId":"6b915b4000000000","result":6764,"accuracy":0.08315717,"title":"SteakClub+008"}
{"id":2609435048,"url":"http://farm4.staticflickr.com/3060/2609435048_c9367c48ab.jpg","path":"924/4f8/9244f8e9e3c2cfa654b2357ed96ec0.jpg","date":"2008-06-25","year":2008,"month":6,"lon":138.78317,"lat":-35.50203,"tags":"australia,barge,cadell,dart,fleurieu,goolwa,longload,oversize,southaustralia,truck","S2CellId":"808fcb0000000000","result":7069,"accuracy":0.06196075,"title":"Dart+turning","description":"The+barge+Dart+on+the+low-loader+makes+a+successful+turn+into+Cadell+St%2C+Goolwa"}
{"id":8273807863,"url":"http://farm9.staticflickr.com/8486/8273807863_cd3bf2dbae.jpg","path":"1ca/a26/1caa26e41ff79e71b436877a4fc4a63e.jpg","date":"2012-12-15","year":2012,"month":12,"lon":138.50417,"lat":-35.308666,"tags":"fangupload","S2CellId":"5373000000000000","result":6056,"accuracy":0.0071057016,"title":"View+from+tonight%27s+stage"}
{"id":2739839038,"url":"http://farm4.staticflickr.com/3208/2739839038_96384c0fed.jpg","path":"a5a/3f7/a5a3f72a05ec1bcda7f6e38ab28a86.jpg","date":"2008-08-05","year":2008,"month":8,"lon":138.82666,"lat":-35.532043,"tags":"goolwa,sunrise","S2CellId":"89c1c00000000000","result":8931,"accuracy":0.045448318,"title":"DSCF5296"}
{"id":7010002107,"url":"http://farm8.staticflickr.com/7041/7010002107_fd2633dd7e.jpg","path":"8e2/136/8e2136d6f39b235b1225d31c91fcc88e.jpg","date":"2012-03-14","year":2012,"month":3,"lon":138.78484,"lat":-35.513332,"tags":"photo+stream","S2CellId":"6d0d47f000000000","result":6797,"accuracy":0.003430924,"title":"Andy"}
{"id":5301799954,"url":"http://farm6.staticflickr.com/5243/5301799954_14f5c1c542.jpg","path":"ff4/be2/ff4be2e3fada74f1c8bb894086d612e8.jpg","date":"2010-12-28","year":2010,"month":12,"lon":138.68332,"lat":-35.020508,"tags":"adelaide,sturt+valley,sunset","S2CellId":"2cb0000000000000","result":1530,"accuracy":0.014304735,"title":"Sunset+with+kookaburra"}
{"id":364257264,"url":"http://farm1.staticflickr.com/125/364257264_e5a7522214.jpg","path":"aa1/b68/aa1b6851faffb6fec83fceeb4f2602c.jpg","date":"2007-01-21","year":2007,"month":1,"lon":138.8824,"lat":-35.544483,"tags":"australia,fleurieu,hindmarsh+island,pelican,southaustralia,water","S2CellId":"4cb29d0000000000","result":5845,"accuracy":0.017409593,"title":"3+Pelicans","description":"These+pelicans+were+roosting+on+the+jetty+ruins"}
{"id":12145265524,"url":"http://farm8.staticflickr.com/7343/12145265524_ee9250ffb7.jpg","path":"59f/f5c/59ff5cdea9b1c0bbf3a5ad1ade4c6d0.jpg","date":"2014-01-26","year":2014,"month":1,"lon":138.78662,"lat":-35.503334,"tags":"milang+to+goolwa+2014,race,sailing,yachts","S2CellId":"12a1100000000000","result":676,"accuracy":0.02794913,"title":"Racing"}
{"id":12532406194,"url":"http://farm4.staticflickr.com/3796/12532406194_7736ab5692.jpg","path":"c08/2dd/c082ddbf34e1be8a1e31486592d3bc8.jpg","date":"2014-02-15","year":2014,"month":2,"lon":138.90442,"lat":-35.499783,"tags":"alpaca,tamron-150-600","S2CellId":"182d000000000000","result":1421,"accuracy":0.020444646,"title":"Tamron+150-600+testing","description":"uncropped+%40+600mm"}
{"id":13634250304,"url":"http://farm3.staticflickr.com/2863/13634250304_33a793502f.jpg","path":"614/b20/614b20c3826e9db76a98fb1c6b76c0.jpg","date":"2014-04-03","year":2014,"month":4,"lon":138.70952,"lat":-35.513992,"tags":"kingtides,middleton,witness+king+tides","S2CellId":"487e6d0000000000","result":5637,"accuracy":0.029707836,"title":"Middleton%2C+SA+-+45+minutes+after+tide+peak","description":"Elizabeth+Resta+photo+3%2C+03%2F04%2F2014+04%3A13+PM"}
{"id":8229172142,"url":"http://farm9.staticflickr.com/8202/8229172142_e6b250fcdd.jpg","path":"75d/8fa/75d8fa20c39ebc3ff9e876ab32f9f59.jpg","date":"2012-11-02","year":2012,"month":11,"lon":138.624,"lat":-35.5566,"tags":"australia,matthew+flinders,matthew+flinders%27+cat,south+australia,statue,trim,victor+harbour","S2CellId":"80d9535400000000","result":7284,"accuracy":0.06645557,"title":"Statue+of+Matthew+Flinders+Cat","description":"Statue+of+Matthew+Flinders+Cat+at+the+Inormation+Centre+in+Victor+Harbour%2C+South+Australia.+Photographed+on+2+November+2012.%0A%0A%C2%A9%C2%A9+Audrey+Bendus+with+permission."}
{"id":6547521449,"url":"http://farm8.staticflickr.com/7006/6547521449_22c2728b4a.jpg","path":"b26/15c/b2615c83a8408ce4bdb4a61a9bc243de.jpg","date":"2011-12-10","year":2011,"month":12,"lon":138.97336,"lat":-35.011353,"tags":"flowering+tree","S2CellId":"6bd0000000000000","result":6778,"accuracy":0.123610124,"title":"IMG_0657"}
{"id":6913168483,"url":"http://farm8.staticflickr.com/7176/6913168483_423d0130c6.jpg","path":"ae6/888/ae688842c776affd4fe57721024d3.jpg","date":"2012-02-09","year":2012,"month":2,"lon":138.46992,"lat":-35.238224,"tags":"adelaide,australia,beach,maslin+beach","S2CellId":"4860400000000000","result":4839,"accuracy":0.059351776,"title":"maslin+beach","description":"Maslin+Beach+near+Adelaide%2C+Australia"}
{"id":8431648077,"url":"http://farm9.staticflickr.com/8329/8431648077_b2979725e4.jpg","path":"c96/98e/c9698e57408bcf08581dc9bdaa38df.jpg","date":"2013-01-22","year":2013,"month":1,"lon":138.62343,"lat":-35.548847,"tags":"art+deco,cinema,style,victor+harbour","S2CellId":"88d9b49400000000","result":8595,"accuracy":0.100087166,"title":"Cinema"}
