{"id":4766669158,"url":"http://farm5.staticflickr.com/4137/4766669158_dd8f81d2cc.jpg","path":"c6b/572/c6b5725a74a61b706335c22ee08344.jpg","date":"2010-07-03","year":2010,"month":7,"lon":-119.58057,"lat":44.6961,"tags":"john+day+national+monument,oregon,painted+hills+unit","S2CellId":"54bd000000000000","result":6296,"accuracy":0.8602783,"title":"Picture+017"}
{"id":8305931493,"url":"http://farm9.staticflickr.com/8502/8305931493_d8f2f7ea1c.jpg","path":"be0/dfd/be0dfd1bc9f6d2e57e2f328e5d3c2b5.jpg","date":"2012-09-28","year":2012,"month":9,"lon":-119.64386,"lat":44.724297,"tags":"america,amerika,asche,ash,beds,cascades,cathedral,colours,condon,county,curve,day,farben,fels,formation,fossilien,fossils,geologie,geology,gesteinsschichten,hills,john,kaskadenkette,kurve,lava,laven,mast,miocene,monument,national,oregon,painted,palaeontology,park,road,rock,state,strasse,strom,tuff,usa,volcanic,west,wheeler","S2CellId":"5481000000000000","result":6095,"accuracy":0.08711218,"title":"Oregon_on+the+road"}
{"id":4757305829,"url":"http://farm5.staticflickr.com/4138/4757305829_984cdf6430.jpg","path":"254/af3/254af3f7974efba57f1a911d839360.jpg","date":"2010-06-17","year":2010,"month":6,"lon":-119.63373,"lat":44.579403,"tags":"fossil,john+day,sheep+rock","S2CellId":"8739000000000000","result":7802,"accuracy":0.047850356,"title":"Hiking+around+the+Sheep+Rock+Unit","description":"John+Day+Fossil+Beds+National+Monument"}
{"id":2833953470,"url":"http://farm4.staticflickr.com/3265/2833953470_ff4386b545.jpg","path":"7f8/1bd/7f81bdb67f4ce323bdd4e5c5ba7a30bf.jpg","date":"2008-08-31","year":2008,"month":8,"lon":-119.639656,"lat":44.656384,"tags":"desert,john+day,landscape,nature,oregon,painted+hills","S2CellId":"54bd000000000000","result":6296,"accuracy":0.3011521,"title":"Painted+HIlls+22"}
{"id":4266196493,"url":"http://farm3.staticflickr.com/2712/4266196493_bc0486f4c1.jpg","path":"875/58b/87558ba8f6e7c17fe8f7ac01fe5f82a.jpg","date":"2010-01-09","year":2010,"month":1,"lon":-119.58057,"lat":44.6961,"tags":"on+the+road+to+john+day,oregon","S2CellId":"87d9c00000000000","result":8018,"accuracy":0.047987606,"title":"Picture+Gorge+%234"}
{"id":5496432034,"url":"http://farm6.staticflickr.com/5051/5496432034_20772f95d2.jpg","path":"6be/84f/6be84f12fcece8cdf788d52656217f1.jpg","date":"2011-02-26","year":2011,"month":2,"lon":-119.467735,"lat":44.465427,"tags":"%E2%80%9Ceastern+oregon%E2%80%9D,%E2%80%9Cscenic+byway%E2%80%9D,john+day+river,oregon,roadtrip,scenic,winter","S2CellId":"534e400000000000","result":6028,"accuracy":0.07113723,"title":"Journey+Through+Time+Scenic+Byway+13","description":"Had+a+beautiful+drive+across+Eastern+Oregon%2C+along+the+Journey+Through+Time+Scenic+Byway+from+Baker+City.++Stops+along+the+way+included+Prairie+City%2C+John+Day%2C+Dayville%2C+and+Mount+Vernon"}
