{"id":1317070627,"url":"http://farm2.staticflickr.com/1335/1317070627_846921231a.jpg","path":"eda/ccf/edaccf18884b7962cba3784f97c29e.jpg","date":"2007-08-12","year":2007,"month":8,"lon":-126.61194,"lat":50.63422,"tags":"cove,sailboat,telegraph","S2CellId":"5470000000000000","result":6094,"accuracy":0.53016704,"title":"DSC05247"}
{"id":1110578052,"url":"http://farm2.staticflickr.com/1414/1110578052_ba89d9ec7a.jpg","path":"c53/dd8/c53dd886ea9fd7397e613f747e864b3.jpg","date":"2007-08-05","year":2007,"month":8,"lon":-127.388016,"lat":50.73526,"tags":"bc,beaver+harbour,coast,heads,islands,kayak,kayaking,port+hardy,sea,seals,shore,vancouver+island","S2CellId":"5470000000000000","result":6094,"accuracy":0.49696082,"title":"Seal+heads","description":"Not+a+good+photo%2C+but+it+does+show+what+it+was+like+to+have+seals+bobbing+around+us%2C+popping+their+heads+above+water+then+sinking+down+again.+There+were+probably+about+twelve+of+them+around+us."}
{"id":7688906356,"url":"http://farm9.staticflickr.com/8154/7688906356_1808661382.jpg","path":"27f/446/27f446d268d31ebf50d5e5f7f1d58d7a.jpg","date":"2012-07-23","year":2012,"month":7,"lon":-128.69272,"lat":50.244556,"tags":"2012+alaska+cruise,at+sea","S2CellId":"487b450000000000","result":5565,"accuracy":0.0511795,"title":"20120723-K20B5703.jpg"}
{"id":2762376018,"url":"http://farm4.staticflickr.com/3195/2762376018_41ee0a1f37.jpg","path":"94f/caf/94fcaf6f543b3d48bbb45174dda38.jpg","date":"2008-08-13","year":2008,"month":8,"lon":-126.98341,"lat":50.812088,"tags":"boating,british+columbia,broughton+islands,shrimp+pots,shrimping,sun+star,world%27s+luckiest+children","S2CellId":"89e3300000000000","result":9307,"accuracy":0.016046511,"title":"Captain+Dave+and+His+Sun+Star"}
{"id":2550362316,"url":"http://farm4.staticflickr.com/3053/2550362316_c26ef8a9b4.jpg","path":"bac/d53/bacd53f980f278be68a3fe51113a75a.jpg","date":"2007-12-25","year":2007,"month":12,"lon":-126.05507,"lat":49.761917,"tags":"b.c.,beauty,gold+river,hidden+jewel,retreat,vancouver+island","S2CellId":"88d0a631cabb5071","result":8563,"accuracy":0.017769033,"title":"DSC_3422"}
{"id":6962128201,"url":"http://farm8.staticflickr.com/7056/6962128201_4dc6cac118.jpg","path":"e6a/4c6/e6a4c6c56e87b748e7996835c863fcc.jpg","date":"2012-02-19","year":2012,"month":2,"lon":-127.0665,"lat":50.605904,"tags":"bc,canada,malcolm+island,nikon_coolpix_s50c,photoblog","S2CellId":"87ee9c0000000000","result":8038,"accuracy":0.0031882508,"title":"Legs","description":"%28%40+towards+Malcolm+Island%2C+BC%2C+Canada%29%0A..."}
{"id":6962129391,"url":"http://farm8.staticflickr.com/7050/6962129391_49839a314a.jpg","path":"a35/c86/a35c86224a7e13417271ca9b210e2b1.jpg","date":"2012-02-19","year":2012,"month":2,"lon":-127.02324,"lat":50.6364,"tags":"bc,canada,malcolm+island,nikon_coolpix_s50c,photoblog,sointula","S2CellId":"5470000000000000","result":6094,"accuracy":0.24527536,"title":"Ferry+terminal+-+Sointula","description":"%28%40+Malcolm+Island%2C+BC%2C+Canada%29%0ASointula+has+a+funky+history...+hippies+from+Finland%2C+really%3F%0AFor+some+reason+I+do+like+this+perspective+%28both+meanings%2C+actually.%29"}
{"id":3441990324,"url":"http://farm4.staticflickr.com/3386/3441990324_2146e46612.jpg","path":"fec/1f1/fec1f17775d533aea33cf6a07ea8f2e.jpg","date":"2009-04-11","year":2009,"month":4,"lon":-128.35062,"lat":50.79286,"tags":"bc,camping,canada,cape+scott,easter,family,friends,hiking,provincial+park","S2CellId":"5470000000000000","result":6094,"accuracy":0.250326,"title":"DSC04436"}
{"id":6095442180,"url":"http://farm7.staticflickr.com/6187/6095442180_5734897b47.jpg","path":"469/fdb/469fdbcd4b1277d6b6a6a718941f18a6.jpg","date":"2011-08-24","year":2011,"month":8,"lon":-127.54354,"lat":50.091732,"tags":"brook+peninsula,bunsby+islands,paddling,sea+kayak","S2CellId":"5470000000000000","result":6094,"accuracy":0.49832502,"title":"Kyuquot+Kayak_AS017"}
{"id":9386540916,"url":"http://farm6.staticflickr.com/5478/9386540916_ab72ea046c.jpg","path":"b39/b19/b39b19a9f7199217565b59f08a94d36.jpg","date":"2013-07-17","year":2013,"month":7,"lon":-126.620865,"lat":50.73102,"tags":"b%26w,black+and+white,british+colombia,broughton+archipeligo,canada,pacific+northwest","S2CellId":"5470000000000000","result":6094,"accuracy":0.3561141,"title":"Messing+Around+With+Light","description":"Three+photos+taken+at+anchor+in+the+Broughton+Archipelago+somewhere+around+the+Fox+Group.++Nothing+to+do+but+read+and+watch+the+light+change."}
{"id":2372721548,"url":"http://farm4.staticflickr.com/3274/2372721548_39ee869a61.jpg","path":"2ee/0ba/2ee0ba2ced5980421817e5478374d77.jpg","date":"2006-08-26","year":2006,"month":8,"lon":-126.397705,"lat":50.530888,"tags":"2005,alaska,august+2005,cruise,family,fun,royal+caribbean,serenade+of+the+seas,summer+2005","S2CellId":"7953b00000000000","result":6865,"accuracy":0.033634532,"title":"Alaska+Cruise+2006+Vancouver+Island+Inside+Passage"}
{"id":2372662832,"url":"http://farm3.staticflickr.com/2274/2372662832_9a078ed667.jpg","path":"c26/ec1/c26ec1ce3dbe13bec6819fc41cdd673b.jpg","date":"2006-08-26","year":2006,"month":8,"lon":-126.397705,"lat":50.530888,"tags":"2005,alaska,august+2005,cruise,family,fun,inside+passage,royal+caribbean,serenade+of+the+seas,summer+2005,vancouver+island,vancouver+island+inside+passage","S2CellId":"5470000000000000","result":6094,"accuracy":0.2636744,"title":"Alaska+Cruise+2006+Vancouver+Island+Inside+Passage"}
{"id":3441999380,"url":"http://farm4.staticflickr.com/3594/3441999380_01f5010e91.jpg","path":"976/d81/976d81a965c79f4b2ead918c13c23185.jpg","date":"2009-04-11","year":2009,"month":4,"lon":-128.35062,"lat":50.79286,"tags":"bc,camping,canada,cape+scott,easter,family,friends,hiking,provincial+park","S2CellId":"5488c00000000000","result":6153,"accuracy":0.0045153974,"title":"Weiner+Shot"}
{"id":3546156809,"url":"http://farm4.staticflickr.com/3608/3546156809_19b9e2f8e2.jpg","path":"607/b72/607b72dfb651c83cd1faa4175ad48.jpg","date":"2009-05-19","year":2009,"month":5,"lon":-127.45599,"lat":50.725967,"tags":"2009,bc,expedition,ferry,house,may,northern,open,tour","S2CellId":"4876114000000000","result":5296,"accuracy":0.021672241,"title":"BC+Ferry+Northern+Expedition+Open+House+Tour","description":"BC+Ferry+Northern+Expedition+oil+separatos"}
{"id":41358593,"url":"http://farm1.staticflickr.com/33/41358593_b9d5fcd393.jpg","path":"a6e/8b5/a6e8b55341c1884c942e28085c9219e.jpg","date":"2005-08-28","year":2005,"month":8,"lon":-126.932945,"lat":50.590973,"tags":"alert+bay,bc,freeassociation,p14,vancouver+island,wharf","S2CellId":"5470000000000000","result":6094,"accuracy":0.1874252,"title":"Derlict+Wharf+IV"}
{"id":867856073,"url":"http://farm2.staticflickr.com/1085/867856073_5929e57ddf.jpg","path":"522/938/522938d3522e18c880ab3efaeb371.jpg","date":"2007-07-20","year":2007,"month":7,"lon":-127.48398,"lat":50.73211,"tags":"hardy,port","S2CellId":"5470000000000000","result":6094,"accuracy":0.38517028,"title":"Arriving+in+Port+Hardy"}
{"id":4889490413,"url":"http://farm5.staticflickr.com/4121/4889490413_be9a6f4ce1.jpg","path":"638/2a8/6382a864a2e8ec92abc4b2d5e0f47eed.jpg","date":"2009-06-22","year":2009,"month":6,"lon":-126.84726,"lat":50.54016,"tags":"bc,bones,british+columbia,whale","S2CellId":"47b3100000000000","result":4017,"accuracy":0.017616913,"title":"Whale+Bones"}
{"id":3441187453,"url":"http://farm4.staticflickr.com/3398/3441187453_7d1f1a5558.jpg","path":"773/a37/773a37361318136290b33c8ec0b0563c.jpg","date":"2009-04-11","year":2009,"month":4,"lon":-128.35062,"lat":50.79286,"tags":"bc,camping,canada,cape+scott,easter,family,friends,hiking,provincial+park","S2CellId":"54866c0000000000","result":6114,"accuracy":0.024743069,"title":"Cheers%21"}
{"id":41371302,"url":"http://farm1.staticflickr.com/22/41371302_b6453287d2.jpg","path":"a73/4fa/a734fa74f840cffbbb6a9d5b7350fb.jpg","date":"2005-08-28","year":2005,"month":8,"lon":-126.93964,"lat":50.592552,"tags":"%27namgis,alert+bay,bc,kwakwaka%27wakw,u%27mista,vancouver+island","S2CellId":"009bd5c000000000","result":41,"accuracy":0.017112622,"title":"U%27mista+Cultural+Centre+Reflection"}
{"id":7968558750,"url":"http://farm9.staticflickr.com/8458/7968558750_bfe45abbdd.jpg","path":"8d9/c4b/8d9c4b23bfd4facbd6e75d281687b60.jpg","date":"2012-09-09","year":2012,"month":9,"lon":-127.00241,"lat":50.626816,"tags":"bc,camping,malcolm+island,sointula,summer","S2CellId":"56c4000000000000","result":6318,"accuracy":0.21068881,"title":"Malcolm+Island","description":"Malcolm+Island%2C+traditional+territories+of+the+Kwakwaka%E2%80%99wakw+people"}
{"id":4796107857,"url":"http://farm5.staticflickr.com/4081/4796107857_7a1b4d904f.jpg","path":"b79/345/b79345578689c52f1760d0c65b1d325c.jpg","date":"2010-07-15","year":2010,"month":7,"lon":-126.05335,"lat":49.277493,"tags":"ahousaht,bc,beach,beautiful,british+columbia,canada,canoe,clayoquot+sound,first+nation,native,pacific+northwest,village,west+coast","S2CellId":"5470000000000000","result":6094,"accuracy":0.20912336,"title":"Ahousaht+beach"}
{"id":1356390410,"url":"http://farm2.staticflickr.com/1202/1356390410_7d932707f3.jpg","path":"72b/c7a/72bc7abc24771e82dc797e8899796f5.jpg","date":"2007-09-08","year":2007,"month":9,"lon":-126.05098,"lat":49.784203,"tags":"antler+lake,antler+lake+gold+river,antler+lake+gold+river+bc,bc,forests,gold+river,hiking,lakes,nature,september,trees,vancouver+island,walking","S2CellId":"4c90000000000000","result":5830,"accuracy":0.009833974,"title":"fungaloid"}
{"id":228514525,"url":"http://farm1.staticflickr.com/57/228514525_f282b8b6d3.jpg","path":"9be/66c/9be66c6db76c5b3743f28f5ee351.jpg","date":"2006-08-20","year":2006,"month":8,"lon":-126.05201,"lat":49.783253,"tags":"august,bc,gold+river,nature,vancouver+island","S2CellId":"477a400000000000","result":3437,"accuracy":0.06957579,"title":"Junction"}
{"id":2826306887,"url":"http://farm4.staticflickr.com/3185/2826306887_9382732a29.jpg","path":"d4a/496/d4a4967b95df56dbf5a424bff6dfb699.jpg","date":"2008-09-03","year":2008,"month":9,"lon":-126.8557,"lat":50.53726,"tags":"2008,black+bear,cambell+river,canada,hyway+19,port+hardy,vancouver+island,zwarte+beer","S2CellId":"5370c00000000000","result":6047,"accuracy":0.0738905,"title":"getting+up..."}
