{"id":1947138659,"url":"http://farm3.staticflickr.com/2247/1947138659_8c8cfdeee4.jpg","path":"701/1e7/7011e773508566947fa6ea4550b0b78e.jpg","date":"2004-10-30","year":2004,"month":10,"lon":-6.89986,"lat":30.918203,"tags":"500x500,artistic+expression,artisticc+expression,betterthangood,cubism,desert,desierto,diamondclassphotographer,dragon+gold+award,envy+of+flickr%21,fab%21,flickrdiamond,flickrsbest,goldolivebranch,goldstaraward,impressedbeauty,maroc,marruecos,morocco,sahara,superbmasterpiece,the+perfect+photographer,theunforgettablepictures","S2CellId":"89d4d40000000000","result":9260,"accuracy":0.014067751,"title":"Ouarzazate+dawn"}
{"id":1798821855,"url":"http://farm3.staticflickr.com/2394/1798821855_43e00ee54e.jpg","path":"1fe/802/1fe802d734e2ac3c613dc471fffa65.jpg","date":"2007-10-17","year":2007,"month":10,"lon":-6.900873,"lat":30.918756,"tags":"draa+valley,exodus+tour+group,holiday,jebel+sahro,morocco,north+africa,ouarzazate,palm+trees","S2CellId":"0dbc000000000000","result":635,"accuracy":0.16745973,"title":"Welcome+King","description":"Writing+is+done+buy+locals+with+white+rocks%2C+to+welcome+the+king+when+he+visits+in+his+limo."}
{"id":18083234,"url":"http://farm1.staticflickr.com/14/18083234_27959841b3.jpg","path":"7ae/bc8/7aebc87f55e5c2f246b6895f5fcec8e5.jpg","date":"2005-04-11","year":2005,"month":4,"lon":-6.108398,"lat":30.107117,"tags":"camels,dunes,morocco,sahara,sand,travel","S2CellId":"0d90000000000000","result":609,"accuracy":0.62078667,"title":"Caravan+%233"}
{"id":6876348514,"url":"http://farm7.staticflickr.com/6056/6876348514_0ff439cf7d.jpg","path":"991/0be/9910be93940c83fe0aab81f37a63da6.jpg","date":"2012-03-14","year":2012,"month":3,"lon":-6.899298,"lat":30.919394,"tags":"%D8%A7%D9%84%D9%85%D8%BA%D8%B1%D8%A8,ma,morocco,ouarzazate,souss-massa-draa","S2CellId":"0dbc000000000000","result":635,"accuracy":0.7254094,"title":"View+from+the+top"}
{"id":2206830004,"url":"http://farm3.staticflickr.com/2329/2206830004_b6c31432af.jpg","path":"fa5/1ab/fa51abedc27d4b6e38f32485f16a4889.jpg","date":"2008-01-17","year":2008,"month":1,"lon":-6.900444,"lat":30.91732,"tags":"morocco,telouet+and+atlas","S2CellId":"967c000000000000","result":9904,"accuracy":0.06189531,"title":"tizi+n+tichka+peter"}
{"id":2945668102,"url":"http://farm4.staticflickr.com/3175/2945668102_62f114cfcf.jpg","path":"ab9/aba/ab9aba9a5dc3e65ca67d4c097c25294.jpg","date":"2008-10-03","year":2008,"month":10,"lon":-6.968889,"lat":30.951527,"tags":"atlas,atlas+studios,magictrip,marocco,quarzazate,studios,vodw","S2CellId":"144c000000000000","result":1197,"accuracy":0.166886,"title":"Quarzazate","description":"%3Ci%3E%C2%A92008+Thomas+van+Ardenne%3C%2Fi%3E"}
{"id":5867331977,"url":"http://farm6.staticflickr.com/5195/5867331977_3ab80dcea4.jpg","path":"53a/fbf/53afbf71ded22064d8d723317bfc1889.jpg","date":"2011-06-12","year":2011,"month":6,"lon":-6.89808,"lat":30.92434,"tags":"africa,kashbah,marokko,morocco,north-africa,ouarzazate,pentaxk10d","S2CellId":"0dbc000000000000","result":635,"accuracy":0.2994633,"title":"Kashbah+%5C+Ouarzazate+%5C+Morocco+2011"}
{"id":7010596389,"url":"http://farm8.staticflickr.com/7198/7010596389_5350d23144.jpg","path":"c8d/27e/c8d27ee8374e9222db3cf6c6dfb013.jpg","date":"2012-03-12","year":2012,"month":3,"lon":-6.560103,"lat":30.724121,"tags":"lcscsatag,luca+cerabona","S2CellId":"0dbc000000000000","result":635,"accuracy":0.17819457,"title":"_DSC4013"}
{"id":2206739970,"url":"http://farm3.staticflickr.com/2016/2206739970_c6de0bbe22.jpg","path":"95f/95e/95f95e3f31491dd5bf0bd77e6aae.jpg","date":"2008-01-17","year":2008,"month":1,"lon":-6.900444,"lat":30.91732,"tags":"morocco,telouet+and+atlas","S2CellId":"0da1000000000000","result":610,"accuracy":0.13275366,"title":"palace+great+salon"}
