{"id":10754325633,"url":"http://farm3.staticflickr.com/2808/10754325633_1fd0f88f95.jpg","path":"29d/482/29d48203277f63de57cbcb1d4694.jpg","date":"2013-10-19","year":2013,"month":10,"lon":137.89642,"lat":36.355442,"tags":"201310,azumino,nagano","S2CellId":"8819ad0000000000","result":8204,"accuracy":0.013588032,"title":"azumino"}
{"id":2887335996,"url":"http://farm4.staticflickr.com/3074/2887335996_d54ede6cd2.jpg","path":"62b/9c7/62b9c7685fa3a522d8841a1fa1278fa7.jpg","date":"2008-09-22","year":2008,"month":9,"lon":137.63333,"lat":36.25,"tags":"alpen,alps,hiking,japan,japan+alps,japanese,trekking","S2CellId":"8085d00000000000","result":6985,"accuracy":0.04551242,"title":"Japan+Northern+Alps+24","description":"Follow+my+travels+online+at+%3Ca+href%3D%22http%3A%2F%2Ftravel.beiske.com%22+rel%3D%22nofollow%22%3Etravel.beiske.com%3C%2Fa%3E"}
{"id":8995210523,"url":"http://farm4.staticflickr.com/3668/8995210523_f9c6b1db0d.jpg","path":"36c/0a8/36c0a8daf649b1e16f3c44ec961440b5.jpg","date":"2011-09-24","year":2011,"month":9,"lon":137.61479,"lat":36.57842,"tags":"%D1%8F%D0%BF%D0%BE%D0%BD%D0%B8%D1%8F,japan,lumix+gh2,nakaniikawa+district,toyama+prefecture","S2CellId":"8803c00000000000","result":8071,"accuracy":0.05571293,"title":"P1100514.jpg"}
{"id":6969796236,"url":"http://farm8.staticflickr.com/7037/6969796236_674d98c6e9.jpg","path":"ac4/7a6/ac47a69c9a9d1961da1104a9adb7b82.jpg","date":"2011-10-17","year":2011,"month":10,"lon":137.23228,"lat":36.202103,"tags":"1.42++km+to+hirosemachi++in+gifu+japan,gifu,hirosemachi,japan","S2CellId":"6002c00000000000","result":6427,"accuracy":0.17001055,"title":"SA177065"}
{"id":2052577100,"url":"http://farm3.staticflickr.com/2280/2052577100_8478231fce.jpg","path":"87e/0b4/87e0b46b7f408fead2f93f87ad337a41.jpg","date":"2007-05-24","year":2007,"month":5,"lon":137.20946,"lat":36.124565,"tags":"%E9%AB%98%E5%B1%B1%E5%B8%82,2007,hida+folk+village,japan,roof,shingle,takayama,wooden","S2CellId":"4754000000000000","result":3297,"accuracy":0.020427711}
{"id":7113226589,"url":"http://farm9.staticflickr.com/8015/7113226589_c83f224e7c.jpg","path":"c04/f91/c04f916e63e8a39bc0cd5cb855ec31.jpg","date":"2011-10-16","year":2011,"month":10,"lon":137.61967,"lat":36.228832,"tags":"7.43++km+to+sawando++in+nagano+japan,japan,nagano,sawando","S2CellId":"548e400000000000","result":6158,"accuracy":0.040803242,"title":"SA166719"}
{"id":150432730,"url":"http://farm1.staticflickr.com/54/150432730_873b8a95b3.jpg","path":"a04/460/a04460e5f7827946ed39d9878ee1ff95.jpg","date":"2005-10-10","year":2005,"month":10,"lon":137.86674,"lat":36.715977,"tags":"fall+2005,far+east,hakuba,japan,nagano,nagano+prefecture,place+of+worship,religion","S2CellId":"601fc00000000000","result":6559,"accuracy":0.14841075,"title":"IMG_0433.JPG"}
{"id":7117062651,"url":"http://farm8.staticflickr.com/7192/7117062651_39b407bf06.jpg","path":"156/237/156237f28b19289579447cebd01cd81a.jpg","date":"2011-10-19","year":2011,"month":10,"lon":137.63472,"lat":36.76221,"tags":"7.05++km+to+koyanodaira++in+toyama+japan,japan,koyanodaira,toyama","S2CellId":"34688c0000000000","result":2160,"accuracy":0.03773631,"title":"SA190001"}
{"id":6888993788,"url":"http://farm8.staticflickr.com/7275/6888993788_1a23de5d6e.jpg","path":"9ce/915/9ce915ecf3ef80eefe2c7dbc5221106.jpg","date":"2010-10-25","year":2010,"month":10,"lon":137.69249,"lat":36.285797,"tags":"beds,fall,gravel,japan,kamalochi,river","S2CellId":"601d400000000000","result":6554,"accuracy":0.6320331,"title":"Azusa+River+flowing+fast","description":"Kamikochi%2C+in+the+Japanese+Alps+one+fine+overcast+Fall+day"}
{"id":11709281843,"url":"http://farm8.staticflickr.com/7365/11709281843_44ee0969eb.jpg","path":"2a6/d9b/2a6d9b1b2cba72b3bed11bae1a93575.jpg","date":"2013-12-04","year":2013,"month":12,"lon":137.23668,"lat":36.131954,"tags":"%E9%A3%9B%E9%A9%92%E4%B9%8B%E9%87%8C,nikon+d3s","S2CellId":"3468f00000000000","result":2167,"accuracy":0.009944715,"title":"DSC_7026"}
{"id":250550137,"url":"http://farm1.staticflickr.com/87/250550137_3e869d3b51.jpg","path":"fc1/693/fc16932723b23cd25b4bd5dfaa784b68.jpg","date":"2006-05-26","year":2006,"month":5,"lon":137.51158,"lat":36.926704,"tags":"fields,nyuzen,paddies,rice","S2CellId":"40bc000000000000","result":2689,"accuracy":0.016877038,"title":"Up+Close","description":"May+27"}
{"id":7118131483,"url":"http://farm8.staticflickr.com/7123/7118131483_857a5bc519.jpg","path":"a62/b6d/a62b6d4dfaa752aef6de5f5056adcf.jpg","date":"2011-10-20","year":2011,"month":10,"lon":137.59596,"lat":36.581734,"tags":"12.60++km+to+iori++in+toyama+japan,iori,japan,toyama","S2CellId":"601d400000000000","result":6554,"accuracy":0.34785828,"title":"SA200403"}
{"id":8450677450,"url":"http://farm9.staticflickr.com/8097/8450677450_f01cded25a.jpg","path":"ed3/510/ed3510c075d4877c8191c6aa3a48d1.jpg","date":"2008-08-14","year":2008,"month":8,"lon":137.89558,"lat":36.334457,"tags":"%E5%AE%89%E6%9B%87%E9%87%8E%E8%8A%B1%E7%81%AB,%E8%8A%B1%E7%81%AB,fireworks","S2CellId":"12ce900000000000","result":891,"accuracy":0.035997365,"title":"IMG_3437"}
{"id":3935665878,"url":"http://farm4.staticflickr.com/3468/3935665878_0ceb9021df.jpg","path":"238/fa2/238fa2bb91273cfc17c5bfb35a1a6a0.jpg","date":"2009-09-20","year":2009,"month":9,"lon":137.75906,"lat":36.685165,"tags":"%E5%94%90%E6%9D%BE%E5%B1%B1%E8%8D%98,hakuba,happo,japan,karamatsu,mountain,nagano,toyama","S2CellId":"39e4000000000000","result":2487,"accuracy":0.044493604,"title":"Mt.+Fuji","description":"%E5%AF%8C%E5%A3%AB%E5%B1%B1%E3%81%8C%E8%A6%8B%E3%81%88%E3%81%9F"}
{"id":7899137810,"url":"http://farm9.staticflickr.com/8302/7899137810_6c0181bc20.jpg","path":"470/70a/47070ab7fa5d29e27c7d75a5c99bdf6.jpg","date":"2012-08-30","year":2012,"month":8,"lon":137.61815,"lat":36.22846,"tags":"photo+stream","S2CellId":"548e400000000000","result":6158,"accuracy":0.12103653}
{"id":65547743,"url":"http://farm1.staticflickr.com/29/65547743_f0e0af841a.jpg","path":"6b1/d65/6b1d65eb854caadcd46d38f876c3dd59.jpg","date":"2004-05-31","year":2004,"month":5,"lon":137.63672,"lat":36.527294,"tags":"2004,japan,vacation","S2CellId":"6001a90000000000","result":6418,"accuracy":0.12579457,"title":"Japan20040531_Kiyomizu_deraTemple9"}
{"id":4343045819,"url":"http://farm5.staticflickr.com/4027/4343045819_779180d344.jpg","path":"d5a/75a/d5a75aaca3c2156e9d147458dd3a5a3.jpg","date":"2010-02-05","year":2010,"month":2,"lon":137.22583,"lat":36.160717,"tags":"backpacking,fevrier,japan,shirakawa-go,takayama","S2CellId":"5ff8400000000000","result":6373,"accuracy":0.05639404,"title":"Takayama%2C+Japan.","description":"Les+vieux+quartiers+de+Takayama."}
{"id":8996833573,"url":"http://farm8.staticflickr.com/7435/8996833573_dc6240c9fb.jpg","path":"13a/313/13a313fa3c38ba83b8ca6f8f036534b.jpg","date":"2013-05-10","year":2013,"month":5,"lon":137.62462,"lat":36.24485,"tags":"%E4%B8%8A%E9%AB%98%E5%9C%B0,%E6%97%A5%E6%9C%AC,%E6%9D%BE%E6%9C%AC%E5%B8%82,%E9%95%B7%E9%87%8E%E7%9C%8C,japan,matsumoto,nagano+prefecture","S2CellId":"601d400000000000","result":6554,"accuracy":0.6839333,"title":"%E7%94%B0%E4%BB%A3%E6%A9%8B"}
{"id":11549692713,"url":"http://farm6.staticflickr.com/5526/11549692713_14311ae2a0.jpg","path":"50e/feb/50efeb7b2143fac96ac563f868233c2d.jpg","date":"2013-12-02","year":2013,"month":12,"lon":137.25786,"lat":36.14223,"tags":"%E9%AB%98%E5%B1%B1,iphone5s,iphoneography","S2CellId":"87e5000000000000","result":8030,"accuracy":0.0019774279,"title":"IMG_20131202_184925"}
{"id":4698977059,"url":"http://farm5.staticflickr.com/4042/4698977059_e002c12aa1.jpg","path":"2e3/4f0/2e34f0d65b3cdc2d29ce05edcc3dcde.jpg","date":"2010-06-13","year":2010,"month":6,"lon":137.7938,"lat":36.57608,"tags":"%231,%E2%80%9D%E5%B0%8F%E6%B1%A0%E7%94%B0,%E2%80%9Dtakeshi,%E3%82%A8%E3%83%B3%E3%83%87%E3%83%A5%E3%83%BC%E3%83%AD,%E4%BF%A1%E5%B7%9E%E5%A4%A7%E7%94%BA,%E7%88%BA%E3%83%B6%E5%B2%B3,%E7%8C%9B%E2%80%9D,champion,enduro,jncc,koikeda,mx,off-road,raw","S2CellId":"4170000000000000","result":2739,"accuracy":0.142314,"title":"P6130598"}
{"id":7899136766,"url":"http://farm9.staticflickr.com/8302/7899136766_06076cc379.jpg","path":"8ad/b71/8adb7186f6f6a452552613296a06c19.jpg","date":"2012-08-30","year":2012,"month":8,"lon":137.62767,"lat":36.2405,"tags":"photo+stream","S2CellId":"a9d4400000000000","result":9942,"accuracy":0.13939232}
{"id":4289207685,"url":"http://farm3.staticflickr.com/2713/4289207685_9ced56f3e1.jpg","path":"cf8/5f9/cf85f957089292068dfed57af2be11.jpg","date":"2010-01-10","year":2010,"month":1,"lon":137.95367,"lat":36.253796,"tags":"backpacking,janvier,japan","S2CellId":"89c2d00000000000","result":9097,"accuracy":0.08061499,"title":"DSC_3389"}
{"id":6971022396,"url":"http://farm8.staticflickr.com/7184/6971022396_b45d9fafa6.jpg","path":"fba/ba8/fbaba844881b2f82b235ece296af54ea.jpg","date":"2011-10-19","year":2011,"month":10,"lon":137.64757,"lat":36.711716,"tags":"1.32++km+to+koyanodaira++in+toyama+japan,japan,koyanodaira,toyama","S2CellId":"477ac00000000000","result":3438,"accuracy":0.13213298,"title":"SA190043"}
{"id":56455392,"url":"http://farm1.staticflickr.com/30/56455392_0ff4294662.jpg","path":"254/6e1/2546e18997285940cb5f60f6aa037d9.jpg","date":"2005-10-22","year":2005,"month":10,"lon":137.21375,"lat":36.702557,"tags":"%E7%AB%8B%E5%B1%B1,color","S2CellId":"6002c00000000000","result":6427,"accuracy":0.02443607,"title":"DSCF0244"}
{"id":5683588548,"url":"http://farm6.staticflickr.com/5022/5683588548_6b16e8044c.jpg","path":"479/874/4798746e5722c975904eeaeb7e47a93d.jpg","date":"2011-05-02","year":2011,"month":5,"lon":137.9817,"lat":36.23133,"tags":"highschool,matsumoto","S2CellId":"80c2bfc000000000","result":7184,"accuracy":0.025053024,"title":"P1030886.JPG"}
{"id":2055330282,"url":"http://farm3.staticflickr.com/2132/2055330282_7cc1cb0e62.jpg","path":"af6/8a4/af68a49c1f29e61585b1a7c27a135633.jpg","date":"2007-05-24","year":2007,"month":5,"lon":137.20946,"lat":36.124565,"tags":"%E9%AB%98%E5%B1%B1%E5%B8%82,2007,hida+folk+village,japan,takayama","S2CellId":"47b3100000000000","result":4017,"accuracy":0.021187011}
{"id":2537392315,"url":"http://farm4.staticflickr.com/3205/2537392315_483b56008b.jpg","path":"681/9c2/6819c2bdc18eeab8b8de2ffbfeca857.jpg","date":"2008-05-25","year":2008,"month":5,"lon":137.62057,"lat":36.271957,"tags":"%E4%B8%8A%E9%AB%98%E5%9C%B0,%E6%97%A5%E6%9C%AC,%E6%97%A5%E6%9C%AC%E7%AB%8B%E5%B1%B1%E9%BB%91%E9%83%A8%E8%A1%8C,canon+400d,sigma+17-70","S2CellId":"0d50400000000000","result":429,"accuracy":0.12839417,"description":"%E4%B8%8A%E9%AB%98%E5%9C%B0%2C+%E9%95%B7%E9%87%8E%E7%B8%A3"}
{"id":7118090877,"url":"http://farm8.staticflickr.com/7198/7118090877_5e0d42a532.jpg","path":"db9/254/db9254b92a4f8e174bfa86d7798c5ff.jpg","date":"2011-10-20","year":2011,"month":10,"lon":137.5817,"lat":36.580387,"tags":"11.70++km+to+iori++in+toyama+japan,iori,japan,toyama","S2CellId":"346f100000000000","result":2230,"accuracy":0.02221845,"title":"SA200339"}
{"id":12632163435,"url":"http://farm8.staticflickr.com/7331/12632163435_98b5ecb55a.jpg","path":"3ed/c88/3edc88c20679ea5ffe6adcb5601a15.jpg","date":"2014-01-26","year":2014,"month":1,"lon":137.15675,"lat":36.25756,"tags":"2014,d800,furukawa%E5%8F%A4%E5%B7%9D,japan%E6%97%A5%E6%9C%AC,nikkor%E5%B0%BC%E5%85%8B%E5%B0%9485mmf1.8,nikon%E5%B0%BC%E5%BA%B7","S2CellId":"5ff8400000000000","result":6373,"accuracy":0.5358256,"title":"_DSC1308"}
{"id":7274094230,"url":"http://farm8.staticflickr.com/7242/7274094230_d98a2acc8a.jpg","path":"539/3d8/5393d835e11a5b4043cea18e8a273129.jpg","date":"2012-05-26","year":2012,"month":5,"lon":137.20348,"lat":36.14522,"tags":"%D1%8F%D0%BF%D0%BE%D0%BD%D0%B8%D1%8F,%D8%A7%D9%84%D9%8A%D8%A7%D8%A8%D8%A7%D9%86,%E0%A4%9C%E0%A4%BE%E0%A4%AA%E0%A4%BE%E0%A4%A8,%E6%97%A5%E6%9C%AC,basket,bucket,ch%C5%ABbu,chubu,gifu,jap%C3%A3o,jap%C3%B3n,japan,japon,jinya,old,takayama,takayama+jinya,takayama-shi","S2CellId":"4667000000000000","result":2937,"accuracy":0.048243146,"title":"Japan+%E6%97%A5%E6%9C%AC","description":"Takayama+Jinya%2C+Takayama-shi%2C+Gifu%2C+Ch%C5%ABbu%2C+Japan."}
{"id":6974571468,"url":"http://farm8.staticflickr.com/7087/6974571468_72bf37eef8.jpg","path":"9be/47f/9be47faf77b57127d283906c503bb.jpg","date":"2011-10-20","year":2011,"month":10,"lon":137.6504,"lat":36.56681,"tags":"14.81++km+to+koyanodaira++in+toyama+japan,japan,koyanodaira,toyama","S2CellId":"47c5c30000000000","result":4284,"accuracy":0.048345722,"title":"P1110214"}
{"id":6524448661,"url":"http://farm8.staticflickr.com/7173/6524448661_6b3a6b2a76.jpg","path":"2ac/024/2ac0249c8c01fc2fb91c157c6ecf9d8.jpg","date":"2011-12-17","year":2011,"month":12,"lon":137.1957,"lat":36.625034,"tags":"instagram+app,iphoneography,normal,square,square+format","S2CellId":"3442a97400000000","result":2042,"accuracy":0.006825876}
{"id":7991025459,"url":"http://farm9.staticflickr.com/8171/7991025459_3262ceb421.jpg","path":"7df/7c0/7df7c0a74a5abee988af74aecc21afe1.jpg","date":"2012-09-12","year":2012,"month":9,"lon":137.19897,"lat":36.693817,"tags":"%E5%AF%8C%E5%B1%B1,%E6%97%A5%E6%9C%AC,%E7%A5%9E%E9%80%9A%E5%B7%9D,%E9%A2%A8%E6%99%AF,dp2,foveon,japan,jindu+gawa,jindu+river,jinzu+gawa,jinzu+river,landscape,lightroom,lightroom4,lr,lr4,river,sigma,toyama,view","S2CellId":"5f8b000000000000","result":6361,"accuracy":0.11950819,"title":"Jinzu+River+%28Toyama%2C+Japan%29","description":"Sigma+DP2%0A%0A*+If+you+have+requests+or+comments%2C+please+describe+these+in+photo+comment+space."}
{"id":12632657274,"url":"http://farm4.staticflickr.com/3747/12632657274_4846cd97e5.jpg","path":"458/d86/458d86c22caa736d9207f9b8d6dbe.jpg","date":"2014-01-26","year":2014,"month":1,"lon":137.23984,"lat":36.1412,"tags":"2014,d800,japan%E6%97%A5%E6%9C%AC,nikkor%E5%B0%BC%E5%85%8B%E5%B0%9485mmf1.8,nikon%E5%B0%BC%E5%BA%B7,takayama%E9%AB%98%E5%B1%B1","S2CellId":"5ff8400000000000","result":6373,"accuracy":0.093433924,"title":"_DSC1235"}
{"id":6233768209,"url":"http://farm7.staticflickr.com/6055/6233768209_69985f35c2.jpg","path":"f4c/57d/f4c57d64c4dc44ea7d101a50fada2520.jpg","date":"2011-10-10","year":2011,"month":10,"lon":137.806,"lat":36.769165,"tags":"raw","S2CellId":"56c8c00000000000","result":6320,"accuracy":0.22016533}
{"id":3260398098,"url":"http://farm4.staticflickr.com/3256/3260398098_63dc118caf.jpg","path":"18a/09f/18a09f8881d12cfc8e49fae5115cd186.jpg","date":"2009-01-25","year":2009,"month":1,"lon":137.25298,"lat":36.149933,"tags":"%E5%B2%90%E9%98%9C,%E6%97%85%E9%81%8A,%E6%97%A5%E6%9C%AC,%E7%89%9B%E8%82%89,%E7%BE%8E%E9%A3%9F,%E9%A3%9B%E9%A9%92,%E9%AB%98%E5%B1%B1,beef,food,gifu,japan,launch,takayama,travel","S2CellId":"60188bd000000000","result":6480,"accuracy":0.0074820193,"title":"2009+January+Japan+2nd+day","description":"Takayama%2C+Gifu%2C+Japan+%2F+%E9%A3%9B%E9%A8%A8%E7%89%9B%2C+%E9%AB%98%E5%B1%B1%2C+%E5%B2%90%E9%98%9C%2C+%E6%97%A5%E6%9C%AC"}
{"id":6971388684,"url":"http://farm8.staticflickr.com/7276/6971388684_f8f1eece1a.jpg","path":"14a/76a/14a76ab489283bb3d559e06fe866c779.jpg","date":"2011-10-19","year":2011,"month":10,"lon":137.63345,"lat":36.767178,"tags":"7.09++km+to+unazuki++in+toyama+japan,japan,toyama,unazuki","S2CellId":"4771400000000000","result":3386,"accuracy":0.21044593,"title":"P1110043"}
{"id":7981874236,"url":"http://farm9.staticflickr.com/8296/7981874236_7cc61d2ef5.jpg","path":"c7b/fec/c7bfecd5f2641ec53dcc3ba7fddcb67.jpg","date":"2012-09-13","year":2012,"month":9,"lon":137.04224,"lat":36.81491,"tags":"%E3%82%AB%E3%83%B3%E3%82%B0%E3%83%BC,%E3%83%AB%E3%83%8E%E3%83%BC,instagram+app,iphoneography,kangoo,lo-fi,renault,square,square+format","S2CellId":"487b450000000000","result":5565,"accuracy":0.025290944,"title":"kangoo"}
{"id":2800208382,"url":"http://farm4.staticflickr.com/3124/2800208382_e9135454f6.jpg","path":"c12/d2a/c12d2ac76d7ab2ce324a1bcc264717c.jpg","date":"2008-08-26","year":2008,"month":8,"lon":137.42798,"lat":36.157833,"tags":"%E8%87%AA%E7%84%B6%E3%81%AE%E8%B5%B0%E7%A0%B4%28%E4%BF%A1%E8%B6%8A%E9%A3%9B%E5%BD%88%E6%95%A3%E7%AD%96%29","S2CellId":"5370c00000000000","result":6047,"accuracy":0.09285082,"title":"20070720_0858_001"}
{"id":8144925059,"url":"http://farm9.staticflickr.com/8046/8144925059_cb815244a4.jpg","path":"60c/123/60c123f1d4a6c9ee9098e8dade78cb1.jpg","date":"2012-10-28","year":2012,"month":10,"lon":137.96817,"lat":36.243046,"tags":"%E5%BB%BA%E7%89%A9,%E6%97%A5%E6%9C%AC,%E6%97%A7%E9%96%8B%E6%99%BA%E5%AD%A6%E6%A0%A1,%E6%9D%BE%E6%9C%AC,%E9%95%B7%E9%87%8E,%E9%96%8B%E6%99%BA%E5%AD%A6%E6%A0%A1,architecture,building,canon,eos60d,japan,kaichi+school,lightroom,lightroom4,lr,lr4,matsumoto,nagano,sigma,sigma17-50exdc,sigma1750,sigma175028,sigma1750f28,sigma1750mm,sigma1750mmf28,sigma1750mmf28exdcos,sigma1750mmf28exdcoshsm,sigma1750mmoshsm,the+former+kaichi+school","S2CellId":"5db0000000000000","result":6337,"accuracy":0.16425529,"title":"Kaichi+School+Museum+%28Matsumoto%2C+Nagano%2C+Japan%29","description":"EOS+60D%2BSigma+17-50mm+F2.8+EX+DC+OS+HSM%0A%0A*+If+you+have+requests+or+comments%2C+please+describe+these+in+photo+comment+space."}
{"id":11549708513,"url":"http://farm6.staticflickr.com/5534/11549708513_b4f94b2b5f.jpg","path":"303/53a/30353aee2df543b37e14ae86359fc42.jpg","date":"2013-12-02","year":2013,"month":12,"lon":137.25717,"lat":36.146244,"tags":"%E9%AB%98%E5%B1%B1,nikon+d3s","S2CellId":"88d0a631cabb5071","result":8563,"accuracy":0.039826058,"title":"DSC_6823"}
{"id":8463304176,"url":"http://farm9.staticflickr.com/8243/8463304176_c0efbdbbe5.jpg","path":"591/29b/59129bb256c861c05c135e64659bae.jpg","date":"2012-10-23","year":2012,"month":10,"lon":137.26544,"lat":36.142525,"tags":"canon+ef+50mm+f%2F1.4+usm,food,stock+categories","S2CellId":"3442a91000000000","result":2037,"accuracy":0.016706169,"title":"Salt+pickles%2C+with+fish+roe%2C+cucumber+and+carrot+salad"}
{"id":6971220734,"url":"http://farm8.staticflickr.com/7120/6971220734_6fd5f6ef1b.jpg","path":"895/2a8/8952a86eb5c560b5d22a3a8f1f7ef67.jpg","date":"2011-10-19","year":2011,"month":10,"lon":137.62138,"lat":36.7886,"tags":"4.61++km+to+unazuki++in+toyama+japan,japan,toyama,unazuki","S2CellId":"601d400000000000","result":6554,"accuracy":0.37825903,"title":"SA197545"}
{"id":7117512369,"url":"http://farm8.staticflickr.com/7252/7117512369_b75babc2d7.jpg","path":"3de/1a9/3de1a9587f44686c33db14718de5b1f.jpg","date":"2011-10-19","year":2011,"month":10,"lon":137.66344,"lat":36.697906,"tags":"1.22++km+to+koyanodaira++in+toyama+japan,japan,koyanodaira,toyama","S2CellId":"601d400000000000","result":6554,"accuracy":0.2865112,"title":"P1100838"}
{"id":7118327599,"url":"http://farm8.staticflickr.com/7042/7118327599_508d4dfe9a.jpg","path":"69e/2cc/69e2cc201bb61d7f5257fbf6b4fac2.jpg","date":"2011-10-20","year":2011,"month":10,"lon":137.66098,"lat":36.56517,"tags":"15.02++km+to+koyanodaira++in+toyama+japan,japan,koyanodaira,toyama","S2CellId":"5f9c000000000000","result":6365,"accuracy":0.13947363,"title":"P1110244"}
{"id":8833199642,"url":"http://farm6.staticflickr.com/5326/8833199642_0e731f5925.jpg","path":"7bd/5e5/7bd5e5d519471679cc5bf2445ea39e18.jpg","date":"2013-05-21","year":2013,"month":5,"lon":137.62833,"lat":36.245,"tags":"japan,kamikochi","S2CellId":"601d400000000000","result":6554,"accuracy":0.79510355,"title":"Beautiful+morning+in+Kamikochi"}
{"id":1933424081,"url":"http://farm3.staticflickr.com/2387/1933424081_282ae1d938.jpg","path":"bd6/2e1/bd62e13095de8862cca7d80da497cbb.jpg","date":"2007-11-09","year":2007,"month":11,"lon":137.58179,"lat":36.82303,"tags":"%E4%BF%A1%E8%B6%8A%E9%A3%9B%E5%BD%88%E6%95%A3%E7%AD%96,%E8%87%AA%E7%84%B6%E3%81%AE%E8%B5%B0%E7%A0%B4","S2CellId":"601fc00000000000","result":6559,"accuracy":0.15376025,"title":"20070714_080816_035"}
{"id":2887327782,"url":"http://farm4.staticflickr.com/3157/2887327782_dfd69fccfa.jpg","path":"395/ec6/395ec6d49e6cf977babe2647e7367738.jpg","date":"2008-09-24","year":2008,"month":9,"lon":137.63333,"lat":36.25,"tags":"alpen,alps,hiking,japan,japan+alps,japanese,trekking","S2CellId":"463f000000000000","result":2783,"accuracy":0.033767518,"title":"Japan+Northern+Alps+66","description":"Follow+my+travels+online+at+%3Ca+href%3D%22http%3A%2F%2Ftravel.beiske.com%22+rel%3D%22nofollow%22%3Etravel.beiske.com%3C%2Fa%3E"}
{"id":7117176247,"url":"http://farm9.staticflickr.com/8141/7117176247_27026a1426.jpg","path":"cb7/9f3/cb79f33ca2504eea89502258361ec23e.jpg","date":"2011-10-19","year":2011,"month":10,"lon":137.65776,"lat":36.69731,"tags":"0.75++km+to+koyanodaira++in+toyama+japan,japan,koyanodaira,toyama","S2CellId":"89b6340000000000","result":8827,"accuracy":0.022490889,"title":"SA190150"}
{"id":8576756863,"url":"http://farm9.staticflickr.com/8384/8576756863_379652c6a3.jpg","path":"159/d29/159d296f9d7cc7114b6b39397973ae7.jpg","date":"2013-03-05","year":2013,"month":3,"lon":137.96783,"lat":36.239,"tags":"japan,matsumoto,nagano,travel","S2CellId":"6002c00000000000","result":6427,"accuracy":0.08792293,"title":"%E6%9C%80%E9%A0%82%E6%A8%93%EF%BC%8C%E5%8F%AF%E4%BB%A5%E7%9C%8B%E6%B8%85%E5%9B%9B%E5%80%8B%E6%96%B9%E5%90%91"}
{"id":5690870164,"url":"http://farm6.staticflickr.com/5065/5690870164_0172dcd80a.jpg","path":"82a/5e1/82a5e179fe284aa9994c1cb7138cbf0.jpg","date":"2011-05-03","year":2011,"month":5,"lon":137.74785,"lat":36.58692,"tags":"%E5%8C%97%E3%82%A2%E3%83%AB%E3%83%97%E3%82%B9,%E9%B9%BF%E5%B3%B6%E6%A7%8D%E3%83%B6%E5%B2%B3,5%E6%9C%88%E5%90%88%E5%AE%BF2011,mountain,omc","S2CellId":"5ff7000000000000","result":6372,"accuracy":0.06627838,"title":"%E9%B9%BF%E5%B3%B6%E6%A7%8D%E3%83%B6%E5%B2%B3%E3%82%92%E6%9C%9B%E3%82%80"}
{"id":2807584021,"url":"http://farm4.staticflickr.com/3097/2807584021_9e1a09bd63.jpg","path":"bcc/9fb/bcc9fbe16ea42fc8d74039b0818fca.jpg","date":"2008-08-22","year":2008,"month":8,"lon":137.5126,"lat":36.58057,"tags":"2008,japan,k200d,kurobe,nature","S2CellId":"3690000000000000","result":2402,"accuracy":0.076579325,"title":"%E9%BB%92%E9%83%A8%E3%82%A2%E3%83%AB%E3%83%9A%E3%83%B3%E3%83%AB%E3%83%BC%E3%83%882008%E5%A4%8F","description":"Day+2nd%0A%E7%AB%8B%E5%B1%B1%E3%81%AE%E7%A7%B0%E5%90%8D%E6%BB%9D%E3%82%92%E8%A6%8B%E3%81%AB%E8%A1%8C%E3%81%8F"}
{"id":6234274230,"url":"http://farm7.staticflickr.com/6175/6234274230_2fbb680e79.jpg","path":"9e4/12a/9e412a27e25cb78fed3f7821fbae18.jpg","date":"2011-10-10","year":2011,"month":10,"lon":137.8665,"lat":36.751667,"tags":"raw","S2CellId":"6d2f000000000000","result":6810,"accuracy":0.1578375}
{"id":2890627477,"url":"http://farm4.staticflickr.com/3287/2890627477_12115395e9.jpg","path":"8d7/bc0/8d7bc05e7c9f7a82ab7e2c560099bf.jpg","date":"2008-09-21","year":2008,"month":9,"lon":137.99927,"lat":36.927937,"tags":"amakazari,mountaineering","S2CellId":"916d9c0000000000","result":9613,"accuracy":0.0724465,"title":"%40AMAKAZARI"}
{"id":12537683834,"url":"http://farm3.staticflickr.com/2889/12537683834_a847600ffc.jpg","path":"257/fa2/257fa2b6b3671faf87c495ef75bbf137.jpg","date":"2012-10-15","year":2012,"month":10,"lon":137.64397,"lat":36.252544,"tags":"%E4%B8%8A%E9%AB%98%E5%9C%B0,%E6%B6%B8%E6%B2%A2,%E7%B4%85%E8%91%89,fall,kamikochi,karasawa,leaves,mountains","S2CellId":"601d400000000000","result":6554,"accuracy":0.025529012,"title":"Kamikochi+%E4%B8%8A%E9%AB%98%E5%9C%B0","description":"from+October+2012"}
{"id":3286988107,"url":"http://farm4.staticflickr.com/3157/3286988107_563def7436.jpg","path":"596/04f/59604f77ece335b7c5cab9d1a2e6967a.jpg","date":"2009-02-14","year":2009,"month":2,"lon":137.21307,"lat":36.701088,"tags":"coca+cola,japan,toyama,toyama-ken,vending+machine","S2CellId":"60188bfc00000000","result":6484,"accuracy":0.05731742,"title":"3720"}
{"id":41317489,"url":"http://farm1.staticflickr.com/31/41317489_d56a9c6edb.jpg","path":"61e/57b/61e57b5d8a821d466948013549398db.jpg","date":"2005-09-07","year":2005,"month":9,"lon":137.21182,"lat":36.696487,"tags":"cloud,japan,sky,sunset,toyama,typhoon","S2CellId":"88d0a631cabb5071","result":8563,"accuracy":0.017832734,"title":"typhoon+passed+away+%282%29","description":"%E9%BB%84%E8%89%B2%E3%81%84%E5%A4%95%E7%84%BC%E3%81%91%E3%81%A0%E3%81%A3%E3%81%9F%E3%80%82%E3%81%93%E3%81%AE%E3%81%82%E3%81%A8%E3%80%81%E5%9C%B0%E5%B9%B3%E7%B7%9A%E6%B2%BF%E3%81%84%E3%81%A0%E3%81%91%E7%9C%9F%E3%81%A3%E8%B5%A4%E3%81%AB%E3%81%AA%E3%81%A3%E3%81%9F%E3%80%82"}
{"id":1214054335,"url":"http://farm2.staticflickr.com/1075/1214054335_3fd7995930.jpg","path":"5fa/387/5fa3877f540de4fb146cc5497af5ccd.jpg","date":"2007-08-19","year":2007,"month":8,"lon":137.77142,"lat":36.68975,"tags":"%E5%85%AB%E6%96%B9%E5%B0%BE%E6%A0%B9,da+12-24mm,hakuba,happo,japan,mountain,nagano","S2CellId":"601d400000000000","result":6554,"accuracy":0.18504275,"title":"Happo+ridge+070819+%234","description":"%E6%89%87%E3%81%AE%E9%9B%AA%E6%B8%93-%E4%B8%B8%E5%B1%B1%E3%82%B1%E3%83%AB%E3%83%B3%E3%80%82"}
{"id":6971541640,"url":"http://farm9.staticflickr.com/8165/6971541640_47d74934cb.jpg","path":"d60/91f/d6091fd37c8c0c7a958a1f8bea95657.jpg","date":"2011-10-19","year":2011,"month":10,"lon":137.6529,"lat":36.70246,"tags":"0.38++km+to+koyanodaira++in+toyama+japan,japan,koyanodaira,toyama","S2CellId":"45df000000000000","result":2759,"accuracy":0.052380957,"title":"P1100767"}
{"id":6972073476,"url":"http://farm8.staticflickr.com/7102/6972073476_e2d0c4188c.jpg","path":"915/233/9152331ba125c96e5b09954a68f6f56.jpg","date":"2011-10-20","year":2011,"month":10,"lon":137.59563,"lat":36.57741,"tags":"12.87++km+to+iori++in+toyama+japan,iori,japan,toyama","S2CellId":"5ff7000000000000","result":6372,"accuracy":0.33550268,"title":"SA200436"}
{"id":835848064,"url":"http://farm2.staticflickr.com/1054/835848064_3901fb51bf.jpg","path":"d19/db4/d19db45270be66d38c6a2a1277dfd.jpg","date":"2007-07-17","year":2007,"month":7,"lon":137.79955,"lat":36.30786,"tags":"japan,nature","S2CellId":"864e640000000000","result":7620,"accuracy":0.10719492,"title":"Red+truth"}
{"id":65524475,"url":"http://farm1.staticflickr.com/29/65524475_d7b3912657.jpg","path":"b2f/a51/b2fa5184e3bc5dafa28a203aae8b4c33.jpg","date":"2004-05-29","year":2004,"month":5,"lon":137.63672,"lat":36.527294,"tags":"2004,japan,vacation","S2CellId":"600107c000000000","result":6397,"accuracy":0.35688257,"title":"Japan20040529_Kyoto_NijoCastle_Group"}
{"id":6967518560,"url":"http://farm6.staticflickr.com/5339/6967518560_80e5df59b4.jpg","path":"1c8/f35/1c8f3582cf4479139af713ecacb15ecd.jpg","date":"2011-10-16","year":2011,"month":10,"lon":137.61658,"lat":36.216198,"tags":"6.27++km+to+sawando++in+nagano+japan,japan,nagano,sawando","S2CellId":"601d400000000000","result":6554,"accuracy":0.16656113,"title":"SA166920"}
{"id":10640280,"url":"http://farm1.staticflickr.com/5/10640280_44429e515e.jpg","path":"31d/227/31d2278a503691c741ee53904738486.jpg","date":"2005-04-24","year":2005,"month":4,"lon":137.15057,"lat":36.213936,"tags":"%E5%8D%AF%E3%81%AE%E8%8A%B1%E8%A1%97%E9%81%93,gifu,japan,road","S2CellId":"54cf000000000000","result":6311,"accuracy":0.08456029,"title":"Station+of+road+%22Hida-furukawa+Ibushi%22","description":"%E9%81%93%E3%81%AE%E9%A7%85%E3%80%8C%E9%A3%9B%E9%A8%A8%E5%8F%A4%E5%B7%9D%E3%81%84%E3%81%B6%E3%81%97%E3%80%8D%E3%80%82%0A%E5%8F%A4%E5%B7%9D%E7%94%BA%E5%86%85%E3%81%8B%E3%82%89%E3%81%93%E3%81%93%E3%81%AB%E6%9D%A5%E3%82%8B%E3%81%AB%E3%81%AF%E3%80%8C%E3%81%93%E3%81%AE%E5%85%88150m%E8%A1%8C%E3%81%8D%E9%81%95%E3%81%84%E5%9B%B0%E9%9B%A3%E3%80%8D%E3%81%A8%E3%81%8B%E3%82%82%E3%81%82%E3%82%8B%E7%8B%AD%E3%81%84%E3%81%90%E3%81%AD%E3%81%90%E3%81%AD%E3%81%A8%E3%81%97%E3%81%9F%E9%81%93%E3%82%92%E9%80%9A%E3%82%89%E3%81%AA%E3%81%91%E3%82%8C%E3%81%B0%E6%9D%A5%E3%82%8C%E3%81%AA%E3%81%84%E3%81%A7%E3%81%99%E3%80%82%E9%A3%9B%E9%A8%A8%E6%B8%85%E8%A6%8BIC%E6%96%B9%E9%9D%A2%E3%81%AF%E9%81%93%E5%B9%85%E3%82%82%E6%99%AE%E9%80%9A%E3%81%AE%E3%81%84%E3%81%84%E5%85%B7%E5%90%88%E3%81%AE%E3%83%AF%E3%82%A4%E3%83%B3%E3%83%87%E3%82%A3%E3%83%B3%E3%82%B0%E3%83%AD%E3%83%BC%E3%83%89%E3%81%A7%E3%81%99%E3%80%82%0A%0A%3Ca+href%3D%22http%3A%2F%2Fclip.alpslab.jp%2Fbin%2Frd%3Fflickr%3D10640280%22+target%3D%22_blank%22%3E%5B%E5%9C%B0%E5%9B%B3%E3%82%92%E8%A1%A8%E7%A4%BA%5D%3C%2Fa%3E"}
{"id":5834479324,"url":"http://farm3.staticflickr.com/2802/5834479324_58f7e6557e.jpg","path":"a6d/de7/a6dde7cee36ee55bd2a865262c97.jpg","date":"2011-06-14","year":2011,"month":6,"lon":137.96916,"lat":36.236668,"tags":"castle","S2CellId":"601d400000000000","result":6554,"accuracy":0.79606205,"title":"Matsumoto+Castle"}
{"id":226176425,"url":"http://farm1.staticflickr.com/78/226176425_7003a244a6.jpg","path":"947/d13/947d13938fb3c6a3a191dd78f832a2.jpg","date":"2006-01-04","year":2006,"month":1,"lon":137.96841,"lat":36.238064,"tags":"c1,sanyo,wide,wideconversion,xacti","S2CellId":"3724000000000000","result":2419,"accuracy":0.14919196,"title":"Matsumoto+castle","description":"%3Ca+href%3D%22http%3A%2F%2Fclip.alpslab.jp%2Fbin%2Frd%3Fflickr%3D226176425%22+target%3D%22_blank%22%3E%5B%E5%9C%B0%E5%9B%B3%E3%82%92%E8%A1%A8%E7%A4%BA%5D%3C%2Fa%3E"}
{"id":4699611368,"url":"http://farm5.staticflickr.com/4046/4699611368_a0f9d3bde2.jpg","path":"42b/457/42b457423662656915d161accebf229.jpg","date":"2010-06-13","year":2010,"month":6,"lon":137.7938,"lat":36.57608,"tags":"%E3%82%A8%E3%83%B3%E3%83%87%E3%83%A5%E3%83%BC%E3%83%AD,%E4%BF%A1%E5%B7%9E%E5%A4%A7%E7%94%BA,%E7%88%BA%E3%83%B6%E5%B2%B3,enduro,jncc,mx,off-road,raw","S2CellId":"5495090000000000","result":6237,"accuracy":0.024918482,"title":"P6130606"}
{"id":3897912758,"url":"http://farm3.staticflickr.com/2557/3897912758_a133e9af3d.jpg","path":"8d4/d87/8d4d87fc626a15aa2029c3ae3c6cacb.jpg","date":"2009-08-30","year":2009,"month":8,"lon":137.7319,"lat":36.006767,"tags":"%E4%B9%97%E9%9E%8D,%E7%AC%AC24%E5%9B%9E%E5%85%A8%E6%97%A5%E6%9C%AC%E3%83%9E%E3%82%A6%E3%83%B3%E3%83%86%E3%83%B3%E3%82%B5%E3%82%A4%E3%82%AF%E3%83%AA%E3%83%B3%E3%82%B0in%E4%B9%97%E9%9E%8D,2009,qucc","S2CellId":"54c5000000000000","result":6306,"accuracy":0.06787597,"title":"2009.08.30_14.48.26.JPG"}
{"id":7885990848,"url":"http://farm9.staticflickr.com/8459/7885990848_3997ab0cd8.jpg","path":"24c/b01/24cb01fbb483461a35fdf3cb231b.jpg","date":"2012-01-08","year":2012,"month":1,"lon":137.8361,"lat":36.695133,"tags":"hakuba,japan,ski+jump,skiing,snow,sport,winter","S2CellId":"487a140000000000","result":5512,"accuracy":0.037720893,"title":"Eagle+start"}
{"id":2456896452,"url":"http://farm4.staticflickr.com/3048/2456896452_994c9b3168.jpg","path":"2d9/11d/2d911da5b127e30d64f96ce15d8b62a.jpg","date":"2008-04-29","year":2008,"month":4,"lon":137.2533,"lat":36.142036,"tags":"flower,takayama,tanpopo","S2CellId":"5490d00000000000","result":6226,"accuracy":0.02601609,"title":"20080429077"}
{"id":56456241,"url":"http://farm1.staticflickr.com/31/56456241_f2d90239d6.jpg","path":"ba6/66f/ba666f158d427a5d5b28bb1911395cc6.jpg","date":"2005-10-24","year":2005,"month":10,"lon":137.21375,"lat":36.702557,"tags":"%E7%AB%8B%E5%B1%B1,color","S2CellId":"6002c00000000000","result":6427,"accuracy":0.10682378,"title":"DSCF0385"}
{"id":103028099,"url":"http://farm1.staticflickr.com/41/103028099_301407bbc4.jpg","path":"bf7/156/bf7156663acda4ea93558497c62c90.jpg","date":"2005-08-13","year":2005,"month":8,"lon":137.81667,"lat":36.77193,"tags":"%E6%97%A5%E6%9C%AC,%E9%95%B7%E9%87%8E,%E9%95%B7%E9%87%8E%E7%9C%8C,damp,highland,japan,mrhayata,nagano,tsugaike","S2CellId":"4c90000000000000","result":5830,"accuracy":0.11925902,"title":"Floating+Island","description":"%3Ca+href%3D%22http%3A%2F%2Fclip.alpslab.jp%2Fbin%2Frd%3Fflickr%3D103028099%22+target%3D%22_blank%22%3E%5BMAP%5D%3C%2Fa%3E"}
{"id":12716822865,"url":"http://farm4.staticflickr.com/3785/12716822865_0f1bf2dd61.jpg","path":"ad4/3db/ad43db849571dbdb514ad269249efde7.jpg","date":"2014-01-25","year":2014,"month":1,"lon":137.23984,"lat":36.1412,"tags":"2014,d800,japan%E6%97%A5%E6%9C%AC,nikkor%E5%B0%BC%E5%85%8B%E5%B0%9485mmf1.8,nikon%E5%B0%BC%E5%BA%B7,takayama%E9%AB%98%E5%B1%B1","S2CellId":"3442a97400000000","result":2042,"accuracy":0.025142083,"title":"_DSC1015"}
{"id":10754125906,"url":"http://farm4.staticflickr.com/3710/10754125906_cf279ee533.jpg","path":"968/9d5/9689d573e7f720ad204eb354d575e7.jpg","date":"2013-10-19","year":2013,"month":10,"lon":137.88138,"lat":36.34364,"tags":"201310,azumino,nagano","S2CellId":"47e0c00000000000","result":4528,"accuracy":0.03224539,"title":"azumino"}
{"id":4722486298,"url":"http://farm2.staticflickr.com/1061/4722486298_338e319351.jpg","path":"751/2bf/7512bf3826f9223bca39f42e6bdf827.jpg","date":"2005-04-16","year":2005,"month":4,"lon":137.96907,"lat":36.238926,"tags":"%E6%9D%BE%E6%9C%AC%E5%9F%8E","S2CellId":"600108d000000000","result":6401,"accuracy":0.0627193,"title":"IMG_1328"}
{"id":13977167413,"url":"http://farm8.staticflickr.com/7364/13977167413_8675c2d2a5.jpg","path":"732/de6/732de68c703659e16165c92ce83c84fe.jpg","date":"2013-10-27","year":2013,"month":10,"lon":137.6504,"lat":36.567,"tags":"%E6%97%A5%E6%9C%AC,%E7%AB%8B%E5%B1%B1,%E7%AB%8B%E5%B1%B1%E9%BB%91%E9%83%A8,%E7%BE%8E%E5%A5%B3%E5%9D%AA,%E9%BB%91%E9%83%A8,%E9%BB%91%E9%83%A8%E6%B0%B4%E5%BA%AB,d7000,japan,nikon","S2CellId":"8740300000000000","result":7807,"accuracy":0.014089679,"title":"DSC_6373"}
{"id":2055829487,"url":"http://farm3.staticflickr.com/2099/2055829487_fe26a55ea1.jpg","path":"94c/85e/94c85e53395fbdb173d2917f39026fb.jpg","date":"2007-05-24","year":2007,"month":5,"lon":137.25992,"lat":36.151806,"tags":"%E9%AB%98%E5%B1%B1%E5%B8%82,gifu,japan,japan%2C+2007,takayama","S2CellId":"355ab00000000000","result":2274,"accuracy":0.062253527}
{"id":5400979628,"url":"http://farm6.staticflickr.com/5095/5400979628_4a07e2179b.jpg","path":"d91/37e/d9137ef75776dbbc39a895e30a0512b.jpg","date":"2011-01-30","year":2011,"month":1,"lon":137.9785,"lat":36.23991,"tags":"%E6%9D%BE%E6%9C%AC%E5%B1%B1%E9%9B%85,jfl","S2CellId":"8589c00000000000","result":7438,"accuracy":0.24166723,"title":"R0018043","description":"%E3%82%AD%E3%83%A3%E3%83%97%E3%83%86%E3%83%B3%E3%81%82%E3%81%84%E3%81%95%E3%81%A4%E3%80%80%E4%BB%8A%E5%B9%B4%E3%81%AFDF+%2320%E9%A0%88%E8%97%A4"}
{"id":12453563685,"url":"http://farm3.staticflickr.com/2812/12453563685_08774fb61f.jpg","path":"f9d/213/f9d2135034f5c7b16e3db4ed90141a.jpg","date":"2014-02-01","year":2014,"month":2,"lon":137.2577,"lat":36.142906,"tags":"%E3%82%AB%E3%83%95%E3%82%A7,%E3%82%B3%E3%83%83%E3%83%97,%E5%B2%90%E9%98%9C,%E6%B0%B4,%E9%AB%98%E5%B1%B1,af-s+dx+nikkor+35mm+f%2F1.8g,cafe,d7000,gifu,glass,nikon,takayama,water","S2CellId":"5f0b2c0000000000","result":6349,"accuracy":0.0045001986,"title":"20140201+Okuhida+3","description":"%E3%81%8A%E6%98%BC%E3%81%AF%E3%82%AB%E3%83%95%E3%82%A7%E3%83%8F%E3%83%8A%E3%83%9F%E3%82%BA%E3%82%AD%E3%81%95%E3%82%93%E3%80%82%E3%81%94%E9%A3%AF%E5%BE%85%E3%81%A1%E3%81%AE%E4%B8%80%E6%99%82%E3%81%A7%E3%81%99%E3%80%82%0A%40Hida+Kokubunji%2C+Takayama%2C+Gifu.+%EF%BC%88%E5%B2%90%E9%98%9C%E7%9C%8C%E9%AB%98%E5%B1%B1%E5%B8%82+%E9%86%AB%E7%8E%8B%E5%B1%B1+%E9%A3%9B%E9%A8%A8%E5%9B%BD%E5%88%86%E5%AF%BA%EF%BC%89"}
{"id":4845954348,"url":"http://farm5.staticflickr.com/4124/4845954348_2ea66a76f7.jpg","path":"179/65e/17965e1e8a556a9027c1fbf051172c41.jpg","date":"2010-07-30","year":2010,"month":7,"lon":137.7785,"lat":36.69,"tags":"da+18-55mm,flower,hakuba,happo,japan,mountain,nagano","S2CellId":"89c2f34000000000","result":9103,"accuracy":0.010720426,"title":"Happo+ridge+100730+%233"}
{"id":5683067097,"url":"http://farm6.staticflickr.com/5067/5683067097_9b7417f62e.jpg","path":"7dd/339/7dd339f2ee69a39dd7ff99f3f839c0.jpg","date":"2011-05-03","year":2011,"month":5,"lon":137.96912,"lat":36.2332,"tags":"beer,matsumoto,restaurant","S2CellId":"88de500000000000","result":8641,"accuracy":0.010920762,"title":"P1030963.JPG"}
{"id":6290226983,"url":"http://farm7.staticflickr.com/6045/6290226983_3f6396ccae.jpg","path":"6a2/fea/6a2feaf9e7f455573892d5ba378179e.jpg","date":"2011-10-29","year":2011,"month":10,"lon":137.65364,"lat":36.70161,"tags":"hefe,instagram+app,iphoneography,square,square+format","S2CellId":"12a8c00000000000","result":771,"accuracy":0.1575012}
{"id":12513591093,"url":"http://farm3.staticflickr.com/2827/12513591093_01754c527e.jpg","path":"822/c5d/822c5d4e414c3317085be3fb851adc1.jpg","date":"2014-02-06","year":2014,"month":2,"lon":137.25232,"lat":36.13812,"tags":"%E6%97%85%E9%A4%A8%E6%B8%85%E5%85%B5%E8%A1%9B,%E9%A3%9B%E9%A9%92%E9%AB%98%E5%B1%B1,hida,hotel,ryokan,takayama,tranditional","S2CellId":"6002c00000000000","result":6427,"accuracy":0.12145421,"title":"%E5%A5%B3%E5%B0%87%E9%A0%98%E6%88%91%E5%88%B0%E6%88%91%E7%9A%84%E6%88%BF%E9%96%93%2C+%E7%99%BC%E7%8F%BE%E5%BA%8A%E5%B7%B2%E7%B6%93%E5%B9%AB%E6%88%91%E9%8B%AA%E5%A5%BD%2C+%E6%9A%96%E6%B0%A3%E4%B9%9F%E6%94%BE%E4%BA%86%28%E5%A4%A7%E5%BF%83%29+%3C---%E8%A8%8E%E5%8E%AD%E8%87%AA%E5%B7%B1%E9%8B%AA%E5%BA%8A%E7%9A%84%E4%BA%BA"}
{"id":4872520323,"url":"http://farm5.staticflickr.com/4120/4872520323_da032670a4.jpg","path":"77e/351/77e351d97a20145bf3cfd75b3a15181.jpg","date":"2010-07-17","year":2010,"month":7,"lon":137.23615,"lat":36.132954,"tags":"%E6%B0%91%E4%BF%97%E6%9D%91,%E9%A3%9B%E9%A8%A8%E3%81%AE%E9%83%B7,folk,gifu-ken,hida,japan,loom,takayama,tools,village,wooden","S2CellId":"548ff00000000000","result":6177,"accuracy":0.022522418,"title":"Side+view%2C+wooden+hand+loom%2C+Hida+Folk+Village%2C+Hida+Takayama%2C+Gifu-ken","description":"Side+view%2C+wooden+hand+loom%2C+Hida+Folk+Village%2C+Hida+Takayama%2C+Gifu-ken%2C+Japan%2C+July+2010"}
{"id":4553938230,"url":"http://farm4.staticflickr.com/3462/4553938230_0191a0a9fc.jpg","path":"4cf/51c/4cf51c6156e644be336d7630f4bc4.jpg","date":"2010-04-25","year":2010,"month":4,"lon":137.21924,"lat":36.17779,"tags":"2010,asia,asia+trip,d200,eekhoorn,eekhoorns,eekhoorntje,eekhoorntjes,fotografie,hoek,japan,japan+trip,merlijn,merlijn+hoek,nikon,nikon+d200,photography,reis,reisje,sb800,squirrel,squirrels,takayama,travel","S2CellId":"80d9549000000000","result":7295,"accuracy":0.024928708,"title":"Japan+Trip+%2F+Squirrels+in+Takayama"}
{"id":7654967696,"url":"http://farm9.staticflickr.com/8009/7654967696_17b27645a2.jpg","path":"40a/f98/40af98a956f23a3513e5e248c41552.jpg","date":"2012-07-25","year":2012,"month":7,"lon":137.96733,"lat":36.23313,"tags":"fox+deity,inari,japan,matsumoto,nagano-ken,shinto,shrine","S2CellId":"60188ec400000000","result":6516,"accuracy":0.07339545,"title":"Fox+guardians+at+Inari+Shinto+shrine","description":"Fox+guardians+at+Inari+Shinto+shrine%2C+Matsumoto%2C+July+2012"}
{"id":5424989122,"url":"http://farm6.staticflickr.com/5251/5424989122_e9f062935d.jpg","path":"346/9c6/3469c689a34c4da5c2cc9f858cd768f4.jpg","date":"2011-02-06","year":2011,"month":2,"lon":137.25322,"lat":36.14134,"tags":"%E9%AB%98%E5%B1%B1","S2CellId":"5f0b2c0000000000","result":6349,"accuracy":0.016434371,"title":"%E9%AB%98%E5%B1%B1"}
{"id":2371325486,"url":"http://farm3.staticflickr.com/2399/2371325486_dfccbd0240.jpg","path":"a68/496/a6849687c2ae0412a75ec317efc5c3.jpg","date":"2008-03-29","year":2008,"month":3,"lon":137.21346,"lat":36.700066,"tags":"%E3%83%90%E3%82%B9,%E5%AF%8C%E5%B1%B1%E9%A7%85,%E6%89%8B%E6%8C%81%E3%81%A1%E6%92%AE%E5%BD%B1,bus,bus+stop,car,fa+43mm,handheld,japan,night,road,station,toyama","S2CellId":"3510000000000000","result":2252,"accuracy":0.021142457,"title":"Toyama+station%2C+midnight","description":"%E5%AF%8C%E5%B1%B1%E9%A7%85%E5%8D%97%E5%8F%A3%E3%80%82%E6%B7%B1%E5%A4%9C11%E6%99%82%E3%80%82%0A%E3%83%90%E3%82%B9%E3%81%AE%E7%99%BA%E7%9D%80%E5%A0%B4%E3%81%8C%E3%81%BB%E3%81%BC%E9%A7%90%E8%BB%8A%E5%A0%B4%E3%81%A8%E5%8C%96%E3%81%97%E3%81%A6%E3%81%84%E3%82%8B%E3%80%82%E3%83%A9%E3%83%BC%E3%83%A1%E3%83%B3%E5%B1%8B%E3%81%AE%E5%AE%A2%E3%81%A0%E3%81%91%E3%81%A7%E3%81%AF%E3%81%AA%E3%81%95%E3%81%9D%E3%81%86%E3%80%82"}
{"id":4976531734,"url":"http://farm5.staticflickr.com/4127/4976531734_eb37bc7e4b.jpg","path":"abf/760/abf760179fcc6ffc2a5295c241564d62.jpg","date":"2010-09-02","year":2010,"month":9,"lon":137.55432,"lat":36.13427,"tags":"%E3%81%93%E3%81%86%E3%81%92%E3%82%93,%E3%81%95%E3%82%93%E3%81%BC%E3%82%93%E3%81%A0%E3%81%8D,%E3%81%9F%E3%81%8D,%E3%81%AA%E3%81%8C%E3%81%AE%E3%81%91%E3%82%93,%E3%81%AE%E3%82%8A%E3%81%8F%E3%82%89,%E3%81%BE%E3%81%A4%E3%82%82%E3%81%A8%E3%81%97,%E4%B8%89%E6%9C%AC%E6%BB%9D,%E4%B9%97%E9%9E%8D,%E4%B9%97%E9%9E%8D%E9%AB%98%E5%8E%9F,%E6%9D%BE%E6%9C%AC%E5%B8%82,%E6%BB%9D,%E9%95%B7%E9%87%8E%E7%9C%8C,%E9%AB%98%E7%94%BB%E8%B3%AA,%E9%AB%98%E7%B2%BE%E7%B4%B0,5d,hi,hi-res,high,highland,mark+ii,matsumoto,nagano,norikura,plateau,res,resolution,sanbon-daki,waterfall","S2CellId":"54cd000000000000","result":6310,"accuracy":0.050234605,"title":"Sanbon-daki%28waterfall%29+%2F+%E4%B8%89%E6%9C%AC%E6%BB%9D%EF%BC%88%E3%81%95%E3%82%93%E3%81%BC%E3%82%93%E3%81%A0%E3%81%8D%EF%BC%89","description":"%3Ca+href%3D%22http%3A%2F%2Fwww.jnto.go.jp%2Feng%2Flocation%2Fregional%2Fnagano%2Fnorikura.html%22+rel%3D%22nofollow%22%3ENorikura-Kougen%28plateau%29%3C%2Fa%3E%2C+Matsumoto-shi%28city%29+Nagano-ken%28Prefecture%29%2C+Japan%0A%0A%E9%95%B7%E9%87%8E%E7%9C%8C%E6%9D%BE%E6%9C%AC%E5%B8%82%28%E3%81%AA%E3%81%8C%E3%81%AE%E3%81%91%E3%82%93+%E3%81%BE%E3%81%A4%E3%82%82%E3%81%A8%E3%81%97%29+%3Ca+href%3D%22http%3A%2F%2Fwww.norikura.gr.jp%2F%22+rel%3D%22nofollow%22%3E%E4%B9%97%E9%9E%8D%E9%AB%98%E5%8E%9F%28%E3%81%AE%E3%82%8A%E3%81%8F%E3%82%89%E3%81%93%E3%81%86%E3%81%92%E3%82%93%29%3C%2Fa%3E+%E4%B8%89%E6%9C%AC%E6%BB%9D%EF%BC%88%E3%81%95%E3%82%93%E3%81%BC%E3%82%93%E3%81%A0%E3%81%8D%EF%BC%89"}
{"id":2771123692,"url":"http://farm4.staticflickr.com/3106/2771123692_70ed648990.jpg","path":"697/baf/697baf8a291ebe95921eb4b46ac85e9.jpg","date":"2008-08-15","year":2008,"month":8,"lon":137.07744,"lat":36.675854,"tags":"toyama","S2CellId":"5ff8400000000000","result":6373,"accuracy":0.0404035,"title":"Toyama"}
{"id":4553948194,"url":"http://farm4.staticflickr.com/3231/4553948194_1a51fe7a90.jpg","path":"44b/84b/44b84b72ad7387c953be271d937fa39d.jpg","date":"2010-04-25","year":2010,"month":4,"lon":137.21924,"lat":36.17779,"tags":"2010,asia,asia+trip,d200,eekhoorn,eekhoorns,eekhoorntje,eekhoorntjes,fotografie,hoek,japan,japan+trip,merlijn,merlijn+hoek,nikon,nikon+d200,photography,reis,reisje,sb800,squirrel,squirrels,takayama,travel","S2CellId":"47fb000000000000","result":4734,"accuracy":0.022587163,"title":"Japan+Trip+%2F+Squirrels+in+Takayama"}
{"id":8565323256,"url":"http://farm9.staticflickr.com/8252/8565323256_288fdfca53.jpg","path":"6ea/f87/6eaf87df9823e70acc06ab7735a16cb.jpg","date":"2013-03-17","year":2013,"month":3,"lon":137.21274,"lat":36.694645,"tags":"%E3%83%9D%E3%82%B1%E3%83%A2%E3%83%B3,%E3%83%9D%E3%82%B1%E3%83%A2%E3%83%B3%E3%82%AD%E3%83%83%E3%82%BA,%E3%83%A6%E3%82%AD%E3%83%A1%E3%83%8E%E3%82%B3,%E5%AF%8C%E5%B1%B1,%E5%AF%8C%E5%B1%B1%E5%B8%82%E5%BD%B9%E6%89%80,%E5%AF%B5%E7%89%A9%E5%B0%8F%E7%B2%BE%E9%9D%88,%E7%A5%9E%E5%A5%87%E5%AF%B6%E8%B2%9D,%E9%9B%AA%E5%A6%96%E5%A5%B3,%EB%88%88%EC%97%AC%EC%95%84,figure,frosdedje,froslass,momartik,pok%C3%A9mon,pokemon,pokemon+kids,toyama,toyama+city+hall,toys","S2CellId":"5f0b2c0000000000","result":6349,"accuracy":0.43966806,"title":"Froslass+in+Toyama%2C+Toyama+5+%28Toyama+city+hall%29","description":"Reproduced+from+%22Kirby%27s+Town%22"}
{"id":7202756588,"url":"http://farm9.staticflickr.com/8141/7202756588_f0a8721233.jpg","path":"27b/127/27b127791fc6c4166b83a61bee21072.jpg","date":"2012-04-24","year":2012,"month":4,"lon":137.97072,"lat":36.23715,"tags":"japan,matsumoto,nagano+prefecture","S2CellId":"6003c00000000000","result":6438,"accuracy":0.06041497,"title":"Matsumoto+%28%E6%9D%BE%E6%9C%AC%E5%B8%82+Matsumoto-shi%29"}
{"id":215107002,"url":"http://farm1.staticflickr.com/60/215107002_40b62a4f34.jpg","path":"f27/1b6/f271b663d65c36d0ea4dcd64a1ad7c.jpg","date":"2006-08-14","year":2006,"month":8,"lon":137.22948,"lat":36.10741,"tags":"e6,film,frf,fuji+rock,fuji+rock+06,fuji+rock+festival,japan,leica,leica+mp,naeba,tele-elmarit,tele-elmarit+1%3A2.8+%2F+90+leitz+canada","S2CellId":"54906ab300000000","result":6212,"accuracy":0.0035425622,"title":"Fuji0031","description":"Fuji+Rock+2006"}
{"id":8450676798,"url":"http://farm9.staticflickr.com/8045/8450676798_5d6dda279f.jpg","path":"bbd/731/bbd7318fe24be91ee768aefd4fdfefdc.jpg","date":"2008-08-14","year":2008,"month":8,"lon":137.89558,"lat":36.334457,"tags":"%E5%AE%89%E6%9B%87%E9%87%8E%E8%8A%B1%E7%81%AB,%E8%8A%B1%E7%81%AB,fireworks","S2CellId":"5490151000000000","result":6184,"accuracy":0.027751068,"title":"IMG_3448"}
{"id":149763405,"url":"http://farm1.staticflickr.com/45/149763405_9b4d3aba43.jpg","path":"65f/d6c/65fd6c6fc1bc489c37f496b4df0c8.jpg","date":"2006-05-20","year":2006,"month":5,"lon":137.86194,"lat":36.32398,"tags":"japan,matsumoto,travel,twinf,worldtravel","S2CellId":"601d400000000000","result":6554,"accuracy":0.38287678,"title":"Patties+and+Mountains%2C+Hotaka%2C+Japan"}
{"id":6234297208,"url":"http://farm7.staticflickr.com/6114/6234297208_77692cb634.jpg","path":"eef/470/eef470f9352d329e25a178c9806a5bc6.jpg","date":"2011-10-10","year":2011,"month":10,"lon":137.80634,"lat":36.768166,"tags":"raw","S2CellId":"56c4000000000000","result":6318,"accuracy":0.1772593}
{"id":3565685283,"url":"http://farm4.staticflickr.com/3312/3565685283_4df0b5d88c.jpg","path":"511/554/51155437bf29b85930225e78a0c1fa7c.jpg","date":"2009-05-26","year":2009,"month":5,"lon":137.66144,"lat":36.56722,"tags":"%E3%81%8F%E3%82%8D%E3%81%B9%E3%83%80%E3%83%A0,%E3%81%A8%E3%82%84%E3%81%BE%E3%81%91%E3%82%93,%E5%90%88%E6%8E%8C%E6%9D%91,%E5%AE%A4%E5%A0%82,%E5%AF%8C%E5%B1%B1%E7%9C%8C,%E5%AF%8C%E5%B1%B1%E7%B8%A3,%E5%BA%95%E7%89%87,%E6%97%85%E9%81%8A,%E6%97%A5%E6%9C%AC,%E7%AB%8B%E5%B1%B1,%E7%AB%8B%E5%B1%B1%E9%BB%91%E9%83%A8,%E9%81%8E%E6%9C%9F%E5%BA%95%E7%89%87,%E9%9B%AA,%E9%BB%91%E9%83%A8%E7%AB%8B%E5%B1%B1,%E9%BB%92%E9%83%A8,%E9%BB%92%E9%83%A8%E3%83%80%E3%83%A0,17-40%2F4l,2009,200904,canon,dam,eos50e,fujifilm,japan,kurobe,kurobe+damu,reala+100,tateyama-machi,toyama+prefecture,toyama-ken","S2CellId":"4771400000000000","result":3386,"accuracy":0.06421148,"title":"%E7%AB%8B%E5%B1%B1%2C+%E9%BB%91%E9%83%A8%E6%B0%B4%E5%BA%AB","description":"20090424+%40+%E6%97%A5%E6%9C%AC%2C+%E5%AF%8C%E5%B1%B1%E7%B8%A3%2C+%E9%BB%91%E9%83%A8%E6%B0%B4%E5%BA%AB"}
{"id":43776536,"url":"http://farm1.staticflickr.com/25/43776536_6240601f98.jpg","path":"323/bc5/323bc53fcc02c3d7bae7495a8ede06c.jpg","date":"2005-09-16","year":2005,"month":9,"lon":137.22412,"lat":36.70306,"tags":"%E5%AF%8C%E5%B1%B1%E3%83%A9%E3%82%A4%E3%83%88%E3%83%AC%E3%83%BC%E3%83%AB,%E5%AF%8C%E5%B1%B1%E6%B8%AF%E7%B7%9A,%E8%B7%AF%E9%9D%A2%E9%9B%BB%E8%BB%8A,city,japan,road,tlr,toyama,tram,ttc","S2CellId":"6002c00000000000","result":6427,"accuracy":0.019706449,"title":"Construction+site+of+Toyama+Light+Rail+9%2F16+%231","description":"%E6%9C%AC%E6%A0%BC%E7%9A%84%E3%81%ABJR%E5%AF%8C%E5%B1%B1%E6%B8%AF%E7%B7%9A%E3%81%AE%E8%B7%AF%E9%9D%A2%E9%9B%BB%E8%BB%8A%E5%8C%96%E5%B7%A5%E4%BA%8B%E3%81%8C%E5%A7%8B%E3%81%BE%E3%81%A3%E3%81%A6%E5%A4%A7%E6%B8%8B%E6%BB%9E%E3%80%82%E3%81%93%E3%81%93%E3%81%AE%E8%B8%8F%E5%88%87%E3%81%AF%E4%BB%8A%E3%81%AF%E5%B7%A6%E5%8F%B3%E3%81%AB%E8%B5%B0%E3%81%A3%E3%81%A6%E3%81%84%E3%82%8B%E3%81%8C%E3%80%81%E3%81%93%E3%81%93%E3%81%A7%E6%80%A5%E3%82%AB%E3%83%BC%E3%83%96%E3%81%97%E3%81%A6%E5%A5%A5%E3%81%AE%E6%96%B9%E3%81%AB%E8%B5%B0%E3%82%8B%E3%82%88%E3%81%86%E3%81%AB%E3%81%AA%E3%82%8B%E3%81%AF%E3%81%9A%E3%80%82%0A%E5%A5%A5%E7%94%B0%E4%B8%AD%E4%BB%98%E8%BF%91"}
{"id":65543512,"url":"http://farm1.staticflickr.com/33/65543512_1eae3c5fe8.jpg","path":"c53/cf6/c53cf62dac47b2e2836e715602bb9.jpg","date":"2004-05-30","year":2004,"month":5,"lon":137.63672,"lat":36.527294,"tags":"2004,japan,vacation","S2CellId":"4744400000000000","result":3288,"accuracy":0.010453236,"title":"Japan20040530_RyoteiKoyo_Room3"}
{"id":101576962,"url":"http://farm1.staticflickr.com/34/101576962_f5c6e543f8.jpg","path":"f3a/ec0/f3aec01a103afc38b0e6e08757b49b3.jpg","date":"2005-08-13","year":2005,"month":8,"lon":137.86174,"lat":36.699615,"tags":"%E6%97%A5%E6%9C%AC,%E9%95%B7%E9%87%8E,%E9%95%B7%E9%87%8E%E7%9C%8C,hakuba,japan,mrhayata,nagano","S2CellId":"5f70000000000000","result":6358,"accuracy":0.03284576,"title":"Private+House","description":"%3Ca+href%3D%22http%3A%2F%2Fclip.alpslab.jp%2Fbin%2Frd%3Fflickr%3D101576962%22+target%3D%22_blank%22%3E%5BMAP%5D%3C%2Fa%3E"}
{"id":6971857630,"url":"http://farm8.staticflickr.com/7258/6971857630_754ee4dfdf.jpg","path":"c34/425/c34425f24d5826e881d062fee21cdd9.jpg","date":"2011-10-20","year":2011,"month":10,"lon":137.65051,"lat":36.566887,"tags":"14.80++km+to+koyanodaira++in+toyama+japan,japan,koyanodaira,toyama","S2CellId":"601d400000000000","result":6554,"accuracy":0.17086732,"title":"MA200454"}
{"id":7117190305,"url":"http://farm8.staticflickr.com/7184/7117190305_a080a58399.jpg","path":"541/e93/541e9380d7b2b1aa41a3d8cae6f277e2.jpg","date":"2011-10-19","year":2011,"month":10,"lon":137.65291,"lat":36.7029,"tags":"0.41++km+to+koyanodaira++in+toyama+japan,japan,koyanodaira,toyama","S2CellId":"12a6b00000000000","result":765,"accuracy":0.023873251,"title":"SA190166"}
{"id":2800209340,"url":"http://farm4.staticflickr.com/3235/2800209340_267d253641.jpg","path":"874/d2c/874d2c21f6abe57e7543847c72f1ae9.jpg","date":"2008-08-26","year":2008,"month":8,"lon":137.42798,"lat":36.157833,"tags":"%E8%87%AA%E7%84%B6%E3%81%AE%E8%B5%B0%E7%A0%B4%28%E4%BF%A1%E8%B6%8A%E9%A3%9B%E5%BD%88%E6%95%A3%E7%AD%96%29","S2CellId":"601d400000000000","result":6554,"accuracy":0.37577012,"title":"20070720_0929_006"}
{"id":3826402952,"url":"http://farm3.staticflickr.com/2504/3826402952_8082b1530e.jpg","path":"f34/80e/f3480e8571a1797841b3c2f464a31d3.jpg","date":"2009-08-15","year":2009,"month":8,"lon":137.63765,"lat":36.284595,"tags":"alps,gendarme,geotag,gps,japan,japanese,mountain,mt.aino,mt.hotaka,mt.maehotaka,mt.nishihotaka","S2CellId":"346f300000000000","result":2231,"accuracy":0.04383975,"title":"2009%2F08+Okuhotaka-Nhishihotaka","description":"Exif_JPEG_PICTURE"}
{"id":9647075634,"url":"http://farm3.staticflickr.com/2886/9647075634_f4ccf49505.jpg","path":"9db/d6f/9dbd6fd39bd4c75bd8c6d966c6825d23.jpg","date":"2012-10-14","year":2012,"month":10,"lon":137.79486,"lat":36.7842,"tags":"%D0%B2%D0%BE%D1%81%D1%85%D0%BE%D0%B4,%D0%B3%D0%BE%D1%80%D1%8B,%D0%BD%D0%B0%D0%B3%D0%B0%D0%BD%D0%BE,%D0%BD%D0%B5%D0%B1%D0%BE,%D0%BE%D0%B1%D0%BB%D0%B0%D0%BA%D0%B0,%D1%8F%D0%BF%D0%BE%D0%BD%D0%B8%D1%8F,clouds,japan,kitaazumi+district,lumix+gh2,mountains,sky,sunrise","S2CellId":"0c60500000000000","result":148,"accuracy":0.06745474,"title":"P1140289.jpg"}
{"id":10491251294,"url":"http://farm3.staticflickr.com/2883/10491251294_8d67d90b9b.jpg","path":"fa2/fd7/fa2fd793bfc2df9bad6682812ddbf3b.jpg","date":"2013-10-10","year":2013,"month":10,"lon":137.2571,"lat":36.15122,"tags":"2013,herfst","S2CellId":"60188ec400000000","result":6516,"accuracy":0.058907147,"title":"20131010+25+Takayama+-+Autumn+festival"}
{"id":12537348813,"url":"http://farm6.staticflickr.com/5478/12537348813_49a1aa7d7d.jpg","path":"b07/019/b070193c1d5fff3ecac91df6855493.jpg","date":"2012-10-14","year":2012,"month":10,"lon":137.64397,"lat":36.252544,"tags":"%E4%B8%8A%E9%AB%98%E5%9C%B0,%E6%B6%B8%E6%B2%A2,%E7%B4%85%E8%91%89,fall,kamikochi,karasawa,leaves,mountains","S2CellId":"601d400000000000","result":6554,"accuracy":0.92780656,"title":"Kamikochi+%E4%B8%8A%E9%AB%98%E5%9C%B0","description":"from+October+2012"}
{"id":7764806896,"url":"http://farm9.staticflickr.com/8304/7764806896_0f1e18e1bd.jpg","path":"f78/722/f78722561831ab5e9e79ad15a812836.jpg","date":"2012-08-03","year":2012,"month":8,"lon":137.7973,"lat":36.69676,"tags":"2012,alpine,august,bellflowers,campanula+punctata,flora,flowers,hakuba,happoone,honshu,hotarubukuro,japan,karamatsu,mountain","S2CellId":"5496400000000000","result":6277,"accuracy":0.006616031,"title":"Alpine+flowers%2C+Japan","description":"Beautiful+lilac+bellflowers+-+hotaru+bukuro+-+beside+the+walking+track+above+Happo+one+skifield+on+Mt+Karamatsu%2C+Hakuba%2C+Japan%0A%282012%2F139%29"}
{"id":7118144017,"url":"http://farm9.staticflickr.com/8157/7118144017_3180a156e8.jpg","path":"744/216/744216c96076d6a079edd5f018aadc5f.jpg","date":"2011-10-20","year":2011,"month":10,"lon":137.59875,"lat":36.5809,"tags":"12.85++km+to+iori++in+toyama+japan,iori,japan,toyama","S2CellId":"5ff7000000000000","result":6372,"accuracy":0.35402972,"title":"SA200424"}
{"id":7118097781,"url":"http://farm8.staticflickr.com/7210/7118097781_367a6dbebc.jpg","path":"f25/6c6/f256c6e3e365eae0af129dcd1584d4f.jpg","date":"2011-10-20","year":2011,"month":10,"lon":137.5879,"lat":36.579357,"tags":"12.20++km+to+iori++in+toyama+japan,iori,japan,toyama","S2CellId":"5ff7000000000000","result":6372,"accuracy":0.117631815,"title":"SA200349"}
{"id":8579653948,"url":"http://farm9.staticflickr.com/8250/8579653948_d88558e632.jpg","path":"983/497/9834973344dcfc35b07069a4f32a48dc.jpg","date":"2013-03-19","year":2013,"month":3,"lon":137.91164,"lat":36.345284,"tags":"18200mm,farm,hotaka,japan,nikon_d5100,plants,wasabi","S2CellId":"31da1d0000000000","result":1869,"accuracy":0.010863822,"title":"Daio+Wasabi+Farm","description":"A+visit+to+the+%3Ca+href%3D%22http%3A%2F%2Fwelcome.city.matsumoto.nagano.jp%2Fcontents03%2Bindex.id%2B15.htm%22+rel%3D%22nofollow%22%3EDaio+Wasabi+Farm%3C%2Fa%3E+outside+of+Matsumoto%2C+japan."}
{"id":1933440869,"url":"http://farm3.staticflickr.com/2085/1933440869_1a6cd7d821.jpg","path":"12d/d1c/12dd1c8c3cbc512b5f1e8dc4476c57.jpg","date":"2007-11-09","year":2007,"month":11,"lon":137.58179,"lat":36.82303,"tags":"%E4%BF%A1%E8%B6%8A%E9%A3%9B%E5%BD%88%E6%95%A3%E7%AD%96,%E8%87%AA%E7%84%B6%E3%81%AE%E8%B5%B0%E7%A0%B4","S2CellId":"3468840000000000","result":2159,"accuracy":0.22740395,"title":"20070714_092606_064"}
{"id":7118059691,"url":"http://farm9.staticflickr.com/8023/7118059691_e931f3da00.jpg","path":"40b/32a/40b32a181482848484f8aa5ef489f293.jpg","date":"2011-10-20","year":2011,"month":10,"lon":137.55176,"lat":36.56773,"tags":"9.25++km+to+awasu++in+toyama+japan,awasu,japan,toyama","S2CellId":"601d400000000000","result":6554,"accuracy":0.20238021,"title":"SA200289"}
{"id":92837546,"url":"http://farm1.staticflickr.com/37/92837546_9bb9445f5a.jpg","path":"614/fb3/614fb3376ed43ab1a41eb19b7e90e920.jpg","date":"2006-01-29","year":2006,"month":1,"lon":137.90314,"lat":36.809284,"tags":"hakuba,jake,little+emily,nagano,richard,snowboarding,winter","S2CellId":"8814b00000000000","result":8185,"accuracy":0.022741998,"title":"regreso+a+toyama","description":"el+regreso.+comodo+y+con+sue%C3%B1os+llenos+confusos"}
{"id":5400640028,"url":"http://farm6.staticflickr.com/5137/5400640028_d8f9d5f238.jpg","path":"5e2/93b/5e293bb52ebc0172bc4ad7af3f7d82f.jpg","date":"2011-01-21","year":2011,"month":1,"lon":137.58084,"lat":36.28235,"tags":"%E5%B2%90%E9%98%9C%E7%B8%A3,%E6%96%B0%E7%A9%97%E9%AB%98,%E6%97%85%E8%A1%8C,%E6%97%A5%E6%9C%AC,%E7%BA%9C%E8%BB%8A,gifu,japan,snow,travel,winter","S2CellId":"48745d8400000000","result":5130,"accuracy":0.012712969,"title":"110121_g_%E6%AD%A7%E9%98%9C%E7%B8%A3_%E6%96%B0%E7%A9%97%E9%AB%98%E7%BA%9C%E8%BB%8A_094"}
{"id":8832806770,"url":"http://farm6.staticflickr.com/5322/8832806770_d4db09ab7d.jpg","path":"96b/018/96b018689e9389fe4e8bba429dd7bddf.jpg","date":"2013-05-20","year":2013,"month":5,"lon":137.63733,"lat":36.249664,"tags":"japan,kamikochi,panorama","S2CellId":"601d400000000000","result":6554,"accuracy":0.746916,"title":"Clear+morning+in+Kamikochi"}
{"id":11514265955,"url":"http://farm4.staticflickr.com/3679/11514265955_003931c00b.jpg","path":"82f/f2e/82ff2eec693439b8e62bee7668ddec46.jpg","date":"2013-12-02","year":2013,"month":12,"lon":137.2556,"lat":36.139095,"tags":"d800,japan,nikon,takayama","S2CellId":"5ff8400000000000","result":6373,"accuracy":0.035418376,"title":"DSC_7731"}
{"id":3810540426,"url":"http://farm4.staticflickr.com/3427/3810540426_1b0d725f80.jpg","path":"844/365/844365c1b7c5555ca2d6367c20e3f7a.jpg","date":"2009-07-26","year":2009,"month":7,"lon":137.25684,"lat":36.14848,"tags":"%E5%A3%BD%E7%BE%8E%E5%90%89%E3%80%80%E6%97%85%E9%A4%A8,%E9%AB%98%E5%B1%B1,%E9%AB%98%E5%B1%B1%E5%B8%82,2009,breakfast,canon+450d,gifu,hida,hoba+miso,japan,japanese+food,july+2009,magnolia+leaf,miso,nihon,nippon,ryori,sumiyoshi+ryokan,takayama,travel,vegetarian","S2CellId":"3fb0000000000000","result":2634,"accuracy":0.0048032287,"title":"Breakfast+at+Sumiyoshi+ryokan","description":"Hoba+miso%2C+Hida+specialty+%28magnolia+leaf+topped+with+miso%2C+leeks+and+shiitake+mushrooms%29"}
{"id":9568002995,"url":"http://farm4.staticflickr.com/3722/9568002995_c47c8475c0.jpg","path":"d1c/afe/d1cafe7d37bfb0a46a3aa85e52cdb2.jpg","date":"2013-08-14","year":2013,"month":8,"lon":137.68556,"lat":36.2731,"tags":"film,fujifilm,japan,kamikochi,nagano,planar,planar+80mm+f%2F2.8,provia+100f,rdp+iii,rolleiflex,tlr,twin+lens+reflex","S2CellId":"601d400000000000","result":6554,"accuracy":0.5925194,"title":"Rolleiflex_Provia100F_Kamikochi_20130813_40","description":"Kamikochi%2C+Nagano%2C+Japan%0ARolleiflex+2.8+FX%0APlanar+80mm+f%2F2.8+HFT%0AFujichrome+Provia+100F+%28RDP+III%29"}
{"id":3290464,"url":"http://farm1.staticflickr.com/1/3290464_094e281376.jpg","path":"89b/e6d/89be6d8b0e39fce4c15604bfbdd8.jpg","date":"2005-01-13","year":2005,"month":1,"lon":137.21182,"lat":36.696487,"tags":"%E9%9B%AA%E9%81%93,japan,road,snow,toyama","S2CellId":"5f0b2c0000000000","result":6349,"accuracy":0.108417906,"title":"Shinsougawa","description":"Central+Toyama+city.%0D%0A%E5%AF%8C%E5%B1%B1%E5%B8%82%E6%96%B0%E7%B7%8F%E6%9B%B2%E8%BC%AA%E4%BB%98%E8%BF%91"}
{"id":6974579136,"url":"http://farm8.staticflickr.com/7245/6974579136_b44aeb2dc5.jpg","path":"847/a1a/847a1a0c5f52edf19ac30e301a4866.jpg","date":"2011-10-20","year":2011,"month":10,"lon":137.55571,"lat":36.566723,"tags":"9.62++km+to+awasu++in+toyama+japan,awasu,japan,toyama","S2CellId":"487604db00000000","result":5253,"accuracy":0.025100635,"title":"P1110138"}
{"id":13957616004,"url":"http://farm8.staticflickr.com/7113/13957616004_7e1939cb21.jpg","path":"743/9e1/7439e12470d79f72a8231f68a4c3deec.jpg","date":"2013-10-27","year":2013,"month":10,"lon":137.64137,"lat":36.569054,"tags":"%E6%97%A5%E6%9C%AC,%E7%AB%8B%E5%B1%B1,%E7%AB%8B%E5%B1%B1%E9%BB%91%E9%83%A8,%E7%BE%8E%E5%A5%B3%E5%9D%AA,%E9%BB%91%E9%83%A8,%E9%BB%91%E9%83%A8%E6%B0%B4%E5%BA%AB,d7000,japan,nikon","S2CellId":"601d400000000000","result":6554,"accuracy":0.15328275,"title":"DSC_6344"}
{"id":8438564120,"url":"http://farm9.staticflickr.com/8498/8438564120_4c1d5ecf80.jpg","path":"605/418/605418ab64c3ef32f458ff4054f2bd2b.jpg","date":"2013-02-02","year":2013,"month":2,"lon":137.3515,"lat":36.087925,"tags":"vuhungflickrmobile","S2CellId":"5f0d000000000000","result":6352,"accuracy":0.2310451,"title":"%E9%A3%9B%E9%A8%A8%E6%9C%9D%E6%97%A5%E6%9D%91%E2%98%85welcome+2013%E2%98%85","description":"There+is+no+excuse+for+being+brief+on+Android."}
{"id":2113947758,"url":"http://farm3.staticflickr.com/2197/2113947758_3264b77d9f.jpg","path":"f58/cf8/f58cf8079f97d9f2efe1b78d7250a7.jpg","date":"2007-12-14","year":2007,"month":12,"lon":137.23572,"lat":36.156727,"tags":"gassho,house,japan,takayama","S2CellId":"5ff8400000000000","result":6373,"accuracy":0.18890709,"title":"Takayama+Hida+Folk+Village"}
{"id":9764210901,"url":"http://farm8.staticflickr.com/7317/9764210901_ebc45eb8d9.jpg","path":"7ae/8c1/7ae8c1e43047725267d37c8ff1d1c4.jpg","date":"2013-07-28","year":2013,"month":7,"lon":137.64058,"lat":36.25424,"tags":"japan,kamikochi,matsomoto,resort","S2CellId":"5351d00000000000","result":6035,"accuracy":0.08813311,"title":"IMG_5618","description":"kamikochi+resort+matsomoto"}
{"id":474679421,"url":"http://farm1.staticflickr.com/188/474679421_fa7da98efa.jpg","path":"824/4bd/8244bd7b5a80269ff7fa6cee703e23f6.jpg","date":"2007-04-14","year":2007,"month":4,"lon":137.25871,"lat":36.150074,"tags":"japan","S2CellId":"601fc00000000000","result":6559,"accuracy":0.028941039,"title":"An+impressive+performance"}
{"id":6971467856,"url":"http://farm8.staticflickr.com/7259/6971467856_610a559662.jpg","path":"783/483/783483c58ad2ffa3e87eb759c90c9.jpg","date":"2011-10-19","year":2011,"month":10,"lon":137.40524,"lat":36.826984,"tags":"1.24++km+to+motoshin++in+toyama+japan,japan,motoshin,toyama","S2CellId":"601d400000000000","result":6554,"accuracy":0.10861469,"title":"P1100645"}
{"id":4863357580,"url":"http://farm5.staticflickr.com/4078/4863357580_62ddd5aa48.jpg","path":"b5e/199/b5e1998eae7e98e6774959f59fe43b5.jpg","date":"2010-08-01","year":2010,"month":8,"lon":137.22948,"lat":36.10741,"tags":"frf10,fuji+rock+10,fuji+rock+2010,fuji+rock+festival+2010,japan,leica+m9,leica+summilux+50mm+f1.4+asph,naeba,nigata","S2CellId":"12a4a25400000000","result":711,"accuracy":0.038056515,"title":"Troy+at+Atoms"}
{"id":7116281029,"url":"http://farm6.staticflickr.com/5234/7116281029_395da9427e.jpg","path":"c42/b7c/c42b7c5084832bd8e516de2d918b92.jpg","date":"2011-10-18","year":2011,"month":10,"lon":137.04205,"lat":36.814922,"tags":"2.75++km+to+fushiki++in+toyama+japan,fushiki,japan,toyama","S2CellId":"6019f00000000000","result":6550,"accuracy":0.058028158,"title":"MA180101"}
{"id":6971461944,"url":"http://farm8.staticflickr.com/7095/6971461944_fc5f363d44.jpg","path":"e29/c6e/e29c6ed7c86b66976022a8ae8116e7.jpg","date":"2011-10-19","year":2011,"month":10,"lon":137.65329,"lat":36.702045,"tags":"0.37++km+to+koyanodaira++in+toyama+japan,japan,koyanodaira,toyama","S2CellId":"4715c00000000000","result":3204,"accuracy":0.15649731,"title":"P1100803"}
{"id":7117094231,"url":"http://farm9.staticflickr.com/8022/7117094231_39189eafaf.jpg","path":"18a/d58/18ad588ff5293e2fd4b9e95bcdd50a3.jpg","date":"2011-10-19","year":2011,"month":10,"lon":137.64824,"lat":36.720734,"tags":"2.31++km+to+koyanodaira++in+toyama+japan,japan,koyanodaira,toyama","S2CellId":"601d400000000000","result":6554,"accuracy":0.15004054,"title":"SA190036"}
{"id":7504827594,"url":"http://farm9.staticflickr.com/8426/7504827594_5c7d8e0ef1.jpg","path":"ad3/f5d/ad3f5de4393add28bca1341e3328f7.jpg","date":"2012-06-29","year":2012,"month":6,"lon":137.25745,"lat":36.13988,"tags":"japan2012","S2CellId":"6002c00000000000","result":6427,"accuracy":0.15117373,"title":"DSC03495"}
{"id":56465877,"url":"http://farm1.staticflickr.com/27/56465877_fbdcda319c.jpg","path":"4b1/2be/4b12be11b758a799b6ce9dbb49281.jpg","date":"2005-10-23","year":2005,"month":10,"lon":137.21375,"lat":36.702557,"tags":"%E7%AB%8B%E5%B1%B1,black,white","S2CellId":"548ff00000000000","result":6177,"accuracy":0.008463926,"title":"DSCF0324"}
{"id":7118319877,"url":"http://farm8.staticflickr.com/7224/7118319877_d1c5fb35ed.jpg","path":"ee4/33c/ee433c444c777969e5f541f72ed03fe0.jpg","date":"2011-10-20","year":2011,"month":10,"lon":137.65765,"lat":36.56424,"tags":"15.11++km+to+koyanodaira++in+toyama+japan,japan,koyanodaira,toyama","S2CellId":"60013c0000000000","result":6413,"accuracy":0.04238041,"title":"P1110247"}
{"id":2770275125,"url":"http://farm4.staticflickr.com/3155/2770275125_002b1dbe32.jpg","path":"3a4/33c/3a433cbbda7e0bc825d73247e3bb5f.jpg","date":"2008-08-15","year":2008,"month":8,"lon":137.07744,"lat":36.675854,"tags":"toyama","S2CellId":"6018d00000000000","result":6526,"accuracy":0.043521266,"title":"Toyama"}
{"id":2799382541,"url":"http://farm4.staticflickr.com/3263/2799382541_dfc430350a.jpg","path":"c07/740/c077402263b34e3c4cf9e424210b458.jpg","date":"2008-08-26","year":2008,"month":8,"lon":137.42798,"lat":36.157833,"tags":"%E8%87%AA%E7%84%B6%E3%81%AE%E8%B5%B0%E7%A0%B4%28%E4%BF%A1%E8%B6%8A%E9%A3%9B%E5%BD%88%E6%95%A3%E7%AD%96%29","S2CellId":"14a1bd3c00000000","result":1257,"accuracy":0.010592629,"title":"20070720_1144_078"}
{"id":6971846400,"url":"http://farm8.staticflickr.com/7086/6971846400_e8ee75ecd5.jpg","path":"5d9/594/5d95945cf0dec1d78e73d1cddcb3c.jpg","date":"2011-10-20","year":2011,"month":10,"lon":137.63177,"lat":36.569626,"tags":"14.59++km+to+koyanodaira++in+toyama+japan,japan,koyanodaira,toyama","S2CellId":"4776f00000000000","result":3424,"accuracy":0.10866175,"title":"MA200437"}
{"id":9521957337,"url":"http://farm4.staticflickr.com/3813/9521957337_8f8eb9712f.jpg","path":"75b/f44/75bf44cff62a124c4ea224db45d0e4.jpg","date":"2013-08-14","year":2013,"month":8,"lon":137.62878,"lat":36.150852,"tags":"%E6%97%A5%E6%9C%AC,%E6%9D%BE%E6%9C%AC%E5%B8%82,%E9%95%B7%E9%87%8E%E7%9C%8C","S2CellId":"12a8c00000000000","result":771,"accuracy":0.053507112,"title":"%E7%99%BD%E9%AA%A8%E6%B8%A9%E6%B3%89%E4%BB%98%E8%BF%91"}
{"id":2570270514,"url":"http://farm4.staticflickr.com/3033/2570270514_44afb080ab.jpg","path":"34b/285/34b2858f2811e01f46eab51f1d1336.jpg","date":"2008-06-10","year":2008,"month":6,"lon":137.04395,"lat":36.8137,"tags":"%E5%8D%98%E8%A1%8C%E5%88%97%E8%BB%8A,%E6%B0%B7%E8%A6%8B%E7%B7%9A,da+16-45mm,diesel,japan,rail,sea,takaoka,toyama,train","S2CellId":"6019b00000000000","result":6548,"accuracy":0.14094979,"title":"Amaharashi+coast%2C+Himi+line","description":"%E6%B0%B7%E8%A6%8B%E7%B7%9A%E3%80%81%E9%9B%A8%E6%99%B4%E6%B5%B7%E5%B2%B8"}
{"id":3616473830,"url":"http://farm4.staticflickr.com/3620/3616473830_d431f60f7b.jpg","path":"f05/ee0/f05ee0ed413e96c4f7a64ee29d26d96.jpg","date":"2007-05-09","year":2007,"month":5,"lon":137.97244,"lat":36.23441,"tags":"japan,marumo,matsumoto,ryokan","S2CellId":"3551000000000000","result":2265,"accuracy":0.05798237,"title":"Marumo+Ryokan+In+Matsumoto","description":"The+ryokan+where+we+stayed+in+Matsumoto.+Luckily+I+could+read+the+simple+Japanese+characters%2C+otherwise+we+might+never+have+spotted+it%21"}
{"id":150492876,"url":"http://farm1.staticflickr.com/52/150492876_e31472f37e.jpg","path":"25b/62a/25b62aeba8c0b09e9910cfc3e1deef5a.jpg","date":"2005-10-08","year":2005,"month":10,"lon":137.83687,"lat":36.54605,"tags":"fall+2005,far+east,jacki,japan,vending+machine","S2CellId":"89b7b7ec00000000","result":8879,"accuracy":0.012475021,"title":"IMG_0222.JPG"}
{"id":6806612253,"url":"http://farm8.staticflickr.com/7001/6806612253_a82d616373.jpg","path":"321/27d/32127dd67bc504e1493277b86929c82.jpg","date":"2012-01-30","year":2012,"month":1,"lon":137.80116,"lat":36.75594,"tags":"%E6%97%A5%E6%9C%AC,%E7%84%BC%E8%82%89,%E7%99%BD%E9%A6%AC,%E9%95%B7%E9%87%8E%E7%9C%8C,alpine+touring,backcountry,backcountry+skiing,cortina,hakuba,hakuba+cortina+kokusai,nagano,nagano+prefecture,powder,ski,skiing,touring,travel,travelling","S2CellId":"45d4000000000000","result":2755,"accuracy":0.06143408,"title":"white+smoke","description":"damian+disappears+into+the+white+room+behind+the+stillness+of+the+hakuba+backcountry%0A%0Awhat+a+run"}
{"id":4698938355,"url":"http://farm5.staticflickr.com/4014/4698938355_f6d584a134.jpg","path":"3c5/d5e/3c5d5eec3dead4ac4962d989da86653.jpg","date":"2010-06-13","year":2010,"month":6,"lon":137.7938,"lat":36.57608,"tags":"%E3%82%A8%E3%83%B3%E3%83%87%E3%83%A5%E3%83%BC%E3%83%AD,%E4%BF%A1%E5%B7%9E%E5%A4%A7%E7%94%BA,%E7%88%BA%E3%83%B6%E5%B2%B3,enduro,jncc,mx,off-road,raw","S2CellId":"476dd00000000000","result":3375,"accuracy":0.29891053,"title":"P6130436"}
{"id":4543250454,"url":"http://farm5.staticflickr.com/4008/4543250454_298cd222e5.jpg","path":"558/e33/558e336dae876b86bd1ac857f10eda1.jpg","date":"2010-04-22","year":2010,"month":4,"lon":137.21924,"lat":36.17779,"tags":"2010,asia,asia+trip,bad,baden,bading,blood,bloodje,d200,fotografie,hoek,japan,japan+trip,merlijn,merlijn+hoek,mountains,naakt,naked,nikon,nikon+d200,onsen,photography,reis,reisje,sb800,takayama,travel,water","S2CellId":"8c05400000000000","result":9414,"accuracy":0.03193043,"title":"Japan+Trip+%2F+Eralda+%26+Merlijn+in+an+Onsen","description":"At+the+13th+floor+of+our+hotel+was+a+great+Onsen+where+we+relaxed+and+enjoyed+the+view."}
{"id":6971461318,"url":"http://farm8.staticflickr.com/7279/6971461318_582e138ae9.jpg","path":"f15/71b/f1571bc4e8daae7044dca47ba431e1b.jpg","date":"2011-10-19","year":2011,"month":10,"lon":137.58524,"lat":36.81503,"tags":"0.25++km+to+unazuki++in+toyama+japan,japan,toyama,unazuki","S2CellId":"5ff7000000000000","result":6372,"accuracy":0.18873155,"title":"P1110123"}
{"id":6234315164,"url":"http://farm7.staticflickr.com/6154/6234315164_3d3d71ae00.jpg","path":"7a3/0df/7a30dfa1621396779f5de5a2e8b7e9.jpg","date":"2011-10-10","year":2011,"month":10,"lon":137.79916,"lat":36.767666,"tags":"raw","S2CellId":"601d400000000000","result":6554,"accuracy":0.65553224}
{"id":7117517687,"url":"http://farm8.staticflickr.com/7051/7117517687_21f97fd1c5.jpg","path":"105/af5/105af5c41ebe6c6bbc971f3eacafa71.jpg","date":"2011-10-19","year":2011,"month":10,"lon":137.64883,"lat":36.74293,"tags":"4.77++km+to+koyanodaira++in+toyama+japan,japan,koyanodaira,toyama","S2CellId":"4785500000000000","result":3566,"accuracy":0.4472742,"title":"P1100967"}
{"id":2805519853,"url":"http://farm4.staticflickr.com/3041/2805519853_3068806028.jpg","path":"541/6bb/5416bb371e5b4af36f94549f36acfba.jpg","date":"2008-08-28","year":2008,"month":8,"lon":137.51587,"lat":36.189983,"tags":"%E8%87%AA%E7%84%B6%E3%81%AE%E8%B5%B0%E7%A0%B4%28%E4%BF%A1%E8%B6%8A%E9%A3%9B%E5%BD%88%E6%95%A3%E7%AD%96%29","S2CellId":"47edc00000000000","result":4703,"accuracy":0.07478909,"title":"20070721_1426_111"}
{"id":6972241654,"url":"http://farm9.staticflickr.com/8148/6972241654_ca7db72778.jpg","path":"519/8eb/5198eb6857487b394dd87a4ecefb2a6.jpg","date":"2011-10-20","year":2011,"month":10,"lon":137.55734,"lat":36.56746,"tags":"9.75++km+to+awasu++in+toyama+japan,awasu,japan,toyama","S2CellId":"89e4900000000000","result":9369,"accuracy":0.059424024,"title":"P1110150"}
{"id":2806365552,"url":"http://farm4.staticflickr.com/3108/2806365552_428da83b99.jpg","path":"8a7/574/8a75743956749e4dad271494741bba.jpg","date":"2008-08-28","year":2008,"month":8,"lon":137.51587,"lat":36.189983,"tags":"%E8%87%AA%E7%84%B6%E3%81%AE%E8%B5%B0%E7%A0%B4%28%E4%BF%A1%E8%B6%8A%E9%A3%9B%E5%BD%88%E6%95%A3%E7%AD%96%29","S2CellId":"601d400000000000","result":6554,"accuracy":0.24138881,"title":"20070721_1357_093"}
{"id":8432115570,"url":"http://farm9.staticflickr.com/8464/8432115570_0512701ff2.jpg","path":"396/33d/39633de574db6c7f39e2bc8af988443.jpg","date":"2012-12-28","year":2012,"month":12,"lon":137.26326,"lat":36.144493,"tags":"%E6%97%A5%E6%9C%AC,%E9%AB%98%E5%B1%B1%E5%B8%82,japan,takayama,temple","S2CellId":"5ff8400000000000","result":6373,"accuracy":0.14228378,"title":"20121228_IMG_2493"}
{"id":7423750056,"url":"http://farm8.staticflickr.com/7106/7423750056_145b171973.jpg","path":"b19/2f2/b192f2f210923d6e77c4f87ccdd1c1e2.jpg","date":"2012-04-23","year":2012,"month":4,"lon":137.96944,"lat":36.238586,"tags":"castle,japan,matsumoto-jo,sakura,spring","S2CellId":"601d400000000000","result":6554,"accuracy":0.0533098,"title":"Matsumoto+Castle"}
{"id":2684017751,"url":"http://farm4.staticflickr.com/3251/2684017751_a14ee13dbe.jpg","path":"855/a93/855a93177299c96c36a3d64c75ac75a.jpg","date":"2008-06-17","year":2008,"month":6,"lon":137.96835,"lat":36.238594,"tags":"2008,cameraperson+shannon,castle,day+6,japan,june,matsumoto,matsumoto+castle,set+-+japan,sign,travel","S2CellId":"6018894000000000","result":6464,"accuracy":0.08092131,"title":"149+-+Matsumoto+Castle+-+20080617","description":"Background%3A+This+was+a+busy+day.+A+3+1%2F2+hour+train+Ride+to+Matsumoto+to+See+Matsumoto+Castle.+Then+a+40+minute+train+ride+to+Nagano+to+see+the+Zenko-ji+Temple.+We+wanted+to+see+the+snow+monkeys+too%2C+but+we+ran+out+of+time.+So+back+to+Tokyo%2C+which+was+only+about+a+2+hour+train+ride+from+Nagano.+The+snow+monkeys+would+have+to+wait+till+the+next+day.%0A%0ARead+my+blog+at%3A+%3Ca+href%3D%22http%3A%2F%2Fchriggy.wordpress.com%22%3Echriggy.wordpress.com%3C%2Fa%3E"}
{"id":6967422846,"url":"http://farm8.staticflickr.com/7040/6967422846_0e5bfb93c6.jpg","path":"cc2/065/cc2065c61d1d616711182cc5e084c39f.jpg","date":"2011-10-16","year":2011,"month":10,"lon":137.66602,"lat":36.24932,"tags":"9.30++km+to+sawando++in+nagano+japan,japan,nagano,sawando","S2CellId":"601d400000000000","result":6554,"accuracy":0.34791535,"title":"SA166869"}
{"id":7120656139,"url":"http://farm8.staticflickr.com/7068/7120656139_58e9d58520.jpg","path":"703/85d/70385d5c51602ddd3643493126c71821.jpg","date":"2011-10-20","year":2011,"month":10,"lon":137.55696,"lat":36.567398,"tags":"9.71++km+to+awasu++in+toyama+japan,awasu,japan,toyama","S2CellId":"6018ef0000000000","result":6534,"accuracy":0.05568744,"title":"P1110143"}
{"id":2886493741,"url":"http://farm4.staticflickr.com/3274/2886493741_02c416e899.jpg","path":"6e6/6db/6e66db97f2438f8c79671224e02f3c71.jpg","date":"2008-09-24","year":2008,"month":9,"lon":137.63333,"lat":36.25,"tags":"alpen,alps,hiking,japan,japan+alps,japanese,trekking","S2CellId":"4cb3c00000000000","result":5851,"accuracy":0.10834704,"title":"Japan+Northern+Alps+65","description":"Follow+my+travels+online+at+%3Ca+href%3D%22http%3A%2F%2Ftravel.beiske.com%22+rel%3D%22nofollow%22%3Etravel.beiske.com%3C%2Fa%3E"}
{"id":4550545104,"url":"http://farm5.staticflickr.com/4002/4550545104_c36be3818e.jpg","path":"91e/74a/91e74a559cf79443f7c28e4c2173224.jpg","date":"2010-04-24","year":2010,"month":4,"lon":137.87344,"lat":36.350666,"tags":"2010,alps,asia,asia+trip,berg,bergen,concert,d200,fotografie,hoek,japan,japan+trip,japanese+alps,japanse+alpen,kabelbaan,merlijn,merlijn+hoek,mount+view+sengoku,mountains,nabedaira+kogen,nikon,nikon+d200,nishihodakaguchi,performance,performing,photography,reis,reisje,sb800,sengokuenchi,shinhotaka+onsen,shinhotaka+ropeway,shirakabadaira,snow,travel","S2CellId":"3563000000000000","result":2279,"accuracy":0.18161274,"title":"Japan+Trip+%2F+Concert+in+Shirakabadaira"}
{"id":7117330833,"url":"http://farm8.staticflickr.com/7059/7117330833_42b7e95a7e.jpg","path":"9e3/71a/9e371afc5c3cddb97f18d41803f1a78.jpg","date":"2011-10-19","year":2011,"month":10,"lon":137.40526,"lat":36.826977,"tags":"1.24++km+to+motoshin++in+toyama+japan,japan,motoshin,toyama","S2CellId":"601d400000000000","result":6554,"accuracy":0.05035376,"title":"P1100656"}
{"id":7980993665,"url":"http://farm9.staticflickr.com/8462/7980993665_7bf60350ac.jpg","path":"179/693/1796932087bfbea7291093e95963c0.jpg","date":"2012-09-13","year":2012,"month":9,"lon":137.19852,"lat":36.69375,"tags":"hudson,instagram+app,iphoneography,square,square+format","S2CellId":"808fc90000000000","result":7068,"accuracy":0.13413058}
{"id":8832760660,"url":"http://farm4.staticflickr.com/3815/8832760660_cea3883189.jpg","path":"1bb/c1e/1bbc1ef3567ea569d45d31322b5ff072.jpg","date":"2013-05-20","year":2013,"month":5,"lon":137.63766,"lat":36.248333,"tags":"japan,kamikochi","S2CellId":"601d400000000000","result":6554,"accuracy":0.91902304,"title":"Clearer+morning+in+Kamikochi"}
