{"id":7540025000,"url":"http://farm9.staticflickr.com/8165/7540025000_9881b94260.jpg","path":"e6c/4aa/e6c4aa6ff4268c53b0c96c9db2d61c8.jpg","date":"2012-07-05","year":2012,"month":7,"lon":-98.781334,"lat":20.066734,"tags":"banda,color,hidalgo,ljhclr,ljhdal1855,ljhgte,ljhhgo,ljhpch,ljhpk-x,ljhstp,m%C3%A9xico,m%C3%BAsica,music,pachuca,pentax+dal+18-55,pentax+k-x,sinaloa,street+photography","S2CellId":"86cc000000000000","result":7689,"accuracy":0.05565613,"title":"Los+Tecateando","description":"M%C3%A1s+de+una+hora+de+tortura+haciendo+cola+para+comprar+unos+pollos.+No+aguant%C3%A9+m%C3%A1s."}
{"id":491354653,"url":"http://farm1.staticflickr.com/228/491354653_a31aa5db31.jpg","path":"75b/34e/75b34ea9afa5bab4b9e29c87d6d9a93.jpg","date":"2007-05-09","year":2007,"month":5,"lon":-98.745476,"lat":20.109808,"tags":"art,design,dise%C3%B1o,estado+de+sitio,fashion,fotomanipulacion,girl,graphic,lnbiohazard,mexico,moda,photomanipulation,portrait","S2CellId":"40c4000000000000","result":2690,"accuracy":0.011427563,"title":"Fashion-4"}
{"id":2441689702,"url":"http://farm4.staticflickr.com/3217/2441689702_ee918d37e3.jpg","path":"4a5/a66/4a5a66668fca1ddb9c60301bccd6d77c.jpg","date":"2008-04-25","year":2008,"month":4,"lon":-98.369,"lat":20.085033,"tags":"dog,mastin+espa%C3%B1ol,mastin+leones,mexico,perro,spanish+mastiff,tulancingo","S2CellId":"88f5b00000000000","result":8731,"accuracy":0.013882743,"title":"duke-10"}
{"id":2200115012,"url":"http://farm3.staticflickr.com/2420/2200115012_a1e5c20d9f.jpg","path":"5f8/539/5f8539131c0156fbbd763fc99e8eefc.jpg","date":"2008-01-09","year":2008,"month":1,"lon":-98.7083,"lat":20.093014,"tags":"a+y+fm+2008,ben,david+kerr,delil,integrales+estoc%C3%A1sticas,jorge+garc%C3%ADa,matematicas,math,oli,paul,plumerio+pipichas,stochastic+calculus,uaeh","S2CellId":"89e370b000000000","result":9319,"accuracy":0.026837194,"title":"Panorama"}
{"id":3994759304,"url":"http://farm4.staticflickr.com/3512/3994759304_9ee12d79df.jpg","path":"b3a/272/b3a2721a7462e8ce7f8a76d8050ff4b.jpg","date":"2009-09-20","year":2009,"month":9,"lon":-98.94459,"lat":20.271215,"tags":"actopan,convento,hidalgo,hueva,m%C3%A9xico,perro+huev%C3%B3n,perros,plumerio+pipichas","S2CellId":"91b0000000000000","result":9626,"accuracy":0.026086332,"title":"Ech%C3%A1ndola","description":"Perros+tirando+la+fiaca+en+la+plaza+del+Convento+de+Actopan."}
{"id":847865927,"url":"http://farm2.staticflickr.com/1156/847865927_3a8718a147.jpg","path":"63c/e3d/63ce3dc788ddf5209bbb74baceaa5c4.jpg","date":"2007-07-01","year":2007,"month":7,"lon":-98.66993,"lat":20.138792,"tags":"dflickr,dflickr010707,hidalgo,m%C3%A9xico,minas,real+del+monte","S2CellId":"96a9000000000000","result":9916,"accuracy":0.022125846,"title":"Tejado"}
{"id":2292825396,"url":"http://farm4.staticflickr.com/3178/2292825396_07a5354c1b.jpg","path":"7b6/6f6/7b66f63764ec17784d1cfdbb32458.jpg","date":"2008-02-25","year":2008,"month":2,"lon":-98.6713,"lat":20.13299,"tags":"2008,algorithm,ciudad+colonial,colonial+city,journey,pueblo+m%C3%A1gico,real+del+minerales,real+del+monte,real+del+monte%2C+hidalgo%2C+mexico,silver+city,swigart","S2CellId":"0d42100000000000","result":347,"accuracy":0.047078867,"title":"Real+Del+Monte+074"}
{"id":3542616803,"url":"http://farm3.staticflickr.com/2313/3542616803_a84fd95422.jpg","path":"c12/31d/c1231dfb8c8f10c96ff63229c3ad374.jpg","date":"2009-05-16","year":2009,"month":5,"lon":-98.56247,"lat":20.234364,"tags":"cavalcada,galope,hidalgo,influenza,starobs","S2CellId":"9410000000000000","result":9669,"accuracy":0.047319364,"title":"cavalcade"}
{"id":109723474,"url":"http://farm1.staticflickr.com/46/109723474_4b4dcdb879.jpg","path":"5ec/b7e/5ecb7eb79127bfef6ca23055dc6987d3.jpg","date":"2006-03-05","year":2006,"month":3,"lon":-98.75259,"lat":20.122675,"tags":"futbol,mexico,pumas,soccer,unam","S2CellId":"89c2f44000000000","result":9105,"accuracy":0.053161826,"title":"La+rebel"}
{"id":3542598089,"url":"http://farm4.staticflickr.com/3415/3542598089_88ef54c419.jpg","path":"76b/602/76b602585b0e485d5b591a7e7f34f29.jpg","date":"2009-05-16","year":2009,"month":5,"lon":-98.56247,"lat":20.234364,"tags":"basalticas,hidalgo,prismas,starobs","S2CellId":"88d0a631cabb5071","result":8563,"accuracy":0.009619177,"title":"Prismas"}
{"id":8162967719,"url":"http://farm9.staticflickr.com/8350/8162967719_fb2afd2704.jpg","path":"b7a/668/b7a6686dc96a8b51729f59d2cc10ce79.jpg","date":"2012-11-02","year":2012,"month":11,"lon":-98.0526,"lat":20.89703,"tags":"m%C3%A9xico,paisajes,veracruz,viaje","S2CellId":"8e6c000000000000","result":9486,"accuracy":0.0525896,"title":"Veracruz","description":"Viaje+por+Veracruz+en+Noviembre+del+2012."}
{"id":848233122,"url":"http://farm2.staticflickr.com/1410/848233122_c47d495a37.jpg","path":"757/0af/7570af3a1caffa7f60c8a579861e7b3f.jpg","date":"2007-07-01","year":2007,"month":7,"lon":-98.66993,"lat":20.138792,"tags":"dflickr,dflickr010707,hidalgo,m%C3%A9xico,minas,real+del+monte","S2CellId":"8f73000000000000","result":9550,"accuracy":0.028955933,"title":"%C2%BFLe+habla+la+virgen%3F"}
{"id":85535995,"url":"http://farm1.staticflickr.com/40/85535995_36d1e2b06e.jpg","path":"d25/585/d25585ed94c3fef5086129d937c3811.jpg","date":"2006-01-11","year":2006,"month":1,"lon":-98.7307,"lat":20.215408,"tags":"2005,el+chico,hidalgo,mexico,pueblo,town","S2CellId":"0d6d400000000000","result":566,"accuracy":0.012035332,"title":"Ale"}
{"id":8875895758,"url":"http://farm6.staticflickr.com/5452/8875895758_6c2b140f79.jpg","path":"7b8/95d/7b895dbad6cdcfd1f4139c6654c25ea7.jpg","date":"2013-04-19","year":2013,"month":4,"lon":-98.41185,"lat":20.068516,"tags":"hgo,mx,ptsca+hidalgo+hgo,tulancingo","S2CellId":"86cc000000000000","result":7689,"accuracy":0.019842867,"title":"2013-04-19-16-36-43"}
{"id":2292592556,"url":"http://farm3.staticflickr.com/2147/2292592556_4cd193e3aa.jpg","path":"e4b/239/e4b2391d74b13a4a83d4c8c27accb9ed.jpg","date":"2008-02-25","year":2008,"month":2,"lon":-98.6713,"lat":20.13299,"tags":"2008,algorithm,ciudad+colonial,colonial+city,journey,pueblo+m%C3%A1gico,real+del+minerales,real+del+monte,real+del+monte%2C+hidalgo%2C+mexico,silver+city,swigart","S2CellId":"842b400000000000","result":7428,"accuracy":0.3200426,"title":"Real+Del+Monte+110"}
{"id":2291944621,"url":"http://farm4.staticflickr.com/3184/2291944621_b8333d7fc7.jpg","path":"345/eae/345eae22b3fbc08987a0bfd54457f5f7.jpg","date":"2008-02-25","year":2008,"month":2,"lon":-98.6713,"lat":20.13299,"tags":"2008,algorithm,ciudad+colonial,colonial+city,journey,pueblo+m%C3%A1gico,real+del+minerales,real+del+monte,real+del+monte%2C+hidalgo%2C+mexico,silver+city,swigart","S2CellId":"865cf00000000000","result":7669,"accuracy":0.056600764,"title":"Real+Del+Monte+095"}
{"id":5807705382,"url":"http://farm4.staticflickr.com/3390/5807705382_5f23fdde8a.jpg","path":"512/6e0/5126e07310f384b8f3ec54751edec316.jpg","date":"2011-05-06","year":2011,"month":5,"lon":-98.770836,"lat":20.088476,"tags":"color,he+man,hidalgo,ljhclr,ljhhgo,ljhpch,ljhstp,m%C3%A9xico,pachuca","S2CellId":"8620a60c00000000","result":7510,"accuracy":0.02254421,"title":"HeMan","description":"tw"}
{"id":6121859877,"url":"http://farm7.staticflickr.com/6081/6121859877_456bfdf2a4.jpg","path":"76e/14b/76e14b57ed33ba7d33a4bced96b1d61.jpg","date":"2011-09-05","year":2011,"month":9,"lon":-98.42119,"lat":20.113405,"tags":"arquidi%C3%B3cesis+de+tulancingo","S2CellId":"85cd000000000000","result":7450,"accuracy":0.3236111,"title":"Parroquia+de+San+Francisco+de+Asis+%28Jaltepec%29+Tulancingo%2CEstado+de+Hidalgo%2CM%C3%A9xico","description":"By+Catedrales+e+Iglesias+Album+2644%0A%0ACatedraleseiglesias.com%0A%C3%81lbum++2644%0AArquidi%C3%B3cesis+de+Tulancingo%0A%3Ca+href%3D%22http%3A%2F%2Fwww.catedraleseiglesias.com%2F%22+rel%3D%22nofollow%22%3Ewww.catedraleseiglesias.com%2F%3C%2Fa%3E%0A%0ASAN+FRANCISCO+DE+AS%C3%8DS%0ACALLE+FELIPE+%C3%81NGELES+%28MARIANO+MATAMOROS%29+SN%2C+CENTRO%2C+JALTEPEC%2C+TULANCINGO+DE+BRAVO+HIDALGO%2C+M%C3%89XICO+%2C+%0ACP+43700%0ATEL%3A"}
