{"id":7445800584,"url":"http://farm8.staticflickr.com/7276/7445800584_330cce4dbd.jpg","path":"4c6/539/4c6539da2c1dc79989a9d1e1fcb6e5a.jpg","date":"2012-06-23","year":2012,"month":6,"lon":59.2426,"lat":22.800613,"tags":"gritski,oman,tiwi,wadi","S2CellId":"3e8c000000000000","result":2626,"accuracy":0.71827036,"title":"DSC02233"}
{"id":5311402461,"url":"http://farm6.staticflickr.com/5284/5311402461_183608e2f5.jpg","path":"3cd/472/3cd472597cfdd66a6a4634d9e59b9429.jpg","date":"2010-12-13","year":2010,"month":12,"lon":59.22173,"lat":22.775969,"tags":"%D8%A7%D9%84%D9%85%D9%86%D8%B7%D9%82%D8%A9+%D8%A7%D9%84%D8%B4%D8%B1%D9%82%D9%8A%D8%A9,goat,oman,tiwi,wadi","S2CellId":"3d00000000000000","result":2580,"accuracy":0.07378949,"title":"baa%21","description":"Wadi+Tiwi"}
{"id":2473827192,"url":"http://farm3.staticflickr.com/2376/2473827192_e492b6f4e1.jpg","path":"e1f/295/e1f2954753f9292ae3fb63767b27f619.jpg","date":"2007-04-29","year":2007,"month":4,"lon":59.833775,"lat":22.437687,"tags":"al,d%27oman,junayz,mer,oman,plage,ras,tortue","S2CellId":"80e8100000000000","result":7392,"accuracy":0.027723989,"title":"29-04-08_RasAlJunayz0028"}
{"id":12861178954,"url":"http://farm3.staticflickr.com/2867/12861178954_42a511424f.jpg","path":"323/e6a/323e6a6022477651e5aba8f2efa77.jpg","date":"2014-02-17","year":2014,"month":2,"lon":59.093163,"lat":22.619665,"tags":"bani+khalid,desert,oman,wadi,water","S2CellId":"464cc00000000000","result":2821,"accuracy":0.019147031,"title":"_MG_1684.jpg"}
{"id":366296980,"url":"http://farm1.staticflickr.com/157/366296980_b40528af10.jpg","path":"a59/e3c/a59e3cffb4186f0d976b3e50727f4a.jpg","date":"2007-01-11","year":2007,"month":1,"lon":59.204277,"lat":22.766205,"tags":"escalade,oman,vacances","S2CellId":"3e8c000000000000","result":2626,"accuracy":0.18320394,"title":"oman+-+82","description":"Wadi+Tiwi%2C+voie+la+%22Snifoni%22+D%2B"}
{"id":12860788013,"url":"http://farm4.staticflickr.com/3774/12860788013_298144feaf.jpg","path":"e25/025/e250253b712e6294a95e6a6c6c8e5ca.jpg","date":"2014-02-17","year":2014,"month":2,"lon":59.093163,"lat":22.619665,"tags":"bani+khalid,desert,oman,wadi,water","S2CellId":"80cf000000000000","result":7266,"accuracy":0.06495588,"title":"_MG_1652.jpg"}
{"id":6898600521,"url":"http://farm8.staticflickr.com/7197/6898600521_17b01be1b4.jpg","path":"7b2/423/7b242319addfcd17cbf3e6ab4ad1a89.jpg","date":"2010-11-06","year":2010,"month":11,"lon":59.12597,"lat":22.88422,"tags":"oman,salmah,salmah+plateau,wadi","S2CellId":"3e8c000000000000","result":2626,"accuracy":0.18461427,"title":"Salmah+Plateau","description":"Salmah+Plateau"}
