{"id":167266333,"url":"http://farm1.staticflickr.com/45/167266333_4da26de7fb.jpg","path":"e94/88e/e9488e4e764fde0b1c9749b4e4b99.jpg","date":"2004-09-11","year":2004,"month":9,"lon":88.94617,"lat":24.808863,"tags":"bangladesh,developing+country","S2CellId":"398c000000000000","result":2482,"accuracy":0.099778466,"title":"Young+salesman","description":"Young+salesman%2C+ready+to+drown+you+in+a+flood+of+nails."}
{"id":4362207608,"url":"http://farm5.staticflickr.com/4062/4362207608_6e0cfb06e6.jpg","path":"5d4/6a7/5d46a79a444427e875f6e195635d242.jpg","date":"2009-02-17","year":2009,"month":2,"lon":87.10167,"lat":26.614313,"tags":"%27%27capturing,beauty%27%27,butterfly","S2CellId":"54867c0000000000","result":6148,"accuracy":0.0042407205,"title":"Saturniidae.+Cricula+trifenestrata","description":"enlarge+to+see+mite+on+trailing+edge+of+top+left+hand+wing."}
{"id":10135647116,"url":"http://farm4.staticflickr.com/3699/10135647116_1940058ffe.jpg","path":"e12/52c/e1252cd0372cbbcb849ae553df7370.jpg","date":"2013-09-10","year":2013,"month":9,"lon":87.92805,"lat":26.082617,"tags":"rickshawrun4","S2CellId":"2dd23d0000000000","result":1544,"accuracy":0.050197124,"title":"%D7%A1%D7%A4%D7%98%D7%9E%D7%91%D7%A8+10+-+10%C2%B708+-+Rickshawrun4+269"}
{"id":4306988568,"url":"http://farm3.staticflickr.com/2734/4306988568_239de44d45.jpg","path":"a4b/a23/a4ba23829f92668dab32e13cfe2c122.jpg","date":"2009-02-18","year":2009,"month":2,"lon":87.28397,"lat":26.461044,"tags":"castalius,common,pierrot.,r.,rosimon","S2CellId":"465a400000000000","result":2886,"accuracy":0.017463267,"title":"Common+Pierrot.+Castalius+R.+Rosimon"}
{"id":4306245269,"url":"http://farm5.staticflickr.com/4037/4306245269_8b5e372bec.jpg","path":"30c/4ca/30c4cac7a8834a456ba419c6d7da6c7.jpg","date":"2009-02-17","year":2009,"month":2,"lon":87.28123,"lat":26.461506,"tags":"commander.,limenitis,procris","S2CellId":"3d00000000000000","result":2580,"accuracy":0.009669124,"title":"Commander.++Limenitis+procris+procris"}
{"id":489713776,"url":"http://farm1.staticflickr.com/204/489713776_4e5d995056.jpg","path":"334/cc1/334cc1b0b52516bd0bf7ef94a93766a.jpg","date":"2007-04-20","year":2007,"month":4,"lon":88.47337,"lat":26.889004,"tags":"2007,west+bengal","S2CellId":"3909000000000000","result":2447,"accuracy":0.17073256,"title":"On+the+highway+from+West+Bengal+to+Sikkim"}
{"id":3518842023,"url":"http://farm4.staticflickr.com/3346/3518842023_e0823d7b86.jpg","path":"51b/ccc/51bcccfaf48a6eb6b19382a634d7938.jpg","date":"2009-04-01","year":2009,"month":4,"lon":88.28656,"lat":26.900105,"tags":"bullet,darjeeling,heritage,india,motorcycle,royal+enfield,toy+train,west+bengal,world","S2CellId":"3bc4000000000000","result":2563,"accuracy":0.022266304,"title":"A+Motorcycle+and+a+World+Heritage+Toy+Train","description":"Chugging+along+with+the+World+Heritage+%22Toy+Train%22+to+Darjeeling%2C+West+Bengal%2C+India"}
{"id":6304600191,"url":"http://farm7.staticflickr.com/6215/6304600191_d8459c8f18.jpg","path":"7ce/0c3/7ce0c393c2fe74fae5e7386da43123ac.jpg","date":"2008-01-23","year":2008,"month":1,"lon":89.73633,"lat":24.487148,"tags":"aquaculture,asia,bangladesh,disasters","S2CellId":"30e2840000000000","result":1653,"accuracy":0.023249978,"title":"Pond+dike+damaged+by+fallen+trees%2C+Bangladesh.+Photo+by+WorldFish%2C+2008"}
{"id":5137739853,"url":"http://farm5.staticflickr.com/4004/5137739853_61cbe97f6f.jpg","path":"ebd/e36/ebde36c6cdd93db6ff5d23b737685fa.jpg","date":"2008-12-08","year":2008,"month":12,"lon":88.17653,"lat":26.89375,"tags":"himalayan+100+mile+stage+run,run,running,travel","S2CellId":"2dcc000000000000","result":1536,"accuracy":0.10810247,"title":"100_2059"}
{"id":757901610,"url":"http://farm2.staticflickr.com/1213/757901610_7e0291aefa.jpg","path":"5e9/88a/5e988a928523a4547a5f141459c7acc9.jpg","date":"2007-07-08","year":2007,"month":7,"lon":88.05817,"lat":26.57379,"tags":"everst,mount,nepal","S2CellId":"1ed0000000000000","result":1478,"accuracy":0.1486556,"title":"Rhino+at+Tiger+Tops","description":"Nepal"}
