{"id":9561617868,"url":"http://farm6.staticflickr.com/5468/9561617868_fdccaec275.jpg","path":"9d0/cdd/9d0cdd974dfe3bcdccb7172386b3f6.jpg","date":"2013-07-21","year":2013,"month":7,"lon":80.23899,"lat":12.74333,"tags":"madras+crocodile+bank+trust,nature,spider","S2CellId":"89b4400000000000","result":8820,"accuracy":0.009364738,"title":"Two-tailed+spider%28Hersilia+savignyi+%29","description":"Hersilia+savignyi"}
{"id":201925437,"url":"http://farm1.staticflickr.com/69/201925437_da5230d6b7.jpg","path":"d84/14c/d8414c34b2accea3fe578e3389d4e8a.jpg","date":"2006-07-30","year":2006,"month":7,"lon":80.25787,"lat":12.995023,"tags":"chameleon,change,chennai,color,diilipm,dsc,green,guindy,h1,hide,leaves,park,snake,sony","S2CellId":"864e640000000000","result":7620,"accuracy":0.2316366,"title":"The+Chameleon","description":"The+Chameleon%2C+wonderful+how+you+can+change+colors+isnt%27t+it%3F+Well+atleast+humans+aren%27t+very+different+from+this+guy+here.+People+change+colors+so+much+that+you+dont+know+if+you+can+trust+anybody+anymore."}
{"id":4186454752,"url":"http://farm5.staticflickr.com/4037/4186454752_cf16a602b2.jpg","path":"b13/2e3/b132e32826259a8b8f482172f278f52.jpg","date":"2009-10-08","year":2009,"month":10,"lon":80.18388,"lat":12.620546,"tags":"%E0%AE%A4%E0%AE%AE%E0%AE%BF%E0%AE%B4%E0%AF%8D%E0%AE%A8%E0%AE%BE%E0%AE%9F%E0%AF%81,%E0%AE%AE%E0%AE%95%E0%AE%BE%E0%AE%AA%E0%AE%B2%E0%AE%BF%E0%AE%AA%E0%AF%81%E0%AE%B0%E0%AE%AE%E0%AF%8D,%E0%AE%AE%E0%AE%BE%E0%AE%AE%E0%AE%B2%E0%AF%8D%E0%AE%B2%E0%AE%AA%E0%AF%81%E0%AE%B0%E0%AE%AE%E0%AF%8D,india,mahabalipuram,mamallapuram,tamil+nadu","S2CellId":"39fc000000000000","result":2503,"accuracy":0.022051876,"title":"Mahabalipuram","description":"%28%3Ca+href%3D%22http%3A%2F%2Fbighugelabs.com%2Fflickr%2Fonblack.php%3Fid%3D4186454752%26size%3Dlarge%22+rel%3D%22nofollow%22%3EView+On+Black%3C%2Fa%3E%29"}
{"id":2999358274,"url":"http://farm4.staticflickr.com/3067/2999358274_ac0368d7ed.jpg","path":"b16/06d/b1606def25c8e1abdf695cd2e48e8669.jpg","date":"2008-10-19","year":2008,"month":10,"lon":80.22577,"lat":12.847494,"tags":"200810,grihapravesam,gruhapravesam,homam,madras","S2CellId":"8824b00000000000","result":8226,"accuracy":0.04869638,"title":"Interiors+wood-work"}
{"id":74746929,"url":"http://farm1.staticflickr.com/42/74746929_31611835e0.jpg","path":"52d/29a/52d29ad4a83762dcfc9336c6aeba0c1.jpg","date":"2005-10-25","year":2005,"month":10,"lon":80.248,"lat":12.846699,"tags":"ck,ck2,ckkumar,cksquare,coconut,india","S2CellId":"470bb00000000000","result":3176,"accuracy":0.013452664,"title":"coconut-p16"}
{"id":5280347509,"url":"http://farm6.staticflickr.com/5006/5280347509_f86f0acb35.jpg","path":"696/727/69672798c2bed2eaeee4f5249b5e0a4.jpg","date":"2010-12-11","year":2010,"month":12,"lon":80.05746,"lat":12.608343,"tags":"india,nadu,nikkor+af-s+70-300mm+f%2F4.5-5.6+g+if-ed+vr,nikon+d90,pilgrims,tamil,temples,thirukalukundram,travel","S2CellId":"3a52400000000000","result":2515,"accuracy":0.10507893,"title":"Sangu+Theertha+Kulam+-+wide+view"}
{"id":245928465,"url":"http://farm1.staticflickr.com/96/245928465_a0cb7114f7.jpg","path":"8c8/ed7/8c8ed771d6ab7c8f3c75d5ddab56bd10.jpg","date":"2006-09-15","year":2006,"month":9,"lon":80.24689,"lat":12.808872,"tags":"india","S2CellId":"3b05000000000000","result":2531,"accuracy":0.08660818,"title":"Fishermans+Cove+hotel+in+Chennai+-+view+to+the+ocean"}
{"id":3401932986,"url":"http://farm4.staticflickr.com/3597/3401932986_b162750909.jpg","path":"99e/a92/99ea92fe1929eaabb1cc1dc75d1a4557.jpg","date":"2009-03-10","year":2009,"month":3,"lon":80.09308,"lat":12.419812,"tags":"india,india+sud,tamil+nadu","S2CellId":"3bab000000000000","result":2541,"accuracy":0.1048461,"title":"In+viaggio+130G"}
{"id":2924012078,"url":"http://farm4.staticflickr.com/3175/2924012078_b377532663.jpg","path":"65f/423/65f4231dbd9bd680afebc684da23a4a5.jpg","date":"2007-09-21","year":2007,"month":9,"lon":80.20057,"lat":12.644065,"tags":"chennai,ck,ckkumar,cksquare,ecr,india,mahabalipuram","S2CellId":"346eb00000000000","result":2224,"accuracy":0.015885545,"title":"20070921_PICT1488","description":"almost+gone"}
{"id":2257558534,"url":"http://farm3.staticflickr.com/2091/2257558534_299179d2b6.jpg","path":"f7a/acc/f7aacc9f44bf70394255ef1193c35ab.jpg","date":"2008-02-10","year":2008,"month":2,"lon":80.26609,"lat":12.99701,"tags":"architecture%2C+temples%2C+south,bratboy76+photos,chennai%2C+south,images,images+chennai%2C+namma,indian,madras,namma+chennai+chennai%2C+namma,temples%2C+chennai,temples%2C+temple","S2CellId":"3bab000000000000","result":2541,"accuracy":0.28156972,"title":"Ratnagirishwarar+Temple","description":"The+beautiful+and+well+maintained+Ratnagirishwarar+temple+at+Besant+Nagar+resides+at+a+posh+yet+calm+and+quiet+locality.+%0A%0AThis+temple+is+dedicated+to+Lord+Shiva+who+is+the+Ishwar+of+Ratnagiri+and+he+sits+here+as+a+lingam.+The+temple+is+well+maintained+and+the+special+feature+of+the+rituals+in+this+temple+is+that+every+abhishekam%2C+aradhanas+are+performed+amidst+Vedic+chanting+by+a+large+number+of+grahasthas+trained+in+Vedic+chanting.%0A%0ADuring+Pradoshams+and+Shiva+Rathiri+festivals+it+draws+a+crowd+of+over+3000+devotees.++Many+kutcheris%2C+pravachanams%2C+special+events+are+conducted+here+on+a+regular+basis."}
{"id":5003010261,"url":"http://farm5.staticflickr.com/4147/5003010261_d23787048d.jpg","path":"1cf/96d/1cf96d2f19f8b49f64d7dea384a6477.jpg","date":"2010-09-18","year":2010,"month":9,"lon":80.25341,"lat":12.77966,"tags":"beach,chennai,ecr,mamallapuram,sea,shore","S2CellId":"0ed0000000000000","result":640,"accuracy":0.18891509,"title":"Rainbow+shoreline...","description":"Somewhere+just+before+mamallapuram.."}
{"id":2240186330,"url":"http://farm3.staticflickr.com/2144/2240186330_4bb16eed7f.jpg","path":"7bc/9c1/7bc9c1bbafc338adce378c1d32f421d.jpg","date":"2008-02-03","year":2008,"month":2,"lon":80.23907,"lat":12.743242,"tags":"cameraphone,centre+for+herpetology,chennai,crocodile+bank,east+coast+road,ecr,india,madras,madras+crocodile+bank,madras+crocodile+bank+trust,zip%3A603111,zonetag","S2CellId":"88d0a631cabb5071","result":8563,"accuracy":0.02389838,"title":"Nile+Crocodile","description":"ZoneTag%3A+%3Ca+href%3D%22http%3A%2F%2Fzonetag.research.yahoo.com%2Fphotos%2Findex.php%3Fflickrname%3Drnair%22%3EPhotosphere%3C%2Fa%3E+%2F+%3Ca+href%3D%22http%3A%2F%2Fzonetag.research.yahoo.com%2F%22%3EAbout%3C%2Fa%3E.+%3Ci%3EOwner+only%3C%2Fi%3E%3A+%3Ca+href%3D%22http%3A%2F%2Fzonetag.research.yahoo.com%2FsetLocation.php%3Fflickrid%3D2240186330%22%3EFix+Location%3C%2Fa%3E+%2F+%3Ca+target%3D%22popup%22+href%3D%22http%3A%2F%2Fzonetag.research.yahoo.com%2Fsuggestedtags.php%3Fflickrid%3D2240186330%22%3EAdd+Tags%3C%2Fa%3E+%2F+%3Ca+href%3D%22http%3A%2F%2Fzonetag.research.yahoo.com%2Fmyzonetag.php%22%3ESettings%3C%2Fa%3E"}
{"id":5519166383,"url":"http://farm6.staticflickr.com/5298/5519166383_fee0388566.jpg","path":"38f/a70/38fa702ce1eaee6f6163a62d045e6a7.jpg","date":"2011-03-12","year":2011,"month":3,"lon":80.19025,"lat":12.619799,"tags":"beach,boats,canon+eos+5d,fernando+de+otto,fertas,fishermans,india,mamalapuram,temple","S2CellId":"80deaa4000000000","result":7386,"accuracy":0.07459027,"title":"Mamallapuram"}
{"id":2357936665,"url":"http://farm3.staticflickr.com/2035/2357936665_3216ea3647.jpg","path":"201/5b1/2015b13eb8f4489457ffbe64065ad.jpg","date":"2008-03-24","year":2008,"month":3,"lon":80.1414,"lat":12.954312,"tags":"flood,n95,nokia,waves","S2CellId":"31a4000000000000","result":1799,"accuracy":0.07969356,"title":"2+Feet+High+water+level"}
{"id":3158142757,"url":"http://farm4.staticflickr.com/3234/3158142757_78284bb2cf.jpg","path":"db6/aba/db6aba1253e790b75d7b4ed00fed07f.jpg","date":"2008-12-28","year":2008,"month":12,"lon":80.090675,"lat":12.882261,"tags":"arignar+anna+zoological+park,common+langur,nikon+d40x,ramaswamyn,vandalur+zoo","S2CellId":"2dd23d0000000000","result":1544,"accuracy":0.086791866,"title":"Family+Portrait","description":"....+of+the+Common+Langurs.+AT+the+Vandalur+Zoo."}
{"id":2816492854,"url":"http://farm4.staticflickr.com/3217/2816492854_b311b5a1f0.jpg","path":"572/81d/57281d5916e674db8ff4a77697a1232b.jpg","date":"2008-09-01","year":2008,"month":9,"lon":80.14526,"lat":12.715367,"tags":"bird,birds,group,lake,lakes","S2CellId":"8620af4000000000","result":7522,"accuracy":0.07712359,"title":"Four+Birds"}
{"id":2659442199,"url":"http://farm4.staticflickr.com/3087/2659442199_8842b21d25.jpg","path":"51d/6ef/51d6effb2b83689cb5dfde9fdfea9c1c.jpg","date":"2008-07-06","year":2008,"month":7,"lon":80.17629,"lat":12.592386,"tags":"art,carvings,india,indian,mahabalipuram,mamallapuram,south,tamilnadu","S2CellId":"1333000000000000","result":1123,"accuracy":0.030864784,"title":"Flying+gaurds"}
{"id":4358263055,"url":"http://farm5.staticflickr.com/4020/4358263055_f755edcbaa.jpg","path":"42f/a55/42fa55c053ca8b98c5989747a5c29b.jpg","date":"2010-02-14","year":2010,"month":2,"lon":80.24895,"lat":12.768946,"tags":"canon+s5is,dakshina+chitra+ecr+chennai+craft+houses+tamilnadu+andhrapradesh+karnataka+kerala+dakshina+chitra","S2CellId":"312f000000000000","result":1733,"accuracy":0.089454554,"title":"Old+Tamizh+House+arch"}
{"id":6102824988,"url":"http://farm7.staticflickr.com/6181/6102824988_02d7ccf17d.jpg","path":"814/bb0/814bb059ccb3f27752fdb759c093dea4.jpg","date":"2011-09-01","year":2011,"month":9,"lon":80.2471,"lat":12.826164,"tags":"beach,d5000,garden,kommoju,nikon,venkataramesh","S2CellId":"0730000000000000","result":95,"accuracy":0.07034395,"title":"Beach+Garden"}
{"id":6617265173,"url":"http://farm8.staticflickr.com/7025/6617265173_143790d580.jpg","path":"f7d/84d/f7d84d1ae879c39d951437fb98075aa.jpg","date":"2011-12-03","year":2011,"month":12,"lon":80.245384,"lat":12.761098,"tags":"bird,egret","S2CellId":"8620af4000000000","result":7522,"accuracy":0.4733763,"title":"Egret+at+the+croc+park"}
{"id":3525543503,"url":"http://farm4.staticflickr.com/3603/3525543503_bc7de1ee67.jpg","path":"1b9/e78/1b9e789efff8295477bd69beec95.jpg","date":"2009-04-20","year":2009,"month":4,"lon":80.20294,"lat":12.620907,"tags":"india,mamallapuram,south+india,southeastasia,tamil+nadu","S2CellId":"3b05000000000000","result":2531,"accuracy":0.28439918,"title":"Beach+Tempel"}
{"id":3199303716,"url":"http://farm4.staticflickr.com/3408/3199303716_f62774d596.jpg","path":"cda/7e0/cda7e029d78b2d7657c42666520dc8a.jpg","date":"2008-12-23","year":2008,"month":12,"lon":80.196075,"lat":12.617389,"tags":"india,intia,mamallapuram,matka,travel","S2CellId":"478df00000000000","result":3674,"accuracy":0.010318824,"title":"Cow+cum+taxi+park"}
{"id":7953773418,"url":"http://farm9.staticflickr.com/8169/7953773418_01bfbb3600.jpg","path":"563/77f/56377f73520a0f5a4618a17a8bb6737.jpg","date":"2012-08-27","year":2012,"month":8,"lon":80.22811,"lat":12.864649,"tags":"xperia+x10+5+mp+camera","S2CellId":"88d0a631cabb5071","result":8563,"accuracy":0.034409802,"title":"Skies+after+a+rain","description":"Eve+skies+%40+Sholinganallur"}
{"id":2453043409,"url":"http://farm3.staticflickr.com/2220/2453043409_63c309d331.jpg","path":"98b/bdb/98bbdb7e5eced564e6ba22e54acb3.jpg","date":"2008-04-18","year":2008,"month":4,"lon":80.19367,"lat":12.921834,"tags":"200804,bangalore,burkit+road,grihapravesam,gruhapravesam,homam,jaagruthi,madras,medavakkam,nandhitha,palm,royal+palms,rwd","S2CellId":"3b07000000000000","result":2532,"accuracy":0.06414838,"title":"148_0286"}
{"id":9350069388,"url":"http://farm4.staticflickr.com/3765/9350069388_2528421e8a.jpg","path":"103/075/103075449130e2ea9e5dff1a5a85faa.jpg","date":"2013-07-20","year":2013,"month":7,"lon":80.2476,"lat":12.825308,"tags":"ball,beach,blue+sky,crop,kumar,kumaravel,mgm+beach+resorts,nx100,nx100+samsung,samsung,samsung+nx,samsung+nx100,sspr+legacy,volley+ball","S2CellId":"345d5c0000000000","result":2111,"accuracy":0.03172237,"title":"Beach+Volley+Ball","description":"%40MGM+Resorts+during+my+family+reunion"}
{"id":8397384715,"url":"http://farm9.staticflickr.com/8325/8397384715_bb652f84ca.jpg","path":"d78/7aa/d787aa4f8fd4e97de55611b13aa18.jpg","date":"2013-01-20","year":2013,"month":1,"lon":80.27274,"lat":12.998599,"tags":"2013,beach,bw,chennai,gymnastics,handstand,india,siddhi,sr233,sunrise,tamil+nadu","S2CellId":"89a4000000000000","result":8776,"accuracy":0.019263651,"title":"Early+morning+gymnastics","description":"Bessie+Beach%2C+Chennai"}
{"id":3207531872,"url":"http://farm4.staticflickr.com/3085/3207531872_4a58656122.jpg","path":"15f/092/15f092d999ce314a2808386fff63d71.jpg","date":"2009-01-16","year":2009,"month":1,"lon":80.27116,"lat":12.997627,"tags":"besant+nagar,canon,canon+powershot+s5+is,chennai,chennai+photowalk,chennai+sangamam,fireworks,night,s5","S2CellId":"6018410000000000","result":6444,"accuracy":0.08090975,"title":"Fireworks+at+Chennai+Sangamam","description":"Chennai+Sangamam+is+a+yearly+festival+that+celebrates+the+folk+traditions+of+Tamil+Nadu.+More+than+2000+performers+ignited+the+spirit+of+Chennai+for+seven+days+with+around+4000+performances%2C+from+January+10-16+2009%2C+all+in+parks%2C+streets+and+beaches.%0A%0A+The+grand+finale+took+place+at+Elliots+Beach%2C+Besant+Nagar+on+Jan+16+2009.+Beautiful+fireworks+lighted+the+sky+for+45+minutes+towards+the+end."}
