{"id":5620590051,"url":"http://farm6.staticflickr.com/5183/5620590051_44ff2a9fe2.jpg","path":"62e/d77/62ed77f7a37dfc1dca1d34a54c2279.jpg","date":"2011-04-12","year":2011,"month":4,"lon":-113.5546,"lat":53.512123,"tags":"city+of+edmonton,edmonton,mastermaq,valley+zoo","S2CellId":"80deaa4000000000","result":7386,"accuracy":0.011881202,"title":"Valley+Zoo"}
{"id":7490473154,"url":"http://farm8.staticflickr.com/7262/7490473154_48ffc8484c.jpg","path":"f34/16a/f3416ac4a8710758234fd7b30256c26.jpg","date":"2012-07-01","year":2012,"month":7,"lon":-113.50079,"lat":53.514267,"tags":"2012,2012%2F07%2F01,ab,alberta,canada,canada+day,ckua,edmonton,parade,radio+station,robert+antoniuk,sangudo,silly,silly+summer+parade,summer,woman,yeg","S2CellId":"0d30c00000000000","result":303,"accuracy":0.35629797,"title":"2012+Silly+Summer+Parade"}
{"id":391530646,"url":"http://farm1.staticflickr.com/162/391530646_f3a1386c66.jpg","path":"4de/4a4/4de4a42fa2746e2242b76c81cd75d7b.jpg","date":"2006-12-04","year":2006,"month":12,"lon":-113.52559,"lat":53.528122,"tags":"alberta,csr,demolition,edmonton,physics,u+of+a,university,university+of+alberta","S2CellId":"8819ad0000000000","result":8204,"accuracy":0.0756561,"title":"IMG_2471"}
{"id":8162760943,"url":"http://farm9.staticflickr.com/8067/8162760943_9f13bc459f.jpg","path":"73d/77c/73d77c9c651152a2e36bd48378a1a758.jpg","date":"2012-05-06","year":2012,"month":5,"lon":-113.63294,"lat":53.632385,"tags":"2012,2012%2F05%2F06,ab,alberta,canada,canon70200f2.8l,canon7d,leading+edge,lion%27s+park,man,race,robert+antoniuk,run,run+wild,sangudo,st.+albert","S2CellId":"5486723000000000","result":6135,"accuracy":0.25488505,"title":"2012+Run+Wild+Marathon","description":"The+2012+Run+Wild+Marathon+held+in+St.Albert%2C+Alberta%2C+Canada+on+2012%2F05%2F06."}
{"id":6121173592,"url":"http://farm7.staticflickr.com/6070/6121173592_fd335246e8.jpg","path":"aab/71c/aab71cf962e2ed426640708a892dade.jpg","date":"2011-09-04","year":2011,"month":9,"lon":-113.60655,"lat":53.483047,"tags":"2011,2011%2F09%2F04,50d,ab,alberta,canada,canon,canon70200f2.8l,dexter,dog,edmonton,field,meetup,offleash,park,picnik,run,sangudo,terwillegar,the+edmonton+off+leash+dog+recreation+meetup+group","S2CellId":"4741df0000000000","result":3282,"accuracy":0.028303212,"title":"2011-09-04+Meetup+Terwillegar+Dog+Park"}
{"id":8084970921,"url":"http://farm9.staticflickr.com/8475/8084970921_0af298a733.jpg","path":"689/213/68921347f13fd4396e4bcde5322791a8.jpg","date":"2012-10-09","year":2012,"month":10,"lon":-113.490486,"lat":53.52092,"tags":"alberta,aurora,aurora+borealis,aurore,aurore+bor%C3%A9ale,borealis,canada,ciel,edmonton,light,lights,magic,night,north+america,northern,northern+lights,nuit,phenomenon,sky,sony+alpha+300","S2CellId":"45d4000000000000","result":2755,"accuracy":0.22610526,"title":"Northern+Lights+over+Edmonton"}
{"id":8737174710,"url":"http://farm8.staticflickr.com/7287/8737174710_ce875e2b28.jpg","path":"d8c/115/d8c11510877ea71d9a536fb1521d94.jpg","date":"2013-05-12","year":2013,"month":5,"lon":-113.51207,"lat":53.530437,"tags":"historical,ravine,river,riverfront,streetcar,tourist,tracks,train,trolley,view","S2CellId":"880e440000000000","result":8139,"accuracy":0.009348479,"title":"Trolley+Streetcar","description":"Travelling+over+the+Saskatchewan+River+in+downtown+Edmonton+is+the+historical+streetcar+and+public+transit+line"}
{"id":4899888625,"url":"http://farm5.staticflickr.com/4094/4899888625_f5537b20ac.jpg","path":"487/446/48744609884f9e55c92a16dc19513d.jpg","date":"2010-08-15","year":2010,"month":8,"lon":-113.27026,"lat":53.461628,"tags":"alberta,edmonton,strathcona+county,tomatillos,tomato,tomato+fare,tomatoes","S2CellId":"12c9100000000000","result":838,"accuracy":0.013746356,"title":"Tomatillos","description":"A+bit+more+tart%2C+but+excellent.%0A%0ASee+my+%3Ca+href%3D%22http%3A%2F%2Fdaveography.ca%2Findex.php%2Ftomato-fare%2F%22+rel%3D%22nofollow%22%3Eblog+post%3C%2Fa%3E+on+Tomato+Fare+for+more+about+the+event."}
{"id":4465607376,"url":"http://farm5.staticflickr.com/4042/4465607376_5cc00d76e5.jpg","path":"5d7/747/5d7747f9663db4803d70c121c6cc407c.jpg","date":"2009-11-07","year":2009,"month":11,"lon":-113.48412,"lat":53.54263,"tags":"af-s+nikkor+70-300mm+f%2F4.5-5.6g+ed+vr,alberta,canada,d40,edmonton,gem+theatre,nikon,star+theatre","S2CellId":"48761ab000000000","result":5304,"accuracy":0.0052430974,"title":"Star","description":"Some+things+never+change%2C+others+never+stay+the+same."}
{"id":4229067315,"url":"http://farm3.staticflickr.com/2503/4229067315_bac3f89fdc.jpg","path":"771/d92/771d92185cf2ec9285c3d5c395772e62.jpg","date":"2009-11-08","year":2009,"month":11,"lon":-113.501656,"lat":53.52905,"tags":"105+street+bridge,af-s+nikkor+16-85mm+f%2F3.5-5.6g+ed+vr,alberta,canada,d90,edmonton,flickrmeet,nikon,north+saskatchewan+river,river+valley,walterdale+bridge","S2CellId":"54950a0c00000000","result":6242,"accuracy":0.15916543,"title":"Walterdale+Bridge"}
{"id":4839441703,"url":"http://farm5.staticflickr.com/4090/4839441703_162614d3cc.jpg","path":"4de/c48/4dec48837df4b17ca5612659ada556d2.jpg","date":"2010-07-26","year":2010,"month":7,"lon":-113.48907,"lat":53.540154,"tags":"alberta,canada,edmonton,fairmont,gord,gordmckena,gordmckenna,hotel,inn,interior,lodging,luxury,macdonald,mckenna,motel","S2CellId":"89acd00000000000","result":8790,"accuracy":0.027765136,"title":"Early+morning+at+Laurel+Drive+2010","description":"Our+place+in+Ladner."}
{"id":281914551,"url":"http://farm1.staticflickr.com/88/281914551_41f82c572e.jpg","path":"124/035/124035c9daa4af7480936d6c9e440cd.jpg","date":"2006-10-28","year":2006,"month":10,"lon":-113.53126,"lat":53.520794,"tags":"edmonton,hockey,oilogosphere,road-hockey,street-hockey","S2CellId":"478e700000000000","result":3681,"accuracy":0.19852671,"title":"%231019"}
{"id":4241184803,"url":"http://farm3.staticflickr.com/2607/4241184803_52109edf01.jpg","path":"919/4e1/9194e1f04b86afeef56e5c1d0626d.jpg","date":"2009-10-21","year":2009,"month":10,"lon":-113.53713,"lat":53.54251,"tags":"edmonton,fancy+food+jar,italian,la+cena,menu,restaurant,violino","S2CellId":"465f9d7000000000","result":2928,"accuracy":0.0030921078,"title":"Fancy+Food+Jar+Meal+-+Violino","description":"We+both+had+the+Chef%27s+Menu"}
{"id":4480874306,"url":"http://farm5.staticflickr.com/4063/4480874306_878b7d3e64.jpg","path":"3be/537/3be5375a69de57351cb8f7d637d0c964.jpg","date":"2010-03-31","year":2010,"month":3,"lon":-113.49226,"lat":53.526596,"tags":"bridge,canada,city,edmonton,fairmont,hotel,macdonald,north,place,river,saskatchewan,skyline,telus","S2CellId":"53a0224000000000","result":6072,"accuracy":0.0788118,"title":"Edmonton+at+Night"}
{"id":4870852060,"url":"http://farm5.staticflickr.com/4137/4870852060_2860ee0ba1.jpg","path":"869/f14/869f14149e90ffd2927b48c9476e6550.jpg","date":"2010-08-07","year":2010,"month":8,"lon":-113.63468,"lat":53.63003,"tags":"2010,august,auto,classic+cars,dalec,edmonton,emblem,horse,mustang,rock+n+roll+car+show,rocknaugust,st+albert,summer,vintage","S2CellId":"89b6340000000000","result":8827,"accuracy":0.049166735,"title":"%27stang"}
{"id":5953059356,"url":"http://farm7.staticflickr.com/6143/5953059356_a066edd8f9.jpg","path":"b39/ebe/b39ebe1536557ab5dd88b7c73e6c7c0.jpg","date":"2011-07-17","year":2011,"month":7,"lon":-113.46763,"lat":53.58779,"tags":"2011,20mm,blue+hour,edmonton,g-1,hand,held,lumix,pancake,summer","S2CellId":"54906ab300000000","result":6212,"accuracy":0.03425873,"title":"The+Fishing......","description":"Blue+Hour+Neon+Experiments"}
{"id":5173090907,"url":"http://farm5.staticflickr.com/4086/5173090907_6e3355251e.jpg","path":"fa3/4c5/fa34c5f3157b664e24da17ece45ca3.jpg","date":"2010-10-16","year":2010,"month":10,"lon":-113.4898,"lat":53.543087,"tags":"alberta,animal,buypetting+zoo,canada,churchill+square,downtown,edmonton,fair,fall,market,october,olde+time+fair,people,vendor","S2CellId":"87e5000000000000","result":8030,"accuracy":0.015868098,"title":"Olde+Time+Fair+10"}
{"id":8722100852,"url":"http://farm8.staticflickr.com/7337/8722100852_abce4f2547.jpg","path":"a8b/7e8/a8b7e8019847c9cd8711977b2b268.jpg","date":"2013-05-08","year":2013,"month":5,"lon":-113.54441,"lat":53.542477,"tags":"alberta,animals,culture,heritage,museum,nature,travel","S2CellId":"89c2588f00000000","result":8969,"accuracy":0.12309475,"title":"Royal+Alberta+Museum+Edmonton","description":"The+Royal+Alberta+Museum+is+located+in+Edmonton+Alberta+Canada."}
{"id":33412749,"url":"http://farm1.staticflickr.com/21/33412749_057534aa5f.jpg","path":"65a/a53/65aa53d5390c8f84c38d06270e07e17.jpg","date":"2005-08-06","year":2005,"month":8,"lon":-113.49373,"lat":53.53912,"tags":"wedding","S2CellId":"8814b00000000000","result":8185,"accuracy":0.08290719,"title":"Yawwwwn....","description":"An+action+shot+if+ever+I%27ve+seen+one...%0D%0A%0D%0APS.+Nice+block%2C+Cheryl."}
{"id":2287979871,"url":"http://farm3.staticflickr.com/2387/2287979871_7fcdaf7a66.jpg","path":"ed1/84f/ed184fdb282ecc55ce9cec414656aabb.jpg","date":"2008-02-16","year":2008,"month":2,"lon":-113.545425,"lat":53.524147,"tags":"alberta,canada,edmonton,hawrelak,hawrelak+park,naturesfinest,park,silver+skate+festival,snow,squirrel,winter","S2CellId":"5370c00000000000","result":6047,"accuracy":0.013533128,"title":"Squirrel","description":"This+must+be+one+of+%3Ca+href%3D%22http%3A%2F%2Fwww.flickr.com%2Fphotos%2Fsun_chaser%2Fsets%2F72157603214991900%2F%22%3ESun+Chaser%27s%3C%2Fa%3E+friends.%0A%0AThe+Edmonton+2008+%3Ca+href%3D%22http%3A%2F%2Fwww.silverskatefestival.org%2Findex.htm%22%3ESilver+Skate+Festival%3C%2Fa%3E."}
{"id":7729754584,"url":"http://farm9.staticflickr.com/8423/7729754584_bdcfd37390.jpg","path":"4cd/f56/4cdf5638deea1212a13dfd94c24b179.jpg","date":"2012-07-08","year":2012,"month":7,"lon":-113.54177,"lat":53.525845,"tags":"2012,2012%2F07%2F08,2012+edmonton+itu+triathlon+world+cup,ab,alberta,athlete,athletic,bike,can+canada+stevie+moore,canada,canon70200f2.8l,canon7d,competition,edmonton,elite+women,festival,fit,flickr,groat+road,itu,robert+antoniuk,sangudo,spandex,sport,triathlon,woman,yeg","S2CellId":"4876cc0000000000","result":5398,"accuracy":0.051898,"title":"2012+Edmonton+ITU+Triathlon+World+cup%3A+Elite+Women"}
{"id":7658905950,"url":"http://farm9.staticflickr.com/8426/7658905950_2c66a5a568.jpg","path":"e2f/86e/e2f86ef0205bf561e38e627a1bc89a1d.jpg","date":"2012-07-21","year":2012,"month":7,"lon":-113.45414,"lat":53.567574,"tags":"capital+ex,edmonton,events,festivals,food,mastermaq,northlands","S2CellId":"12a4a2f640000000","result":731,"accuracy":0.0072742803,"title":"Capital+EX+2012"}
{"id":1172173061,"url":"http://farm2.staticflickr.com/1397/1172173061_9d264a87a1.jpg","path":"f64/c70/f64c705f5339f4bbc11ad0f21f3fc220.jpg","date":"2007-08-18","year":2007,"month":8,"lon":-113.50982,"lat":53.53213,"tags":"alberta,canada,edmflickrmeet,edmonton,flickrmeet,north+saskatchewan+river","S2CellId":"4870bc8c00000000","result":5003,"accuracy":0.0056934287,"title":"High+Level+Bridge+Steetcar","description":"After+leaving+the+Edmonton+%3Ca+href%3D%22http%3A%2F%2Fwww.edbfa.com%2F%22%3EDragon+Boat+Festival%3C%2Fa%3E."}
{"id":6206802410,"url":"http://farm7.staticflickr.com/6175/6206802410_36f048dc42.jpg","path":"de2/91c/de291c937cf06df84ca218b2ad20990.jpg","date":"2011-09-27","year":2011,"month":9,"lon":-113.492805,"lat":53.54744,"tags":"buildings,downtown,edmonton,epcor+tower,mastermaq","S2CellId":"47a851c740000000","result":3931,"accuracy":0.039607044,"title":"EPCOR+Tower+Grand+Opening"}
{"id":2636551755,"url":"http://farm4.staticflickr.com/3119/2636551755_faa693b876.jpg","path":"e41/bbc/e41bbc5f3649c6063dcc8bdabe2f4a4.jpg","date":"2007-08-01","year":2007,"month":8,"lon":-113.50113,"lat":53.54398,"tags":"alberta+conservation+team,edmonton,minister+for+the+day,one+simple+act","S2CellId":"8824b00000000000","result":8226,"accuracy":0.04963076,"title":"100_0349"}
{"id":4099267953,"url":"http://farm3.staticflickr.com/2514/4099267953_590dbddb86.jpg","path":"8a4/99e/8a499e2c7f48a292a457e4d397ce6ca.jpg","date":"2009-11-11","year":2009,"month":11,"lon":-113.51805,"lat":53.52388,"tags":"alberta,edmonton,inthreedimensions","S2CellId":"880e290000000000","result":8109,"accuracy":0.026494425,"title":"K20D3070+%5B1600x1200%5D"}
{"id":5822878759,"url":"http://farm4.staticflickr.com/3040/5822878759_d4ff06c610.jpg","path":"272/5dc/2725dcfb456d516349f9152c86cc619.jpg","date":"2011-06-11","year":2011,"month":6,"lon":-113.49975,"lat":53.54303,"tags":"af-s+nikkor+16-85mm+f%2F3.5-5.6g+ed+vr,alberta,canada,d90,edmonton,flickrmeet,nikon,parade,pride,yeg+pride","S2CellId":"8752d00000000000","result":7833,"accuracy":0.18479533,"title":"Royalty","description":"%3Ca+href%3D%22http%3A%2F%2Fwww.edmontonpride.ca%2F%22+rel%3D%22nofollow%22%3EEdmonton+Pride%3C%2Fa%3E"}
{"id":2898071428,"url":"http://farm4.staticflickr.com/3261/2898071428_2414b46ccc.jpg","path":"a6a/5ed/a6a5ede3f3607275259a45c2a5e7456.jpg","date":"2008-09-28","year":2008,"month":9,"lon":-113.475296,"lat":53.540066,"tags":"autumn,downtown,edmonton,fall,mastermaq","S2CellId":"5375000000000000","result":6057,"accuracy":0.028942512,"title":"Fall+Photowalk+in+Edmonton"}
{"id":7915710624,"url":"http://farm9.staticflickr.com/8036/7915710624_e1d9256cda.jpg","path":"fc6/ecf/fc6ecf57fe77968a97fb4c35e2431437.jpg","date":"2012-07-13","year":2012,"month":7,"lon":-113.45759,"lat":53.565483,"tags":"edmonton,events,horse+racing,mastermaq,northlands,northlands+park,park+after+dark,tweetup","S2CellId":"8842400000000000","result":8397,"accuracy":0.109020665,"title":"Park+After+Dark","description":"A+tweetup+held+at+Northlands+Park%21"}
{"id":191395806,"url":"http://farm1.staticflickr.com/55/191395806_e5bd610a10.jpg","path":"7b3/4f9/7b34f9e0e036a56d8386f4498ece7273.jpg","date":"2006-07-07","year":2006,"month":7,"lon":-113.56103,"lat":53.502132,"tags":"alberta,canada,cloud,clouds,edmonton,sky,storm,thunderstorm,whitemud+park","S2CellId":"5371740000000000","result":6053,"accuracy":0.05915239,"title":"Skeery+Clouds","description":"A+crazy+storm+rolled+in."}
{"id":6003899349,"url":"http://farm7.staticflickr.com/6022/6003899349_0c64522498.jpg","path":"b6b/bdc/b6bbdc2f75ce2e3737125054a970c2.jpg","date":"2011-07-31","year":2011,"month":7,"lon":-113.54381,"lat":53.528374,"tags":"af-s+vr+zoom-nikkor+70-200mm+f%2F2.8g+if-ed","S2CellId":"8620af4000000000","result":7522,"accuracy":0.05461946}
{"id":536268788,"url":"http://farm2.staticflickr.com/1301/536268788_8c0d58a549.jpg","path":"236/c55/236c55e411458974307f4cbbf12e7.jpg","date":"2007-06-08","year":2007,"month":6,"lon":-113.56415,"lat":53.561283,"tags":"casc,decide,edmonton,playdecide","S2CellId":"46eecfd000000000","result":3104,"accuracy":0.011133048,"title":"Decide+in+Canada","description":"Playing+Decide+at+the+conference+of+the+Canadian+association+of+science+centres"}
{"id":1099574980,"url":"http://farm2.staticflickr.com/1032/1099574980_7678b2902b.jpg","path":"332/4d5/3324d52913459dc0cc897c1cecff51c.jpg","date":"2007-08-11","year":2007,"month":8,"lon":-113.50482,"lat":53.547142,"tags":"alberta,anime,animethon,canada,cosplay,edmonton,otaku","S2CellId":"4cc91a5100000000","result":5890,"accuracy":0.2291779,"title":"Animthon+14"}
{"id":5869897556,"url":"http://farm4.staticflickr.com/3148/5869897556_7930344b4f.jpg","path":"43e/99a/43e99ae3980d7cf5d97c7fce75930af.jpg","date":"2011-06-24","year":2011,"month":6,"lon":-113.50072,"lat":53.541283,"tags":"britl,edmonton,food+truck,food+trucks,whatthetruck,yeg,yegdt,yegfood","S2CellId":"89b7c8c000000000","result":8897,"accuracy":0.040422857,"title":"What+the+Truck%3F%21"}
{"id":496660559,"url":"http://farm1.staticflickr.com/175/496660559_fab3c2bb4f.jpg","path":"f8f/d25/f8fd25974a75ba5e1f7e3f5c331dd1c9.jpg","date":"2007-04-17","year":2007,"month":4,"lon":-113.53469,"lat":53.570747,"tags":"2007,meeting,st+john+ambulance","S2CellId":"883cae5000000000","result":8363,"accuracy":0.050267905,"title":"20070417_Meeting_0003"}
{"id":5173878610,"url":"http://farm5.staticflickr.com/4148/5173878610_ba79cbf268.jpg","path":"e4b/360/e4b36078bc425facc1c435d068e73f60.jpg","date":"2010-11-13","year":2010,"month":11,"lon":-113.4898,"lat":53.543087,"tags":"alberta,canada,christmas,christmas+on+the+square+holiday+light+up,christmas+tree,churchill+square,city+hall,downtown,edmonton,festive,fireworks,urban","S2CellId":"465f9d7000000000","result":2928,"accuracy":0.01072131,"title":"Holiday+Light+Up+3"}
{"id":5245598046,"url":"http://farm6.staticflickr.com/5081/5245598046_605b9bb08d.jpg","path":"28d/a10/28da101a57c46e5844fef4a9fb6fe91.jpg","date":"2010-10-07","year":2010,"month":10,"lon":-113.41942,"lat":53.562744,"tags":"abstract,edmonton,shadow,stripes","S2CellId":"46416ec000000000","result":2800,"accuracy":0.016836772,"title":"Capilano"}
{"id":3540371546,"url":"http://farm3.staticflickr.com/2049/3540371546_a1d23299b3.jpg","path":"2d6/2f2/2d62f2e45f4c6f8ea267edb27e79a84.jpg","date":"2009-05-17","year":2009,"month":5,"lon":-113.50844,"lat":53.52352,"tags":"abyssinian,cat","S2CellId":"4889b00000000000","result":5760,"accuracy":0.039710697,"title":"Our+Cat+Lounging+on+Sunday"}
{"id":6138400053,"url":"http://farm7.staticflickr.com/6177/6138400053_6b13941bf4.jpg","path":"226/c80/226c80a8963bb031782d2eae91f3327f.jpg","date":"2011-09-10","year":2011,"month":9,"lon":-113.545685,"lat":53.52011,"tags":"2011,2011%2F09%2F10,50d,5k,ab,alberta,blonde,canada,canon,canon70200f2.8l,costume,edmonton,edmonton+gorilla+run,ponytail,rimbey,sangudo,suit,yeg","S2CellId":"89d4cd0000000000","result":9258,"accuracy":0.3637273,"title":"2011-09-10+Edmonton+Gorilla+Run"}
{"id":2611420464,"url":"http://farm4.staticflickr.com/3254/2611420464_cd0d4528a1.jpg","path":"5bd/53f/5bd53f62e0aba78b9bd9c16d726627e1.jpg","date":"2008-06-23","year":2008,"month":6,"lon":-113.37227,"lat":53.581654,"tags":"alberta,bird,blue,canada,canada+goose,eating,edmonton,feeding,goose,grass,hand,hermitage,hermitage+park,lake,park,water","S2CellId":"88d0a631cabb5071","result":8563,"accuracy":0.008126209,"title":"Nom"}
{"id":5722313217,"url":"http://farm3.staticflickr.com/2035/5722313217_fe2a556605.jpg","path":"e18/869/e1886962f6a98535c9885715445ebfea.jpg","date":"2011-05-14","year":2011,"month":5,"lon":-113.52638,"lat":53.52053,"tags":"114+street,alberta,canada,construction,d90,edmonton,edmonton+clinic,nikon,university+of+alberta,uofa","S2CellId":"53a0224000000000","result":6072,"accuracy":0.059673823,"title":"2011-05-14+Edmonton+Clinic+South"}
{"id":5823451516,"url":"http://farm6.staticflickr.com/5150/5823451516_bc98fca411.jpg","path":"ebc/817/ebc8177ef046829dfaeee7a633cd054.jpg","date":"2011-06-11","year":2011,"month":6,"lon":-113.49975,"lat":53.54303,"tags":"af-s+nikkor+16-85mm+f%2F3.5-5.6g+ed+vr,alberta,canada,d90,edmonton,flickrmeet,nikon,parade,pride,yeg+pride","S2CellId":"487b212900000000","result":5549,"accuracy":0.084321216,"title":"Ben+Henderson","description":"%3Ca+href%3D%22http%3A%2F%2Fwww.edmontonpride.ca%2F%22+rel%3D%22nofollow%22%3EEdmonton+Pride%3C%2Fa%3E"}
{"id":7729250904,"url":"http://farm8.staticflickr.com/7131/7729250904_fb7481ce7d.jpg","path":"cad/938/cad93875164af3bb1c6ad4be96b9abd.jpg","date":"2012-07-08","year":2012,"month":7,"lon":-113.54855,"lat":53.530285,"tags":"2012,2012%2F07%2F08,2012+edmonton+patco+junior+pan+american+championships,ab,alberta,athlete,athletic,can+canada+janessa+klatt,canada,canon70200f2.8l,canon7d,competition,edmonton,festival,fit,flickr,hawrelak+park,itu,junior+women,robert+antoniuk,sangudo,spandex,sport,triathlon,yeg","S2CellId":"4876840000000000","result":5378,"accuracy":0.050999504,"title":"2012+Edmonton+PATCO+Junior+Women+Pan+American+Championships"}
{"id":4748331274,"url":"http://farm5.staticflickr.com/4079/4748331274_89ce2f1be3.jpg","path":"564/336/5643368e3bc0f18ff5b3fc913628438.jpg","date":"2010-06-24","year":2010,"month":6,"lon":-113.57795,"lat":53.50168,"tags":"100mm,500d,canon,edmonton,fort+edmonton+park,rebel,t1i","S2CellId":"54af000000000000","result":6292,"accuracy":0.04139352,"title":"Step"}
{"id":5894812583,"url":"http://farm6.staticflickr.com/5064/5894812583_246954d5c5.jpg","path":"96d/cb7/96dcb7938672fb5f4f7fc7851d8aeef9.jpg","date":"2011-07-02","year":2011,"month":7,"lon":-113.92116,"lat":53.570427,"tags":"instagram+app,iphoneography,lord+kelvin,square,square+format","S2CellId":"5485dc0000000000","result":6108,"accuracy":0.0041441526,"title":"Taking+a+break+from+the+garage+sale."}
{"id":509236528,"url":"http://farm1.staticflickr.com/191/509236528_335b9995d9.jpg","path":"e79/83a/e7983a7e54d1e4f42894e597f8fd199d.jpg","date":"2007-05-21","year":2007,"month":5,"lon":-113.49006,"lat":53.545574,"tags":"canada,city+hall,desk,edmonton,mail","S2CellId":"0d19331000000000","result":217,"accuracy":0.014063586,"title":"Media+mail","description":"There+is+a+group+of+magazine+holders+on+the+second+floor+of+City+Hall.++It+looks+like+this+is+where+the+media+pick+up+press+releases+from+the+government."}
{"id":5587257555,"url":"http://farm6.staticflickr.com/5023/5587257555_4b9fd428a9.jpg","path":"12f/538/12f538ce1099ab4adfaef4cc23c7e40.jpg","date":"2011-04-01","year":2011,"month":4,"lon":-113.48898,"lat":53.544746,"tags":"aga,art+gallery+of+alberta,downtown,edmonton,events,galaguru,guru+digital+arts+college,mastermaq","S2CellId":"3442ae9000000000","result":2087,"accuracy":0.007453447,"title":"GalaGuru+2011"}
{"id":8046017323,"url":"http://farm9.staticflickr.com/8030/8046017323_bc4b1a4230.jpg","path":"8b5/c88/8b5c88c7783821fdef4db371c012d9.jpg","date":"2012-09-30","year":2012,"month":9,"lon":-113.47345,"lat":53.551285,"tags":"2012,2012%2F09%2F30,ab,aka%3A+sangudo,alberta,canada,canon70200f2.8l,canon7d,cibc+run+for+the+cure,edmonton,group,jasper+avenue,photographer%3A+robert+antoniuk,run,yeg","S2CellId":"47d8a30000000000","result":4439,"accuracy":0.17297573,"title":"2012+CIBC+Run+for+the+Cure","description":"Took+pictures+at+the+2012+CIBC+Run+for+the+Cure+in+Edmonton%2C+Alberta%2C+Canada.++I+was+hoping+to+get+pics+of+all+the+costumes+but+the+crush+of+people+made+it+very+difficult."}
{"id":6138317703,"url":"http://farm7.staticflickr.com/6168/6138317703_2ba798e858.jpg","path":"8d8/22b/8d822be0976c56d59451683c7ff4d843.jpg","date":"2011-09-10","year":2011,"month":9,"lon":-113.545685,"lat":53.52011,"tags":"2011,2011%2F09%2F10,50d,5k,ab,alberta,bikini,canada,canon,canon70200f2.8l,costume,edmonton,edmonton+gorilla+run,man,sangudo,suit,yeg","S2CellId":"47df1c0000000000","result":4514,"accuracy":0.011536995,"title":"2011-09-10+Edmonton+Gorilla+Run"}
{"id":190164710,"url":"http://farm1.staticflickr.com/71/190164710_815e0fda3c.jpg","path":"8d6/e59/8d6e594a9e9d557ad4e9a8f18bea5a.jpg","date":"2006-05-12","year":2006,"month":5,"lon":-113.03833,"lat":53.599026,"tags":"tojasper","S2CellId":"5140000000000000","result":5964,"accuracy":0.19501151,"title":"Img2006-05-12+162822"}
{"id":8565662051,"url":"http://farm9.staticflickr.com/8526/8565662051_c9e34a5f06.jpg","path":"9d0/6f8/9d06f80797371664ac0b7516ceb1880.jpg","date":"2013-03-17","year":2013,"month":3,"lon":-113.44907,"lat":53.55636,"tags":"10k,2013,2013%2F03%2F17,ab,aka%3A+sangudo,alberta,canada,canon1dx,cold,competition,edmonton,female,flickr,jog,kinnaird+park,people+and+paths,photographer%3A+robert+antoniuk,race,river+valley,run,running+room,shirt,smile,snow,sport,st+patricks+day+trail+run,trail,wave,winter,women,yeg","S2CellId":"53a022c000000000","result":6073,"accuracy":0.26329735,"title":"2013+St.+Patrick%27s+Day+Run","description":"The+2013+St.+Patrick%27s+Day+Trail+Run+held+in+Edmonton%2C+Alberta%2C+Canada+on+March+17%2C+2013."}
{"id":5377652385,"url":"http://farm6.staticflickr.com/5082/5377652385_c582d7a975.jpg","path":"cda/d13/cdad13e4fdf74da093b9496b6c94bdf.jpg","date":"2011-01-20","year":2011,"month":1,"lon":-113.565384,"lat":53.570133,"tags":"af-s+nikkor+35mm+f%2F1.8g,alberta,canada,d90,edmonton,nikon","S2CellId":"6b13400000000000","result":6709,"accuracy":0.0014158735,"title":"Another+Snowy+Morning"}
{"id":6268179802,"url":"http://farm7.staticflickr.com/6032/6268179802_a6c5f0a5a9.jpg","path":"2c5/57e/2c557ea21e4ab36cb6a5cbcb38ca5c.jpg","date":"2011-09-25","year":2011,"month":9,"lon":-113.418884,"lat":53.52834,"tags":"2011,2011%2F09%2F25,50d,ab,alberta,bandana,canada,canon,edmonton,helmet,man,motorcycle,run,sangudo,toy,yeg","S2CellId":"47bac00000000000","result":4076,"accuracy":0.072096504,"title":"2011+Edmonton+Motorcycle+Toy+Run","description":"%3Ca+href%3D%22http%3A%2F%2Fflic.kr%2Fs%2FaHsjsnZsaW%22+rel%3D%22nofollow%22%3ELink+to+2010+Toy+Run%3C%2Fa%3E"}
{"id":6236892916,"url":"http://farm7.staticflickr.com/6223/6236892916_3798bc772c.jpg","path":"d68/0b9/d680b9eda71a95d35c6737f4dd86ecb.jpg","date":"2011-10-10","year":2011,"month":10,"lon":-113.4772,"lat":53.5404,"tags":"autumn,edmonton,fall,mastermaq,sharon+yeo","S2CellId":"53a0224000000000","result":6072,"accuracy":0.338124,"title":"Sharon"}
{"id":7070587415,"url":"http://farm8.staticflickr.com/7098/7070587415_cd81731d97.jpg","path":"8b5/780/8b5780c536c80986ddf8deae476b08a.jpg","date":"2012-04-11","year":2012,"month":4,"lon":-113.55199,"lat":53.527836,"tags":"alberta,avain,bird,edmonton,hawrelak,naure,park,shawnmccready,sparrow,tree","S2CellId":"12aef00000000000","result":792,"accuracy":0.039885223,"title":"American+Tree+Sparrow","description":"Alberta+Bird+%23102%0A%0AFinally+captured+this+guy+down+at+Hawrelak+Park+last+night%2C+also+saw+some+Junco%27s+at+the+feeders+as+well."}
{"id":5512127829,"url":"http://farm6.staticflickr.com/5019/5512127829_ec6bb98b74.jpg","path":"3d6/d78/3d6d78933086f959a4a6e059562ad9c.jpg","date":"2011-02-21","year":2011,"month":2,"lon":-113.54877,"lat":53.52592,"tags":"2011,50d,alberta,canada,canon,canon+ef+24-105mm+f%2F4l+is+usm,edmonton,festival,flickr,flowers,hawrelak,ice,park,picnik,sculpture,silver,skate,snow,winter","S2CellId":"5e50000000000000","result":6342,"accuracy":0.01685367,"title":"2011+Silver+Skate+Festival"}
{"id":4085052990,"url":"http://farm3.staticflickr.com/2737/4085052990_098ff13369.jpg","path":"c22/e25/c22e25497123e628eb57977818bb2a.jpg","date":"2009-11-07","year":2009,"month":11,"lon":-113.48233,"lat":53.543716,"tags":"af-s+nikkor+16-85mm+f%2F3.5-5.6g+ed+vr,alberta,canada,d90,edmonton,flickrmeet,gibson+block,jasper+avenue,nikon","S2CellId":"808f7fd000000000","result":7036,"accuracy":0.018942606,"title":"Duality"}
{"id":5892094304,"url":"http://farm6.staticflickr.com/5316/5892094304_635e467743.jpg","path":"403/d66/403d66cfb1d69877e522fae03325a2.jpg","date":"2011-07-02","year":2011,"month":7,"lon":-113.50369,"lat":53.51816,"tags":"canada,edmonton","S2CellId":"880fd3c000000000","result":8169,"accuracy":0.07987824,"title":"Canada+Day+2011+-+03+-+Preparation","description":"Canada+Day+Parade+on+Whyte+Ave%2C+Edmonton%2C+Alberta"}
{"id":539432296,"url":"http://farm2.staticflickr.com/1394/539432296_b188e570e1.jpg","path":"d98/edf/d98edfb6683b9cebafbbbfcd6e213290.jpg","date":"2007-06-08","year":2007,"month":6,"lon":-113.52368,"lat":53.557404,"tags":"party","S2CellId":"808580ec00000000","result":6958,"accuracy":0.025340855,"title":"EHG+ABC_fb++015.jpg","description":"the+friday+party+at+bruce%27s"}
{"id":1584234532,"url":"http://farm3.staticflickr.com/2144/1584234532_aa8a7a292b.jpg","path":"5a1/d27/5a1d279a2a4d01435ef661a08f10be.jpg","date":"2007-09-30","year":2007,"month":9,"lon":-113.47725,"lat":53.534863,"tags":"alberta,canada,edmonton,flower,flowers,muttart,muttart+conservatory,plant,plants","S2CellId":"47e0c00000000000","result":4528,"accuracy":0.08633199,"title":"101_0014"}
{"id":4433139663,"url":"http://farm5.staticflickr.com/4019/4433139663_489d832bd8.jpg","path":"ec3/1d3/ec31d34bf552ecbf737b39b4f4f2216d.jpg","date":"2010-01-02","year":2010,"month":1,"lon":-113.47714,"lat":53.536285,"tags":"alberta,cactus,canada,edmonton,jmr64,muttart,muttart+conservatory,plant,thorn","S2CellId":"6ad642a400000000","result":6620,"accuracy":0.023370458,"title":"Poison"}
{"id":4839602345,"url":"http://farm5.staticflickr.com/4109/4839602345_7c829d35f3.jpg","path":"811/ae0/811ae056ea4659fd1949fdf215dba69.jpg","date":"2010-06-13","year":2010,"month":6,"lon":-113.579414,"lat":53.5023,"tags":"1910,alberta,bellows,camera,can,canada,eastman+kodak,edmonton,ekc,fort+edmonton+park,kodak+ball+bearing+shutter,lens,manual,nikkor+af-s+105mm+f%2F2.8g+if-ed+vr+micro,vintage","S2CellId":"54950f0000000000","result":6252,"accuracy":0.0040255478,"title":"ft_edm_park__0036.jpg"}
{"id":5339447047,"url":"http://farm6.staticflickr.com/5049/5339447047_43e7400965.jpg","path":"33a/83f/33a83f52bf6eeff4bb225a06e176579.jpg","date":"2011-01-09","year":2011,"month":1,"lon":-113.44803,"lat":53.49042,"tags":"britl,cold,edmonton,ice,icicle,snow,winter,yeg","S2CellId":"8819ad0000000000","result":8204,"accuracy":0.020754466,"title":"Travis+and+I+with+the+huge+icicles"}
{"id":5400289540,"url":"http://farm6.staticflickr.com/5015/5400289540_9763a4abf4.jpg","path":"b5e/345/b5e345e5eccf7bb15a1e5a36c6a28d9.jpg","date":"2011-01-29","year":2011,"month":1,"lon":-113.48999,"lat":53.543865,"tags":"churchill+square,circus+orange,edmonton,events,festivals,illuminations,mastermaq,winter+light","S2CellId":"4cc91a4c00000000","result":5889,"accuracy":0.09021126,"title":"Winter+Light+Illuminations+2011"}
{"id":6317324417,"url":"http://farm7.staticflickr.com/6109/6317324417_fb66e84ff7.jpg","path":"606/e9c/606e9cf09e53edaceb66bb3d8aa9fbee.jpg","date":"2011-10-16","year":2011,"month":10,"lon":-113.44205,"lat":53.560448,"tags":"10+mile,2011,28th+annual,5+mile,7d,ab,ada+blvd,ada+boulevard,alberta,athletes,canada,canon,canon70200f2.8l,competition,edmonton,fall+classic,jog,man,mustache,old,race,run,sangudo,senior,walk,yeg","S2CellId":"53a0224000000000","result":6072,"accuracy":0.073612474,"title":"2011+Fall+Classic"}
{"id":4664540723,"url":"http://farm5.staticflickr.com/4025/4664540723_5bd4d03ac8.jpg","path":"e99/16a/e9916a0561ee647e3e63ef8fdb1d7a8.jpg","date":"2010-06-02","year":2010,"month":6,"lon":-113.60447,"lat":53.51009,"tags":"%23yeg,cocker,dog,edmonton,nature,patricia,ravine,spaniel,spring,starbuck","S2CellId":"88d0a631cabb5071","result":8563,"accuracy":0.063842885,"title":"patricia-ravine-13"}
{"id":5952448192,"url":"http://farm7.staticflickr.com/6122/5952448192_aa453f5267.jpg","path":"25e/c6c/25ec6ce2e90d347fac99468b1d423e.jpg","date":"2011-07-17","year":2011,"month":7,"lon":-113.52307,"lat":53.538803,"tags":"2011,derby,edmonton,flickrmeet,july,kids,soapbox,summer","S2CellId":"4b5d000000000000","result":5825,"accuracy":0.050956,"title":"Ready+to+go...","description":"Edmonton+Soap+Box+Derby+racers+July+17+2011."}
{"id":1255833050,"url":"http://farm2.staticflickr.com/1359/1255833050_69fa2af961.jpg","path":"fcc/578/fcc578cfda2bd11922ac679a4abae2f2.jpg","date":"2007-08-26","year":2007,"month":8,"lon":-113.573845,"lat":53.50388,"tags":"alberta,canada,edmflickrmeet,edmonton,flickrmeet,fort,fort+edmonton+park,harvest+festival,park","S2CellId":"4cce0c0000000000","result":5920,"accuracy":0.026600435,"title":"Edmonton+Model+Railroad+Association","description":"%3Ca+href%3D%22http%3A%2F%2Fwww.emraonline.ca%2F%22%3EThe+Edmonton+Model+Railroad+Association%3C%2Fa%3E%0A%0AAt+%3Ca+href%3D%22http%3A%2F%2Fen.wikipedia.org%2Fwiki%2FFort_Edmonton%22%3EFort+Edmonton%3C%2Fa%3E+Park+during+the+Harvest+Festival."}
{"id":6169393322,"url":"http://farm7.staticflickr.com/6158/6169393322_e0e17481c8.jpg","path":"ca6/c5e/ca6c5e5ae0e2cc5aefac8b6d4de54b5.jpg","date":"2011-09-21","year":2011,"month":9,"lon":-113.49252,"lat":53.546364,"tags":"buildings,downtown,edmonton,epcor,epcor+tower,mastermaq","S2CellId":"471ecc9000000000","result":3240,"accuracy":0.02549121,"title":"EPCOR+Tower+Light+Up"}
{"id":6299875867,"url":"http://farm7.staticflickr.com/6106/6299875867_2ef3faca64.jpg","path":"786/b99/786b99aa5acf6094232db5c32c5cd43b.jpg","date":"2011-10-30","year":2011,"month":10,"lon":-113.518135,"lat":53.526733,"tags":"2011,2011%2F10%2F30,7d,ab,adf,alberta,alberta+diabetes+foundation,canada,canon,charity,costumes,devil+horns,drive,edmonton,fun,halloween+howl,race,run,sangudo,saskatchewan,saskatchewan+drive,tutu,wig,woman,yeg","S2CellId":"12b6ac0000000000","result":818,"accuracy":0.036613062,"title":"2011+Halloween+Howl"}
{"id":2703531049,"url":"http://farm4.staticflickr.com/3273/2703531049_d42b08cf61.jpg","path":"49d/7c6/49d7c6aa157178607c466dc060bfa8.jpg","date":"2008-07-24","year":2008,"month":7,"lon":-113.83125,"lat":53.567238,"tags":"alberta,area,natural,parafb,wagner","S2CellId":"48792c0000000000","result":5465,"accuracy":0.05459851,"title":"IMG_5436"}
{"id":5790854726,"url":"http://farm4.staticflickr.com/3347/5790854726_a50394d1b8.jpg","path":"2b1/dd5/2b1dd5ff996b577ff3f4afad541062b3.jpg","date":"2011-06-01","year":2011,"month":6,"lon":-113.47478,"lat":53.55919,"tags":"commonwealth+stadium,concerts,edmonton,mastermaq,music,u2,u2360","S2CellId":"89c2fc0000000000","result":9116,"accuracy":0.8019659,"title":"U2360+Edmonton"}
{"id":7376391424,"url":"http://farm8.staticflickr.com/7231/7376391424_63e8af8a4f.jpg","path":"5aa/857/5aa85733e2255fb933139bf7e0aea57e.jpg","date":"2012-06-02","year":2012,"month":6,"lon":-113.532524,"lat":53.503452,"tags":"2012,2012%2F%2F06%2F02,ab,alberta,alberta+schools%27+athletic+associaton,asaa,athlete,athletic,athletics+alberta,canada,canon70200f2.8l,canon7d,ebony,edmonton,foote+field,provincial+championships,race,robert+antoniuk,run,sport,track+and+field,woman,yeg","S2CellId":"53a0210000000000","result":6071,"accuracy":0.40906018,"title":"2012+ASAA+Track+%26+Field+Provincials"}
{"id":312065223,"url":"http://farm1.staticflickr.com/119/312065223_dbac8cefcc.jpg","path":"359/2b1/3592b1e8eb7ce3248033e4c1d3e9.jpg","date":"2006-12-01","year":2006,"month":12,"lon":-113.52141,"lat":53.528275,"tags":"2006,a+moment+with+you,alberta,canada,edmonton,sketchbook+media,university,university+of+alberta,wong+fu+productions","S2CellId":"346eb00000000000","result":2224,"accuracy":0.080915116,"title":"Img2006-12-01_090.JPG","description":"Crazy+excited%21"}
{"id":8162881725,"url":"http://farm9.staticflickr.com/8484/8162881725_a99105e881.jpg","path":"553/7f1/5537f12aba24477bb14c6930c9ab12.jpg","date":"2012-05-06","year":2012,"month":5,"lon":-113.63294,"lat":53.632385,"tags":"2012,2012%2F05%2F06,ab,alberta,canada,canon70200f2.8l,canon7d,leading+edge,lion%27s+park,man,race,robert+antoniuk,run,run+wild,sangudo,st.+albert,woman","S2CellId":"5486723000000000","result":6135,"accuracy":0.45866528,"title":"2012+Run+Wild+Marathon","description":"The+2012+Run+Wild+Marathon+held+in+St.Albert%2C+Alberta%2C+Canada+on+2012%2F05%2F06."}
{"id":7411501418,"url":"http://farm6.staticflickr.com/5036/7411501418_5d9cc71999.jpg","path":"e0e/9a3/e0e9a37498934fe6b63b710f2b23c2f.jpg","date":"2012-06-16","year":2012,"month":6,"lon":-113.52956,"lat":53.530716,"tags":"10k+run,2012,2012%2F06%2F16,ab,alberta,alberta+cancer+foundation,canada,canon70200f2.8l,canon7d,charity,costumes,edmonton,event,man,robert+antoniuk,sangudo,tuxedo,underwear+affair,yeg","S2CellId":"89d4cd0000000000","result":9258,"accuracy":0.16926649,"title":"2012+Edmonton+Underwear+Affair","description":"For+more+information+please+visit%3A+%3Ca+href%3D%22http%3A%2F%2Fed12.uncoverthecure.org%22+rel%3D%22nofollow%22%3Eed12.uncoverthecure.org%3C%2Fa%3E"}
{"id":171657557,"url":"http://farm1.staticflickr.com/76/171657557_f0574b341f.jpg","path":"1d2/8af/1d28af674f638e3505bd49395672a8d.jpg","date":"2006-06-19","year":2006,"month":6,"lon":-113.48985,"lat":53.54398,"tags":"alberta,camera,canada,cbc,churchill+square,edmonton,reporter,reporters,tripod","S2CellId":"487604ce10000000","result":5232,"accuracy":0.045961823,"title":"Setting+Up","description":"A+CBC+reporter%2C+cameraman%2C+and+someone+who%27s+job+it+is+to+stand+around+set+up+for+a+short+report+at+Churchill+Square."}
{"id":4740046835,"url":"http://farm5.staticflickr.com/4076/4740046835_9c0fb13565.jpg","path":"3d9/136/3d9136995eafd91b3f2fc5a6b5daaea.jpg","date":"2010-06-27","year":2010,"month":6,"lon":-113.523384,"lat":53.53882,"tags":"af-s+vr+zoom-nikkor+70-200mm+f%2F2.8g+if-ed","S2CellId":"5f70000000000000","result":6358,"accuracy":0.087784305}
{"id":6156621649,"url":"http://farm7.staticflickr.com/6087/6156621649_164eb3f7d8.jpg","path":"7f2/1b5/7f21b523fe8feebf135fddfcda1fb2ca.jpg","date":"2011-09-02","year":2011,"month":9,"lon":-113.48615,"lat":53.541706,"tags":"af-s+nikkor+16-85mm+f%2F3.5-5.6g+ed+vr,alberta,canada,d90,edmonton,nikon","S2CellId":"53a0224000000000","result":6072,"accuracy":0.49512297,"title":"Bridges+and+Flags"}
{"id":2718945696,"url":"http://farm4.staticflickr.com/3162/2718945696_bbe0532030.jpg","path":"db9/424/db94246b34c1c0741d94fa92c321e2c1.jpg","date":"2008-06-14","year":2008,"month":6,"lon":-113.50081,"lat":53.54094,"tags":"2008,edmonton,gay,parade,pride,queer","S2CellId":"8816c00000000000","result":8191,"accuracy":0.19854265,"title":"4154"}
{"id":1511253780,"url":"http://farm1.staticflickr.com/244/1511253780_31bd6567f4.jpg","path":"667/9b0/6679b0e9371c73fc60379a08b5ce990.jpg","date":"2007-09-21","year":2007,"month":9,"lon":-113.49537,"lat":53.51818,"tags":"bicycle,edmonton,whyte-avenue","S2CellId":"876bec4000000000","result":7871,"accuracy":0.031753656,"title":"Rambler"}
{"id":7092350943,"url":"http://farm6.staticflickr.com/5115/7092350943_94fa2cd89f.jpg","path":"bec/21e/bec21ec1278bf0549b4052a543da936c.jpg","date":"2012-04-15","year":2012,"month":4,"lon":-113.64251,"lat":53.633938,"tags":"10,10+miler,2012,2012%2F04%2F15,27th+anniversary,ab,alberta,canada,canon70200f2.8l,canon7d,competition,jog,man,mile,race,road,robert+antoniuk,run,sangudo,sport,st.+albert,st.+albert+10-miler","S2CellId":"53a022c000000000","result":6073,"accuracy":0.078746915,"title":"2012+St.+Albert+10-Miler"}
{"id":2615462285,"url":"http://farm4.staticflickr.com/3189/2615462285_8a116285f2.jpg","path":"f5c/634/f5c634a99ebc94727a99e38593992ba2.jpg","date":"2008-06-24","year":2008,"month":6,"lon":-113.55533,"lat":53.511925,"tags":"alberta,bird,birds,canada,edmonton,parrot,parrots,valley+zoo,zoo","S2CellId":"94f7000000000000","result":9773,"accuracy":0.07077857,"title":"Like+a+Telus+Ad"}
{"id":6267644081,"url":"http://farm7.staticflickr.com/6225/6267644081_6c382cee53.jpg","path":"3d1/68f/3d168f0d38f0437ad986c02d653d23.jpg","date":"2011-09-25","year":2011,"month":9,"lon":-113.418884,"lat":53.52834,"tags":"2011,2011%2F09%2F25,50d,ab,alberta,canada,canon,edmonton,motorcycle,run,sangudo,toy,yeg","S2CellId":"89b7b71000000000","result":8847,"accuracy":0.2955008,"title":"2011+Edmonton+Motorcycle+Toy+Run","description":"%3Ca+href%3D%22http%3A%2F%2Fflic.kr%2Fs%2FaHsjsnZsaW%22+rel%3D%22nofollow%22%3ELink+to+2010+Toy+Run%3C%2Fa%3E"}
{"id":567012933,"url":"http://farm2.staticflickr.com/1122/567012933_2bd97642b2.jpg","path":"5fa/775/5fa7759be380346efd1d6a6467f4f191.jpg","date":"2007-06-18","year":2007,"month":6,"lon":-113.52554,"lat":53.52821,"tags":"alberta,biology,canada,ccis,centennial+centre+for+interdisciplinary+science,chemistry,construction,edmonton,nano+technology,physics,u+of+a,university+of+alberta","S2CellId":"8819ad0000000000","result":8204,"accuracy":0.09004863,"title":"Pilings+Next+To+Chemistry","description":"%3Ca+href%3D%22http%3A%2F%2Fwww.science.ualberta.ca%2FCCIS.cfm%22%3ECCIS%3C%2Fa%3E+%28Centennial+Centre+for+Interdisciplinary+Science%29"}
{"id":6994694174,"url":"http://farm8.staticflickr.com/7122/6994694174_d45084561a.jpg","path":"b9b/426/b9b42635c7a7acba19e2cef6aa4ad65e.jpg","date":"2012-05-02","year":2012,"month":5,"lon":-113.45246,"lat":53.55608,"tags":"2012,2012%2F05%2F02,ab,alberta,brunette,canon70200f2.8l,canon7d,cap,competition,dawson+park,edmonton,frank+mcnamara+cross+country+race+series,jog,kinnaird+ravine,pants,park,ponytail,river+valley,run,sangudo,spandex,tights,trail,woman,xc,yeg","S2CellId":"53a022c000000000","result":6073,"accuracy":0.085078225,"title":"2012-05-02+Frank+McNamara+XC+Series","description":"Great+scenery+in+the+river+valley+for+this+cross+country+race."}
{"id":701141482,"url":"http://farm2.staticflickr.com/1297/701141482_8a191fdfd9.jpg","path":"ee1/fb6/ee1fb692612dced20e36824d7dff223.jpg","date":"2007-07-01","year":2007,"month":7,"lon":-113.43751,"lat":53.45567,"tags":"2007,canada+day,edmonton","S2CellId":"872b090000000000","result":7756,"accuracy":0.046584602,"title":"20070701_Canada_0128"}
{"id":4484900827,"url":"http://farm5.staticflickr.com/4068/4484900827_397946f4c4.jpg","path":"f1f/e14/f1fe14b1b2b7188d26c4b3dfb688f4.jpg","date":"2010-04-01","year":2010,"month":4,"lon":-113.52825,"lat":53.52162,"tags":"inthreedimensions,uofa3d","S2CellId":"8830fbc000000000","result":8292,"accuracy":0.025649602,"title":"K20D2084","description":"Reference+shot."}
{"id":5220273064,"url":"http://farm6.staticflickr.com/5244/5220273064_30965c9d4e.jpg","path":"30a/32e/30a32eb093b1117610bf13bb57a86f67.jpg","date":"2010-11-29","year":2010,"month":11,"lon":-113.512505,"lat":53.52314,"tags":"cupcakes,edmonton,mastermaq,mocupcake,mocupcakeyeg,movember,transcend+garneau","S2CellId":"80dc740000000000","result":7331,"accuracy":0.034273487,"title":"MoCupcakeYEG"}
{"id":5416435305,"url":"http://farm6.staticflickr.com/5216/5416435305_bf2e03ee21.jpg","path":"1fd/067/1fd067ba7cbdabc7d733eeda358bbc6d.jpg","date":"2011-02-04","year":2011,"month":2,"lon":-113.527565,"lat":53.523243,"tags":"2011,alberta,butter+dome,dodgeball,dodgeballs,edmonton,guinness+world+record,sport,student+union,students,ualberta,university+of+alberta,uofa,yeg","S2CellId":"3442abc400000000","result":2077,"accuracy":0.05421944,"title":"UofA_Dodgeball_20110204_054","description":"Photo+credit%3A+Jeffrey+N.+Murphy+%28graduate+student+at+the+University+of+Alberta%29"}
{"id":6317812684,"url":"http://farm7.staticflickr.com/6040/6317812684_2169a42f82.jpg","path":"d1c/8b3/d1c8b3cf58f0e1f7ab3a2f6dd566a8.jpg","date":"2011-10-16","year":2011,"month":10,"lon":-113.44205,"lat":53.560448,"tags":"10+mile,2011,28th+annual,5+mile,7d,ab,ada+blvd,ada+boulevard,alberta,athletes,bandana,canada,canon,canon70200f2.8l,competition,edmonton,fall+classic,jog,man,race,run,sangudo,sunglasses,walk,yeg","S2CellId":"53a022c000000000","result":6073,"accuracy":0.6470596,"title":"2011+Fall+Classic"}
{"id":3406674677,"url":"http://farm4.staticflickr.com/3651/3406674677_d909ac63d7.jpg","path":"223/68b/22368ba969bd46c173ca8bcd5adebb4e.jpg","date":"2007-11-23","year":2007,"month":11,"lon":-113.55909,"lat":53.57531,"tags":"macro,new","S2CellId":"4685000000000000","result":2952,"accuracy":0.024079308,"title":"5+Star","description":"Nice+macro+shot+of+my+note+book.++The+lighting+was+simple+the+lamp%2C+looks+almost+like+a+studio+shot."}
{"id":3627790342,"url":"http://farm4.staticflickr.com/3615/3627790342_febe6dfb8f.jpg","path":"46d/939/46d939192de77fcfb9d858b7c41688dc.jpg","date":"2009-06-13","year":2009,"month":6,"lon":-113.49666,"lat":53.540886,"tags":"alberta,downtown,edmonton,parade,pride,pride+parade,pride+week","S2CellId":"52b3329000000000","result":5984,"accuracy":0.21120487,"title":"Edmonton+Pride+Parade+2009"}
{"id":4848791994,"url":"http://farm5.staticflickr.com/4076/4848791994_327e398226.jpg","path":"e14/327/e143270145b3a748e91364eddf25b10.jpg","date":"2010-07-31","year":2010,"month":7,"lon":-113.50971,"lat":53.550304,"tags":"iphone+3g,iphone+4","S2CellId":"80d9535400000000","result":7284,"accuracy":0.036170457,"title":"Transitioning","description":"Still+waiting+for+my+iPhone+4+to+activate+as+we+transition+from+July+to+August.%0A%0AiPhone+wallpapers+by+%3Ca+href%3D%22http%3A%2F%2Fwww.flickr.com%2Fphotos%2Fxochiquetcal%2F4742055918%2F%22%3Edefinatalie%3C%2Fa%3E."}
{"id":6295800941,"url":"http://farm7.staticflickr.com/6226/6295800941_4f587470e5.jpg","path":"324/c8d/324c8d91e62ee566b6192c27a7f8611.jpg","date":"2011-10-30","year":2011,"month":10,"lon":-113.518135,"lat":53.526733,"tags":"2011,2011%2F10%2F30,7d,ab,adf,alberta,alberta+diabetes+foundation,canada,canon,charity,costumes,drive,edmonton,fun,halloween+howl,man,race,run,sangudo,saskatchewan,saskatchewan+drive,smile,yeg","S2CellId":"89b7b79900000000","result":8860,"accuracy":0.15164214,"title":"2011+Halloween+Howl"}
{"id":7147052105,"url":"http://farm8.staticflickr.com/7127/7147052105_72444842ce.jpg","path":"a9e/223/a9e22392f3ff4d146184de518d83da.jpg","date":"2012-05-05","year":2012,"month":5,"lon":-113.40536,"lat":53.556026,"tags":"ab,alberta,canada,canon7d,chase,duck,edmonton,female,flight,fly,gold+bar+park,male,mallards,robert+antoniuk,sangudo,yeg","S2CellId":"88d0a631cabb5071","result":8563,"accuracy":0.03255581,"title":"2012-05-05+Gold+Bar+Park","description":"Can%27t+wait+for+the+babies%21%21%21"}
{"id":1394420942,"url":"http://farm2.staticflickr.com/1296/1394420942_c5a3981a7f.jpg","path":"79c/312/79c3124dc2d1a62975f38bd48e5176e.jpg","date":"2007-09-16","year":2007,"month":9,"lon":-113.5262,"lat":53.49796,"tags":"alberta,canada,construction,edmonton,extension,lrt,slrt","S2CellId":"5304000000000000","result":6019,"accuracy":0.33806196,"title":"IMG_3303","description":"Looking+east+from+61+Avenue+toward+111+Street."}
{"id":272243175,"url":"http://farm1.staticflickr.com/105/272243175_3bdf5cf407.jpg","path":"e83/4f6/e834f6a5f17aa366fa8ae7e88943431.jpg","date":"2005-09-20","year":2005,"month":9,"lon":-113.51822,"lat":53.49942,"tags":"bunnies,sadie","S2CellId":"89d4d40000000000","result":9260,"accuracy":0.05657844,"title":"DSCN0505_1"}
{"id":1256266451,"url":"http://farm2.staticflickr.com/1357/1256266451_0ae9c82e45.jpg","path":"c7f/0b8/c7f0b805ebc5a4ea4abcbc2339f7d47.jpg","date":"2007-08-26","year":2007,"month":8,"lon":-113.57838,"lat":53.502735,"tags":"alberta,canada,edmflickrmeet,edmonton,flickrmeet,fort,fort+edmonton+park,harvest+festival,park","S2CellId":"89c8b00000000000","result":9204,"accuracy":0.034409624,"title":"Mercury+Eight","description":"%3Ca+href%3D%22http%3A%2F%2Fen.wikipedia.org%2Fwiki%2FMercury_Eight%22%3EMercury+Eight%3C%2Fa%3E%0A%0AAt+%3Ca+href%3D%22http%3A%2F%2Fen.wikipedia.org%2Fwiki%2FFort_Edmonton%22%3EFort+Edmonton%3C%2Fa%3E+Park+during+the+Harvest+Festival."}
{"id":3406907475,"url":"http://farm4.staticflickr.com/3412/3406907475_29abf024a2.jpg","path":"75e/d93/75ed93cfa43c4bb92417ff516aeb06a.jpg","date":"2009-04-02","year":2009,"month":4,"lon":-113.60837,"lat":53.554523,"tags":"canadamoot,canadian+moot+2009,moodle","S2CellId":"8822ec0000000000","result":8219,"accuracy":0.10887729,"title":"D3B_1441"}
{"id":5533190415,"url":"http://farm6.staticflickr.com/5134/5533190415_43db5fc5cd.jpg","path":"4d5/ac9/4d5ac9c86417149cd11cd8f92b9bc9.jpg","date":"2011-03-13","year":2011,"month":3,"lon":-113.49915,"lat":53.518158,"tags":"af-s+nikkor+16-85mm+f%2F3.5-5.6g+ed+vr,alberta,canada,d40,edmonton,nikon","S2CellId":"0d6048f000000000","result":508,"accuracy":0.08854684,"title":"Car+Door"}
{"id":3789286053,"url":"http://farm3.staticflickr.com/2496/3789286053_d5645d3016.jpg","path":"6f5/779/6f57794a39c69976863f6b98641eee.jpg","date":"2009-08-03","year":2009,"month":8,"lon":-113.54496,"lat":53.52852,"tags":"alberta,canada,edmonton,festival,hawrelak,hawrelak+park,heritage,heritage+festival,park","S2CellId":"3a30000000000000","result":2513,"accuracy":0.057170942,"title":"Bangladesh"}
{"id":6000151651,"url":"http://farm7.staticflickr.com/6143/6000151651_8407e69f7d.jpg","path":"a6e/b70/a6eb701bb14db4838238c102e6355aa.jpg","date":"2011-08-01","year":2011,"month":8,"lon":-113.56069,"lat":53.559074,"tags":"dragonfly","S2CellId":"8085790000000000","result":6916,"accuracy":0.022140695,"title":"Interference","description":"I+didn%27t+dare+move+the+leaves%2C+lest+I+startle+the+dragonfly%3B+I+couldn%27t+get+high+enough+to+shoot+overtop+of+them.++So%2C+not+a+brilliant+photo%2C+but+it+damned+well+would%27ve+been%21"}
{"id":4092971977,"url":"http://farm3.staticflickr.com/2522/4092971977_102d268c7c.jpg","path":"c3e/0b2/c3e0b2d478dc7468dc5a50bba828fa93.jpg","date":"2009-11-08","year":2009,"month":11,"lon":-113.49764,"lat":53.51854,"tags":"af-s+nikkor+16-85mm+f%2F3.5-5.6g+ed+vr,alberta,artifacts,canada,d90,edmonton,flickrmeet,nikon,strathcona+furniture,whyte+avenue","S2CellId":"87df500000000000","result":8025,"accuracy":0.013678035,"title":"Strathcona+Furniture"}
{"id":7396155040,"url":"http://farm8.staticflickr.com/7104/7396155040_c7519aa468.jpg","path":"b2a/78b/b2a78b3a29db3e21ae2013aa577596.jpg","date":"2012-06-09","year":2012,"month":6,"lon":-113.57709,"lat":53.50293,"tags":"drug+store,edmonton,fort+edmonton,historic+village,store","S2CellId":"8853c00000000000","result":8420,"accuracy":0.042018604,"title":"Drug+Store","description":"Touring+Fort+Edmonton+on+a+spur-of-the-moment+weekend+trip+to+our+province%27s+capital."}
{"id":2428979168,"url":"http://farm3.staticflickr.com/2215/2428979168_a72970b348.jpg","path":"dde/d19/dded19e27f82bb71f867c38c3030d786.jpg","date":"2008-04-19","year":2008,"month":4,"lon":-113.51688,"lat":53.512203,"tags":"april,canada,edmonton,snow,sparlingo","S2CellId":"8819ad0000000000","result":8204,"accuracy":0.09781931,"title":"Songs+of+Birds","description":"Usually+our+church+welcome+sign+is+amusingly+cheesy+or+groan-inducingly+punny.%0A%0AToday+it+was+just+sad+-+I+could+hear+no+birds.++Did+make+for+an+interesting+sight%2C+though.+%0A%0AMerry+Almost+May%21"}
{"id":3502655484,"url":"http://farm4.staticflickr.com/3414/3502655484_06dc5bf37e.jpg","path":"9f8/3a5/9f83a54cca60a63b35245ed06b64fbb.jpg","date":"2009-05-03","year":2009,"month":5,"lon":-113.50662,"lat":53.53469,"tags":"alberta,alberta+legislature,canada,d40,edmonton,legislature,nikon","S2CellId":"80c2c7f000000000","result":7209,"accuracy":0.01844666,"title":"Front+Door"}
{"id":2718130707,"url":"http://farm4.staticflickr.com/3167/2718130707_eee0ae5c34.jpg","path":"b4c/48a/b4c48a9933c7469bc78fcb4532834d.jpg","date":"2008-06-14","year":2008,"month":6,"lon":-113.50081,"lat":53.54094,"tags":"2008,edmonton,gay,parade,pride,queer","S2CellId":"53a0224000000000","result":6072,"accuracy":0.04561331,"title":"4160"}
{"id":8061741246,"url":"http://farm9.staticflickr.com/8039/8061741246_0e358e5a95.jpg","path":"d8c/cfc/d8ccfc4cbea28cb137ae382a656a2.jpg","date":"2012-10-06","year":2012,"month":10,"lon":-113.533966,"lat":53.36369,"tags":"2012,2012%2F10%2F06,aka%3A+sangudo,alberta,boobies+rule%21,bras,canada,canadian+breast+cancer+foundation,canon70200f2.8l,canon7d,charity,convoy+for+a+cure,event,fundraiser,highway+%232,kenworth,photographer%3A+robert+antoniuk,queen+e,queen+elizabeth+highway,sb,southbound,truck,women+truckers","S2CellId":"8084c00000000000","result":6909,"accuracy":0.018603902,"title":"2012+Alberta+Convoy+For+A+Cure","description":"Alberta+Convoy+for+a+Cure+is+a+Fundraiser+to+raise+money+for+the+Canadian+Breast+Cancer+Foundation.++For+more+info+please+visit%3A+%3Ca+href%3D%22http%3A%2F%2Fwww.albertaconvoyforacure.ca%2F%22+rel%3D%22nofollow%22%3Ewww.albertaconvoyforacure.ca%2F%3C%2Fa%3E"}
{"id":4605280069,"url":"http://farm2.staticflickr.com/1432/4605280069_6c213b2756.jpg","path":"382/8b0/3828b05e6ff86a93dfda56a2e8558eb0.jpg","date":"2010-05-08","year":2010,"month":5,"lon":-113.4863,"lat":53.54176,"tags":"edmonton,events,mastermaq,media,mediacamp,mediacamp+edmonton,yegmediacamp","S2CellId":"88e77e4000000000","result":8673,"accuracy":0.1234144,"title":"MediaCamp+Edmonton"}
{"id":7411403608,"url":"http://farm8.staticflickr.com/7131/7411403608_dc7699e402.jpg","path":"da4/760/da47609fe8dd3367879b82f3f5b21b2.jpg","date":"2012-06-16","year":2012,"month":6,"lon":-113.52956,"lat":53.530716,"tags":"10k+run,2012,2012%2F06%2F16,ab,alberta,alberta+cancer+foundation,canada,canon70200f2.8l,canon7d,charity,costumes,edmonton,event,party+panties,robert+antoniuk,sangudo,underwear+affair,women,yeg","S2CellId":"53a0224000000000","result":6072,"accuracy":0.21333179,"title":"2012+Edmonton+Underwear+Affair","description":"For+more+information+please+visit%3A+%3Ca+href%3D%22http%3A%2F%2Fed12.uncoverthecure.org%22+rel%3D%22nofollow%22%3Eed12.uncoverthecure.org%3C%2Fa%3E"}
{"id":8347786749,"url":"http://farm9.staticflickr.com/8498/8347786749_73fbf306b7.jpg","path":"cd2/2a4/cd22a4b8abc4f932cb7efa6ad4d1db.jpg","date":"2012-12-29","year":2012,"month":12,"lon":-113.56404,"lat":53.561264,"tags":"edmonton,identities,star+wars,star+wars+identities,telus+world+of+science,twos","S2CellId":"88e0ac0000000000","result":8646,"accuracy":0.07477094,"title":"Star+Wars+Identities"}
{"id":6233632964,"url":"http://farm7.staticflickr.com/6047/6233632964_b8b2f23a15.jpg","path":"21d/90f/21d90f6408399bcd58e1fad23c8ea43.jpg","date":"2011-10-07","year":2011,"month":10,"lon":-113.49398,"lat":53.54083,"tags":"flickrmeet+%23yeg+zombiewalk+zombie+2011+october","S2CellId":"809f000000000000","result":7130,"accuracy":0.008458677,"title":"Jasper+Light+Trails","description":"Long+moving+exposure+on+Jasper+Avenue"}
{"id":5741817559,"url":"http://farm3.staticflickr.com/2042/5741817559_68673dd835.jpg","path":"afa/2cc/afa2cca442aa19eda3f8dd5ee755fc54.jpg","date":"2011-05-14","year":2011,"month":5,"lon":-113.51935,"lat":53.527504,"tags":"2011,2011%2F05%2F14,50d,alberta,athlete,athletes,athletic,bike,campus+recreation,canada,canon,canon70200f2.8l,cycle,edmonton,flickr,helmet,picnik,race,sangudo,shorts,spandex,spring,thaw,triathlon,triathlon+club,university+of+alberta,uofa,woman","S2CellId":"87bf6b0000000000","result":7959,"accuracy":0.43383178,"title":"2011+Spring+Thaw+Triathlon"}
{"id":26699834,"url":"http://farm1.staticflickr.com/23/26699834_c26bf7b6ff.jpg","path":"90b/55b/90b55b53f9a98e5356242e98342cd4.jpg","date":"2005-07-16","year":2005,"month":7,"lon":-113.54987,"lat":53.52798,"tags":"alberta,canada,edmonton,edmonton+flickr+meetup,hawrelak+park,striatic,striatic+does+america,striatic+does+canada","S2CellId":"3554400000000000","result":2267,"accuracy":0.055315997,"title":"Striatic+Puts+Out+the+Food","description":"%3Ca+href%3D%22http%3A%2F%2Fwww.flickr.com%2Fphotos%2Fsweetpea%2F%22%3ELathyrus%3C%2Fa%3E+and+%3Ca+href%3D%22http%3A%2F%2Fwww.flickr.com%2Fphotos%2Fstriatic%2F%22%3Estriatic%3C%2Fa%3E+put+out+the+food%2C+%3Ca+href%3D%22http%3A%2F%2Fwww.flickr.com%2Fphotos%2Flimegirl%2F%22%3Elimegirl%3C%2Fa%3E+checks+a+picture%2C+and+%3Ca+href%3D%22http%3A%2F%2Fwww.flickr.com%2Fphotos%2F36521964394%40N01%2F%22%3Eseuss%3C%2Fa%3E...notices+his+socks+are+on+fire%3F"}
{"id":3505753229,"url":"http://farm4.staticflickr.com/3400/3505753229_6a356a3bfd.jpg","path":"a6a/981/a6a981cd74d254ea59166afc774c80.jpg","date":"2009-05-03","year":2009,"month":5,"lon":-113.49037,"lat":53.54622,"tags":"5d,bokeh,canon,canon+ef+100mm+f%2F2.8+macro+usm,daisies,dof,drops,e_tavares,eos,green,macro,mark+ii,mkii,water+drops","S2CellId":"47edc00000000000","result":4703,"accuracy":0.9721325,"title":"Daisies+inside+water+drops","description":"Just+having+fun+with+my+new+Canon+5D+Mark+II+and+100+mm+f%2F2.8+macro+USM."}
{"id":12395801655,"url":"http://farm8.staticflickr.com/7391/12395801655_e36be0132e.jpg","path":"8ff/652/8ff652db405db86abb3b0213361ee94.jpg","date":"2014-02-05","year":2014,"month":2,"lon":-113.51853,"lat":53.416126,"tags":"alberta,blackmud,callaghan,canada,coyote,creek,edmonton","S2CellId":"89e6d00000000000","result":9384,"accuracy":0.029484099,"title":"DSC_0059"}
{"id":2375810435,"url":"http://farm4.staticflickr.com/3282/2375810435_71f5bae676.jpg","path":"663/282/663282b08cec9c32bf826faba7037b8.jpg","date":"2008-03-30","year":2008,"month":3,"lon":-113.47881,"lat":53.527657,"tags":"abstract,b%26w,creek,ice,nature,spring,water,winter","S2CellId":"465a400000000000","result":2886,"accuracy":0.0045626885,"title":"Winter+Into+Spring"}
{"id":5891518706,"url":"http://farm6.staticflickr.com/5309/5891518706_9d0942f647.jpg","path":"9c8/a56/9c8a567ca8c3862222b8f470f8f183d6.jpg","date":"2011-06-30","year":2011,"month":6,"lon":-113.490654,"lat":53.547676,"tags":"band,cockatoo,dave,rebus","S2CellId":"89c9f00000000000","result":9211,"accuracy":0.07024663,"title":"DR7"}
{"id":6946310674,"url":"http://farm6.staticflickr.com/5319/6946310674_1fd2489a05.jpg","path":"fad/348/fad34884e2c4c0c3d5b7fc8c32ae299.jpg","date":"2012-04-15","year":2012,"month":4,"lon":-113.64251,"lat":53.633938,"tags":"10,10+miler,2012,2012%2F04%2F15,27th+anniversary,ab,alberta,canada,canon70200f2.8l,canon7d,competition,jog,mile,ponytail,race,road,robert+antoniuk,run,sangudo,sport,st.+albert,st.+albert+10-miler,woman,young","S2CellId":"53a0270000000000","result":6077,"accuracy":0.35496333,"title":"2012+St.+Albert+10-Miler"}
{"id":7001009112,"url":"http://farm6.staticflickr.com/5343/7001009112_01b49b66da.jpg","path":"c1c/f7e/c1cf7eb03066d7eaea366e48298ce17.jpg","date":"2012-05-05","year":2012,"month":5,"lon":-113.40536,"lat":53.556026,"tags":"ab,alberta,bird,canada,canada+goose,canon7d,edmonton,flight,fly,flying,gold+bar+park,goose,robert+antoniuk,sangudo,spread,wings,yeg","S2CellId":"1833000000000000","result":1424,"accuracy":0.008947485,"title":"2012-05-05+Gold+Bar+Park","description":"Can%27t+wait+for+the+babies%21%21%21"}
{"id":4708505340,"url":"http://farm5.staticflickr.com/4068/4708505340_c5ca664b4a.jpg","path":"815/b41/815b418533fc367a5c474c358c7a78f1.jpg","date":"2010-06-16","year":2010,"month":6,"lon":-113.54864,"lat":53.52617,"tags":"%23yeg,birds,canada-goose,chick,edmonton,goose,hawrelak-park","S2CellId":"882ec00000000000","result":8278,"accuracy":0.010460956,"title":"Canadian+Goose"}
{"id":4753827175,"url":"http://farm5.staticflickr.com/4080/4753827175_9e2e5fe481.jpg","path":"6b7/23f/6b723f9f48baeda1b4a13c8ccecc37f.jpg","date":"2010-07-01","year":2010,"month":7,"lon":-113.51036,"lat":53.533127,"tags":"2010,af-s+zoom-nikkor+24-70mm+f%2F2.8g+ed,canada,canada+day,d700,edmonton,fireworks,july+1,night,nikon,o+canada,photo+specs,time,yeg","S2CellId":"53a0224000000000","result":6072,"accuracy":0.06402213,"description":"Canada+Day+Fireworks"}
{"id":2304448421,"url":"http://farm3.staticflickr.com/2272/2304448421_cb58656213.jpg","path":"41d/aa6/41daa65d4e65485aa39a99ecdca82ca0.jpg","date":"2008-03-01","year":2008,"month":3,"lon":-113.49955,"lat":53.542263,"tags":"104+st.,104+street,alberta,canada,construction,construction+crane,crane,downtown,edmonton,tower+crane","S2CellId":"89b7b78500000000","result":8853,"accuracy":0.011466299,"title":"100_0798","description":"Assembling+the+tower+crane+for+ICON+II."}
{"id":26699086,"url":"http://farm1.staticflickr.com/22/26699086_2716c56b2f.jpg","path":"7fd/406/7fd406824c7b25532f0d1cf895c7126.jpg","date":"2005-07-16","year":2005,"month":7,"lon":-113.54694,"lat":53.52924,"tags":"alberta,canada,edmonton,edmonton+flickr+meetup,hawrelak+park,striatic+does+america,striatic+does+canada","S2CellId":"475d000000000000","result":3308,"accuracy":0.040607203,"title":"Arriving","description":"%3Ca+href%3D%22http%3A%2F%2Fwww.flickr.com%2Fphotos%2Fdaisies%2F%22%3E%27daisies%27%3C%2Fa%3E+and+%3Ca+href%3D%22http%3A%2F%2Fwww.flickr.com%2Fphotos%2Fcorriegirl%2F%22%3Ecorriegirl%3C%2Fa%3E"}
{"id":5731350901,"url":"http://farm4.staticflickr.com/3137/5731350901_be7becb690.jpg","path":"c4d/6ec/c4d6ecdf0e4e14e7427fef5d1854ed.jpg","date":"2011-05-17","year":2011,"month":5,"lon":-113.512314,"lat":53.54552,"tags":"grilled+cheese,sandwich","S2CellId":"89d5400000000000","result":9263,"accuracy":0.06915025,"title":"Late+lunch"}
{"id":506994495,"url":"http://farm1.staticflickr.com/219/506994495_c8d0169ad4.jpg","path":"ac5/998/ac59985938a193f94d708d4aa8d1ad8.jpg","date":"2007-05-18","year":2007,"month":5,"lon":-113.517395,"lat":53.547626,"tags":"beans,closeup,coffee,martini,mary%27s+birthday4th+%26+vine","S2CellId":"89d5400000000000","result":9263,"accuracy":0.0068508675,"title":"another+closeup%21"}
{"id":357103042,"url":"http://farm1.staticflickr.com/125/357103042_6afff345a9.jpg","path":"b93/a50/b93a507926dde6cd69e22becfb9cc6d5.jpg","date":"2006-12-28","year":2006,"month":12,"lon":-113.51156,"lat":53.52947,"tags":"snow","S2CellId":"48d6c00000000000","result":5813,"accuracy":0.025257647,"title":"DSC00150"}
{"id":6295871037,"url":"http://farm7.staticflickr.com/6034/6295871037_1ec2ee7e84.jpg","path":"5d8/d80/5d8d803f42adf95dc4674c6b869365.jpg","date":"2011-10-30","year":2011,"month":10,"lon":-113.518135,"lat":53.526733,"tags":"2011,2011%2F10%2F30,7d,ab,adf,alberta,alberta+diabetes+foundation,canada,canon,charity,child,costumes,devil+horns,drive,edmonton,fun,girl,halloween+howl,happy,race,run,sangudo,saskatchewan,saskatchewan+drive,smile,yeg,young","S2CellId":"53a0224000000000","result":6072,"accuracy":0.24737768,"title":"2011+Halloween+Howl"}
{"id":947314035,"url":"http://farm2.staticflickr.com/1077/947314035_d1c9200d92.jpg","path":"476/74d/47674de6a725893a911bfe3bf9663.jpg","date":"2007-07-29","year":2007,"month":7,"lon":-113.382614,"lat":53.702118,"tags":"alberta,canada,canadian+national+railways,cnr,edmflickrmeet,edmonton,flickrmeet,railway,trains","S2CellId":"8839c00000000000","result":8335,"accuracy":0.007701912,"title":"IMG_2705","description":"%3Ca+href%3D%22http%3A%2F%2Frailwaymuseum.ab.ca%2F%22%3EAlberta+Railway+Museum%3C%2Fa%3E"}
{"id":4923876561,"url":"http://farm5.staticflickr.com/4099/4923876561_be3458d35e.jpg","path":"f82/db9/f82db9fc723ff73c7c1f19b26a91623.jpg","date":"2010-08-23","year":2010,"month":8,"lon":-113.491684,"lat":53.51791,"tags":"birthday,britl,celebrity,edmonton,fun,party,readings,the+edmonontonian,unknown+studio,yeg","S2CellId":"0d379c0000000000","result":323,"accuracy":0.012293196,"title":"Celebrity+Reader%3A+Adam+Rozenhart","description":"Reading+%22Ode+to+Spot%22.+A+poem+composed+by+Data%2C+addressed+to+his+pet+cat%2C+Spot."}
{"id":1806713288,"url":"http://farm3.staticflickr.com/2052/1806713288_e41b294151.jpg","path":"883/6e3/8836e39ee44e1650808a32b9f757acd2.jpg","date":"2007-10-30","year":2007,"month":10,"lon":-113.52554,"lat":53.52821,"tags":"alberta,biology,canada,ccis,centennial+centre+for+interdisciplinary+science,chemistry,construction,edmonton,nanotechnology,physics,u+of+a,university+of+alberta","S2CellId":"89b1115000000000","result":8805,"accuracy":0.6285692,"title":"CCIS+Phase+2+Panorama"}
{"id":6169722188,"url":"http://farm7.staticflickr.com/6166/6169722188_fdb3af6ec7.jpg","path":"9a7/ac5/9a7ac597afd260ff692db6aa5c6b466f.jpg","date":"2011-09-21","year":2011,"month":9,"lon":-113.49213,"lat":53.546036,"tags":"britl,dawn,edmonton,edmonton+downtown,epcor,epcor+tower,light,lighting,lighting+up,lights+up,sign,tower,yeg,yegdt","S2CellId":"87b6f00000000000","result":7946,"accuracy":0.04503506,"title":"The+EPCOR+tower"}
{"id":12390505375,"url":"http://farm6.staticflickr.com/5516/12390505375_9e2e194c51.jpg","path":"ece/34c/ece34c663b3746d33357d73f753ea1db.jpg","date":"2014-01-30","year":2014,"month":1,"lon":-113.51853,"lat":53.416126,"tags":"alberta,blackmud,callaghan,canada,coyote,creek,edmonton","S2CellId":"5140000000000000","result":5964,"accuracy":0.04020907,"title":"DSC_0070"}
{"id":528584641,"url":"http://farm1.staticflickr.com/211/528584641_6904b85e34.jpg","path":"915/555/9155558675cf5fdcc1b030b41d927878.jpg","date":"2007-06-03","year":2007,"month":6,"lon":-113.47916,"lat":53.535614,"tags":"alberta,edmonton,photoshop","S2CellId":"53a0224000000000","result":6072,"accuracy":0.30098316,"title":"Muttart+Conservatory","description":"Taken+from+Connors+Road+during+a+nice%2C+warm+June+afternoon."}
{"id":2898072498,"url":"http://farm4.staticflickr.com/3196/2898072498_18637bbb9d.jpg","path":"d86/d99/d86d993d39799dbabfabb2c8cdcf72a.jpg","date":"2008-09-28","year":2008,"month":9,"lon":-113.475296,"lat":53.540066,"tags":"autumn,downtown,edmonton,fall,mastermaq","S2CellId":"4cd5000000000000","result":5934,"accuracy":0.1021419,"title":"Fall+Photowalk+in+Edmonton"}
{"id":3405717671,"url":"http://farm4.staticflickr.com/3567/3405717671_d677839755.jpg","path":"e2d/e25/e2de25cb4ece9bea88a0a93cecf52.jpg","date":"2009-04-01","year":2009,"month":4,"lon":-113.60837,"lat":53.554523,"tags":"canadamoot,canadian+moot+2009,moodle","S2CellId":"88388f4000000000","result":8327,"accuracy":0.08954382,"title":"D3B_1319"}
{"id":6805241209,"url":"http://farm8.staticflickr.com/7017/6805241209_8a185df986.jpg","path":"42d/c4d/42dc4d08669d0b2fba25f275347c96.jpg","date":"2012-01-28","year":2012,"month":1,"lon":-113.590904,"lat":53.30739,"tags":"airports,edmonton,edmonton+international+airport,eia,expansion+2012,mastermaq","S2CellId":"31da110000000000","result":1836,"accuracy":0.015074567,"title":"Expansion+2012","description":"The+new+Edmonton+International+Airport%21"}
{"id":6906517390,"url":"http://farm8.staticflickr.com/7272/6906517390_4277bf5347.jpg","path":"9e1/5e4/9e15e48c222ad24410c8812c838bb3df.jpg","date":"2012-03-29","year":2012,"month":3,"lon":-113.49812,"lat":53.51844,"tags":"104,104th,82,82nd,alberta,avenue,bgc,canada,edmonton,engineering,geology,gord,gordmckenna,inc,march,mckenna,office,street,sunrise","S2CellId":"89b7b7b400000000","result":8869,"accuracy":0.03836373,"title":"BGC+Edmonton+office%2C+Whyte+Avenue+2012","description":"IMG_9290+edit%0A%0AOur+new+BGC+Edmonton+office+is+on+Whyte+Avenue+--+the+old+mainstreet+of+Strathcona+and+a+beautiful+old+street.+I+took+these+photos+walking+from+the+hotel+to+the+office+early+one+March+morning"}
{"id":5611940006,"url":"http://farm6.staticflickr.com/5146/5611940006_c61af6bfc4.jpg","path":"22b/bdd/22bbddab4a5e3c8712a6dbbeb8c273.jpg","date":"2011-04-10","year":2011,"month":4,"lon":-113.49377,"lat":53.540977,"tags":"alberta,canada,d90,edmonton,nikon,tokina+sd+11-16mm+f%2F2.8+%28if%29+dx","S2CellId":"53a0224000000000","result":6072,"accuracy":0.07805511,"title":"First+at+First","description":"Some+last+shots+of+this+beauty+before+she%27s+gone."}
{"id":6024250986,"url":"http://farm7.staticflickr.com/6070/6024250986_f6973e370c.jpg","path":"2b1/47d/2b147d9743cd11e359fe6db392df4ac.jpg","date":"2011-07-27","year":2011,"month":7,"lon":-113.52742,"lat":53.500183,"tags":"alberta,canada,edmonton,edmonton+transit+system,ets,light+rail+transit,lrt","S2CellId":"468e400000000000","result":2974,"accuracy":0.020857802,"title":"DSC_0842"}
{"id":6267582677,"url":"http://farm7.staticflickr.com/6091/6267582677_563a502364.jpg","path":"de7/1fb/de71fbf321a0d59383244ee7d61aa.jpg","date":"2011-09-25","year":2011,"month":9,"lon":-113.418884,"lat":53.52834,"tags":"2011,2011%2F09%2F25,50d,ab,alberta,canada,canon,edmonton,motorcycle,run,sangudo,toy,woman,yeg","S2CellId":"53a022c000000000","result":6073,"accuracy":0.3275426,"title":"2011+Edmonton+Motorcycle+Toy+Run","description":"%3Ca+href%3D%22http%3A%2F%2Fflic.kr%2Fs%2FaHsjsnZsaW%22+rel%3D%22nofollow%22%3ELink+to+2010+Toy+Run%3C%2Fa%3E"}
{"id":407967022,"url":"http://farm1.staticflickr.com/144/407967022_00f9cc6477.jpg","path":"6f1/326/6f1326e158b4d9f89c9bc24841a3de.jpg","date":"2007-03-02","year":2007,"month":3,"lon":-113.525475,"lat":53.5257,"tags":"alberta,canda,edmonton,u+of+a,university,university+of+alberta","S2CellId":"880e290000000000","result":8109,"accuracy":0.038978133,"title":"IMG_4513"}
{"id":4052269250,"url":"http://farm3.staticflickr.com/2512/4052269250_f17bea41b6.jpg","path":"40d/4e7/40d4e72a36ae2db0285ce274625ef6.jpg","date":"2009-10-26","year":2009,"month":10,"lon":-113.53619,"lat":53.541786,"tags":"124+st,alberta,edmonton,inthreedimensions,night,oliver","S2CellId":"35b2707000000000","result":2342,"accuracy":0.0024397646,"title":"_K208811+%5B1024x768%5D"}
{"id":5440975820,"url":"http://farm6.staticflickr.com/5176/5440975820_fc53865853.jpg","path":"b55/5b5/b555b5174ccc92b3e16e5f0d513cb4c.jpg","date":"2011-02-12","year":2011,"month":2,"lon":-113.47907,"lat":53.53541,"tags":"alberta,bloom,botanical,canada,edmonton,exotic,flower,green,macro,muttart+conservatory,orchid,plant,tropical","S2CellId":"89c2f34000000000","result":9103,"accuracy":0.02154733,"title":"Muttart+IV"}
{"id":2073241080,"url":"http://farm3.staticflickr.com/2330/2073241080_c06407c4a9.jpg","path":"51b/4ab/51b4ab725f66e9dde118b461cced6d39.jpg","date":"2007-11-02","year":2007,"month":11,"lon":-113.49373,"lat":53.53856,"tags":"2007,edmonton,friday,night","S2CellId":"47b9500000000000","result":4066,"accuracy":0.12652291,"title":"20071102_Jess_0007","description":"Pedro+is+so+the+perfect+guest+for+any+occasion"}
{"id":5621799051,"url":"http://farm6.staticflickr.com/5228/5621799051_23b9920bf0.jpg","path":"cba/fd4/cbafd4575b6e66aceef6e842b77ba0.jpg","date":"2010-04-10","year":2010,"month":4,"lon":-113.626335,"lat":53.522743,"tags":"2011,alberta,edmonton,mall,sea+life+caverns,submarine,wem,west+edmonton+mall","S2CellId":"865c590000000000","result":7661,"accuracy":0.13997409,"title":"Where+old+submarines+go+to+die+%7C+West+Edmonton+Mall"}
{"id":1448344391,"url":"http://farm2.staticflickr.com/1060/1448344391_bc3400e6ed.jpg","path":"ed9/28b/ed928b88b2a8ddd854b69b239891af2e.jpg","date":"2007-09-21","year":2007,"month":9,"lon":-113.39134,"lat":53.55424,"tags":"2007,light+the+night","S2CellId":"5371740000000000","result":6053,"accuracy":0.032729033,"title":"20070921_LightNight_0015"}
{"id":5823024194,"url":"http://farm6.staticflickr.com/5309/5823024194_762e18c7f9.jpg","path":"76f/2ca/76f2ca8f59e27a962f7d456e2845303a.jpg","date":"2011-06-11","year":2011,"month":6,"lon":-113.4995,"lat":53.542934,"tags":"104+street,al+fresco,britl,city,city+center,city+centre,city+market,downtown,edmonton,farmers+market,market,yeg","S2CellId":"89c259b400000000","result":9036,"accuracy":0.0806579,"title":"Market"}
{"id":8046087117,"url":"http://farm9.staticflickr.com/8029/8046087117_bc3983bc74.jpg","path":"a23/f41/a23f419939fa506cf63e830e975e8.jpg","date":"2012-09-30","year":2012,"month":9,"lon":-113.47345,"lat":53.551285,"tags":"2012,2012%2F09%2F30,ab,aka%3A+sangudo,alberta,canada,canon70200f2.8l,canon7d,cibc+run+for+the+cure,edmonton,jasper+avenue,photographer%3A+robert+antoniuk,run,woman,yeg","S2CellId":"89b7b79f00000000","result":8863,"accuracy":0.2548371,"title":"2012+CIBC+Run+for+the+Cure","description":"Took+pictures+at+the+2012+CIBC+Run+for+the+Cure+in+Edmonton%2C+Alberta%2C+Canada.++I+was+hoping+to+get+pics+of+all+the+costumes+but+the+crush+of+people+made+it+very+difficult."}
{"id":3451088937,"url":"http://farm4.staticflickr.com/3629/3451088937_fc2c4823f9.jpg","path":"ee8/07b/ee807b4e7cac290b97443279d6fa99.jpg","date":"2009-04-10","year":2009,"month":4,"lon":-113.49545,"lat":53.541386,"tags":"af-s+nikkor+18-55mm+f%2F3.5-5.6g+ed,alberta,d40,downtown,edmonton,enterprise+square,nikon,the+bay","S2CellId":"54906ab500000000","result":6213,"accuracy":0.026723027,"title":"Enterprise+Square","description":"Former+Hudson%27s+Bay+Building%2C+Former+A-Channel+Studios%2C+now+%22Enterprise+Square%22+Interesting+mixed+use+facility+administered+by+the+University+of+Alberta"}
{"id":4908772418,"url":"http://farm5.staticflickr.com/4114/4908772418_3f307aeed6.jpg","path":"e37/626/e3762646c53e69608f947fc1cf8af0f.jpg","date":"2010-08-14","year":2010,"month":8,"lon":-113.51424,"lat":53.546543,"tags":"britl,edmonton,macewan,yeg","S2CellId":"5304000000000000","result":6019,"accuracy":0.029945258}
{"id":8635069344,"url":"http://farm9.staticflickr.com/8252/8635069344_e33a58d290.jpg","path":"e2e/0c9/e2e0c9c3b3e2d5898f7f1d62d28be47.jpg","date":"2013-04-06","year":2013,"month":4,"lon":-113.489845,"lat":53.543915,"tags":"2013,2013%2F04%2F06,ab,aka%3A+sangudo,alberta,canada,canon1d-x,canon70200f2.8l,churchill+square,edmonton,event,fun,international+pillow+fight+day,photographer%3A+robert+antoniuk,yeg","S2CellId":"89b7b79b00000000","result":8861,"accuracy":0.037161633,"title":"2013-04-06+International+Pillow+Fight+Day"}
{"id":627283559,"url":"http://farm2.staticflickr.com/1251/627283559_af8480833f.jpg","path":"7b3/d86/7b3d86fb5352684ffbac1ee635f75cf.jpg","date":"2007-06-23","year":2007,"month":6,"lon":-113.63062,"lat":53.630684,"tags":"2007,mayor%27s+walk+for+charity,st.+albert","S2CellId":"5490430000000000","result":6199,"accuracy":0.33027342,"title":"20070623_MayorWalk_0003"}
{"id":1316262298,"url":"http://farm2.staticflickr.com/1042/1316262298_b29c88f917.jpg","path":"5ef/cce/5efcce0bc93515ade31f5d73c2a88.jpg","date":"2007-09-03","year":2007,"month":9,"lon":-113.55503,"lat":53.51204,"tags":"alba,barn,owl,parafb,tyto","S2CellId":"88d9300000000000","result":8584,"accuracy":0.012227306,"title":"Barn+Owl","description":"%28Tyto+alba%29+at+Valley+Zoo+Edmonton%2C+AB"}
{"id":2081589025,"url":"http://farm3.staticflickr.com/2093/2081589025_01625d5ed8.jpg","path":"521/8dc/5218dcd5b5fa677f29b989c5ec1ea560.jpg","date":"2007-11-23","year":2007,"month":11,"lon":-113.52554,"lat":53.52821,"tags":"alberta,biology,canada,ccis,centennial+centre+for+interdisciplinary+science,chemistry,construction,edmonton,nanotechnology,physics,u+of+a,university+of+alberta","S2CellId":"4d5c000000000000","result":5955,"accuracy":0.021585226,"title":"Rebar"}
{"id":6227023293,"url":"http://farm7.staticflickr.com/6057/6227023293_0b61946457.jpg","path":"26d/b6b/26db6beeddcb42d11b616e61f682fbb.jpg","date":"2011-10-07","year":2011,"month":10,"lon":-113.51173,"lat":53.52314,"tags":"%23yeg,2011,flickrmeet,october,ouch,screwed,zombie,zombiewalk","S2CellId":"00a6990000000000","result":54,"accuracy":0.07499207,"title":"screwed+2"}
{"id":1564321384,"url":"http://farm3.staticflickr.com/2146/1564321384_745136bbab.jpg","path":"fbb/c71/fbbc71b48c75a3992815f886e94d9e96.jpg","date":"2007-10-13","year":2007,"month":10,"lon":-113.527596,"lat":53.507095,"tags":"alberta,canada,construction,edmonton,light+rail,lrt,slrt,transit","S2CellId":"4692040000000000","result":2979,"accuracy":0.067250505,"title":"IMG_3353","description":"Looking+south+from+the+top+of+the+portal+of+the+Belgravia+Road+underpass."}
{"id":4963611396,"url":"http://farm5.staticflickr.com/4128/4963611396_6eef0d450d.jpg","path":"94a/a19/94aa19da307d63bc83351099a2e1e012.jpg","date":"2010-09-05","year":2010,"month":9,"lon":-113.32929,"lat":53.864826,"tags":"adventures+in+alberta,alberta,blue+sky,dinosaurs,forest,jurassic,jurassic+forest","S2CellId":"1ed0000000000000","result":1478,"accuracy":0.07406548,"title":"A+Cera%21","description":"Not+Micheal."}
{"id":5212641563,"url":"http://farm5.staticflickr.com/4128/5212641563_58618aa36e.jpg","path":"2d0/d96/2d0d96c6933c8dc323a11752953acf.jpg","date":"2010-11-27","year":2010,"month":11,"lon":-113.48929,"lat":53.543655,"tags":"churchill+square,downtown,edmonton,festivals,grey+cup,hot+to+huddle,huddle+town,mastermaq","S2CellId":"6d318a3000000000","result":6816,"accuracy":0.07279473,"title":"2010+Grey+Cup+Festival"}
{"id":6317672638,"url":"http://farm7.staticflickr.com/6099/6317672638_402f621acc.jpg","path":"7e2/505/7e250513c9f3873643e9a2d83221ca.jpg","date":"2011-10-16","year":2011,"month":10,"lon":-113.44205,"lat":53.560448,"tags":"10+mile,2011,28th+annual,5+mile,7d,ab,ada+blvd,ada+boulevard,alberta,athletes,canada,canon,canon70200f2.8l,competition,edmonton,fall+classic,headphones,jog,race,run,sangudo,spandex,sunglasses,walk,woman,yeg","S2CellId":"53a022c000000000","result":6073,"accuracy":0.9409806,"title":"2011+Fall+Classic"}
{"id":4906416155,"url":"http://farm5.staticflickr.com/4096/4906416155_2e0944fbba.jpg","path":"ee1/f31/ee1f3141d428f18ceef2b0ff3575b.jpg","date":"2010-08-15","year":2010,"month":8,"lon":-113.58241,"lat":53.501583,"tags":"1885,fort+edmonton+park,mark+hill,staff","S2CellId":"472c000000000000","result":3253,"accuracy":0.23444413,"title":"Lori","description":"looking+up+from+the+campfire"}
{"id":6317835136,"url":"http://farm7.staticflickr.com/6107/6317835136_8f73890d21.jpg","path":"925/5e0/9255e03fb3cbda1f569d7ea84b64c18.jpg","date":"2011-10-16","year":2011,"month":10,"lon":-113.44205,"lat":53.560448,"tags":"10+mile,2011,28th+annual,5+mile,7d,ab,ada+blvd,ada+boulevard,alberta,athletes,brunette,canada,canon,canon70200f2.8l,competition,edmonton,fall+classic,fit,gloves,jog,ponytail,pretty,race,run,sangudo,walk,woman,yeg","S2CellId":"53a022c000000000","result":6073,"accuracy":0.7941011,"title":"2011+Fall+Classic"}
{"id":2664745574,"url":"http://farm4.staticflickr.com/3280/2664745574_e2053351ca.jpg","path":"8f9/02d/8f902d9c6a77794ecf18ef2c36f5c517.jpg","date":"2008-07-13","year":2008,"month":7,"lon":-113.59447,"lat":53.483578,"tags":"edmonton,sherwood411,tiger,zoo","S2CellId":"89b7c84000000000","result":8896,"accuracy":0.072792344,"title":"Tiger"}
{"id":3571643127,"url":"http://farm4.staticflickr.com/3635/3571643127_e7b2ba31c4.jpg","path":"644/7e5/6447e5b064df2bddeaca493d72dfa9ec.jpg","date":"2009-05-23","year":2009,"month":5,"lon":-113.521645,"lat":53.54347,"tags":"derive,tree","S2CellId":"87c7000000000000","result":7980,"accuracy":0.024959782,"title":"Tree+growth","description":"I%27m+told+this+could+be+an+insect+nest+of+some+sort."}
{"id":2221767283,"url":"http://farm3.staticflickr.com/2402/2221767283_889711d14d.jpg","path":"7ea/6f8/7ea6f85457cb3ab965f5b63298dc95e.jpg","date":"2008-01-26","year":2008,"month":1,"lon":-113.51074,"lat":53.553364,"tags":"%DA%AF%D8%B4%D8%AA%D9%85+%D9%86%D8%A8%D9%88%D8%AF+%D9%86%DA%AF%D8%B1%D8%AF+%D9%86%DB%8C%D8%B3%D8%AA,agamid+lizard,bearded+dragon,canada,dragon,edmonton,explore,fear,i+call+this+beauty,lizard,pet,pet+expo,zoo","S2CellId":"4799c54000000000","result":3786,"accuracy":0.042629305,"title":"%22I+call+this+Beauty+%288%29%22","description":"Agamid+lizard..commonly+known+as+Bearded+Dragon"}
{"id":4067698686,"url":"http://farm3.staticflickr.com/2440/4067698686_b3b94e80f7.jpg","path":"112/bf1/112bf1e43670b0f032353e04bed2d5.jpg","date":"2009-10-31","year":2009,"month":10,"lon":-113.51298,"lat":53.526985,"tags":"af-s+nikkor+35mm+f%2F1.8g,alberta,canada,condo,d90,dudley+r.+menzies+bridge,edmonton,high+level+bridge,nikon,north+sakatchewan+river,oliver,river+valley+road,tower","S2CellId":"53a0224000000000","result":6072,"accuracy":0.38853136,"title":"Oliver","description":"Halloween+dusk."}
{"id":4750263446,"url":"http://farm5.staticflickr.com/4093/4750263446_f92c24a597.jpg","path":"7d0/80e/7d080ebabc465ef70dc95dafcfb95ac.jpg","date":"2010-06-27","year":2010,"month":6,"lon":-113.55089,"lat":53.509193,"tags":"2010,2010+tail+blazers+5k,50d,alberta,canada,canon,canon70200f2.8l,dogs,edmonton,festival,jog,pets,pets+in+the+park,race,running,sir+wilfrid+laurier+park","S2CellId":"88d0a631cabb5071","result":8563,"accuracy":0.4726023,"title":"2010+Tail+Blazers+5K"}
{"id":7230867546,"url":"http://farm9.staticflickr.com/8166/7230867546_06f9d68d57.jpg","path":"e81/e54/e81e546c464ad5e5ca3af4026749ea1.jpg","date":"2012-05-13","year":2012,"month":5,"lon":-113.55882,"lat":53.503567,"tags":"17th+annual,2012,2012%2F05%2F13,ab,alberta,canada,canon70200f2.8l,canon7d,child,edmonton,event,fundraising,girl,mdfw,robert+antoniuk,sport+chek+mother%27s+day+run+and+walk,stollery+children%27s+hospital+foundation,stroller,yeg","S2CellId":"8646c00000000000","result":7602,"accuracy":0.04618908,"title":"2012-05-13+Mother%27s+Day+Walk+and+Run"}
{"id":4316026753,"url":"http://farm3.staticflickr.com/2680/4316026753_a6e93127fe.jpg","path":"6ec/bd7/6ecbd7aeffa453382f709e862af489ff.jpg","date":"2010-01-30","year":2010,"month":1,"lon":-113.4889,"lat":53.544872,"tags":"aga,art,art+gallery+of+alberta,buildings,ceremonies,edmonton,mastermaq,ribbon+cutting","S2CellId":"52b3329000000000","result":5984,"accuracy":0.02206395,"title":"The+Honourable+Lindsay+Blackett"}
{"id":6043885587,"url":"http://farm7.staticflickr.com/6070/6043885587_fb5005d484.jpg","path":"63d/948/63d9481b788c15dec7bbf16af36eb7.jpg","date":"2011-08-06","year":2011,"month":8,"lon":-113.50688,"lat":53.542652,"tags":"2011,27th+annual,50d,ab,alberta,booty,butt,canada,canon,caribbean,cariwest+festival,dance,edmonton,festival,flickr,grind,man,picnik,shaking,shorts,spandex,woman","S2CellId":"47edc00000000000","result":4703,"accuracy":0.16519554,"title":"2011+Cariwest+Parade","description":"I+had+to+post+this.++Quite+the+contrast+between+butt+shots.++Somebody+must+be+hoarding+supplies+for+winter..."}
{"id":8333624443,"url":"http://farm9.staticflickr.com/8357/8333624443_f02c6979c8.jpg","path":"1d0/9ce/1d09ce95a3b2f3430db423e7fcc6618.jpg","date":"2013-01-01","year":2013,"month":1,"lon":-113.460655,"lat":53.53761,"tags":"af+nikkor+50mm+f%2F1.8d,alberta,canada,d800,edmonton,nikon","S2CellId":"53a0224000000000","result":6072,"accuracy":0.4441716,"title":"NYE+Skyline+2012"}
{"id":369572243,"url":"http://farm1.staticflickr.com/157/369572243_096923b131.jpg","path":"d3c/447/d3c4473f251f1b7222b3ad0f5abfb61.jpg","date":"2006-04-23","year":2006,"month":4,"lon":-113.55387,"lat":53.512066,"tags":"april+22-23%2C+2006,edmonton,valley+zoo,weekenders","S2CellId":"89c8037000000000","result":9187,"accuracy":0.011200774,"title":"Monkey+Around","description":"A+little+anniversary+getaway+to+Edmonton.%0A%0ANot+as+impressive+as+the+Calgary+Zoo%2C+but+the+Valley+Zoo+in+Edmonton+is+a+surprisingly+peaceful%2C+good+time.%0A%0AThese+3+put+on+quite+the+show+with+their+antics%21"}
{"id":5480450233,"url":"http://farm6.staticflickr.com/5058/5480450233_3140e3f5da.jpg","path":"f39/49a/f3949ac129201bff7ec0123cb63f141a.jpg","date":"2011-02-26","year":2011,"month":2,"lon":-113.52868,"lat":53.540817,"tags":"120+street,alberta,canada,condo,construction,edmonton,jasper+avenue,the+pearl","S2CellId":"89c25a1b00000000","result":9050,"accuracy":0.12183275,"title":"The+Pearl+2011-02-26"}
{"id":3476963937,"url":"http://farm4.staticflickr.com/3348/3476963937_61fcc841d1.jpg","path":"461/e55/461e551f29e225204eade74d6f8fb3ea.jpg","date":"2009-04-21","year":2009,"month":4,"lon":-113.49915,"lat":53.54383,"tags":"af-s+nikkor+18-55mm+f%2F3.5-5.6g+ed,alberta,d40,edmonton,heritage,historic+building,nikon","S2CellId":"89c2599d00000000","result":9023,"accuracy":0.025521563,"title":"Canada+Consolidated+Rubber+Building"}
{"id":6193147975,"url":"http://farm7.staticflickr.com/6026/6193147975_10103281fc.jpg","path":"486/2ee/4862eeb8ddd7f69be1ad339a2f09e81.jpg","date":"2011-09-27","year":2011,"month":9,"lon":-113.49302,"lat":53.547127,"tags":"alberta,canada,d90,edmonton,nikon,tokina+sd+11-16mm+f%2F2.8+%28if%29+dx","S2CellId":"47c4337000000000","result":4254,"accuracy":0.04817881,"title":"East+Elevator+Banks","description":"Epcor+Tower+Grand+Opening"}
{"id":3777362503,"url":"http://farm3.staticflickr.com/2468/3777362503_ef5334bfcd.jpg","path":"053/803/053803e1fb40cd584658d2469ca562.jpg","date":"2009-07-31","year":2009,"month":7,"lon":-113.62421,"lat":53.522144,"tags":"denis+wedding,west+edmonton+mall","S2CellId":"4876054400000000","result":5265,"accuracy":0.016962726,"title":"West+Edmonton+Mall","description":"West+Edmonton+Mall"}
{"id":12413339264,"url":"http://farm8.staticflickr.com/7300/12413339264_fe68736cf0.jpg","path":"45b/1da/45b1dadda39b64dc7d9aa28f574e78a.jpg","date":"2014-02-08","year":2014,"month":2,"lon":-113.51853,"lat":53.416126,"tags":"alberta,blackmud,callaghan,canada,coyote,creek,edmonton","S2CellId":"4652c00000000000","result":2868,"accuracy":0.029748676,"title":"DSC_0301"}
{"id":12850575,"url":"http://farm1.staticflickr.com/10/12850575_8061771342.jpg","path":"76d/575/76d575722a871a97676f42b9fe2385d3.jpg","date":"2005-05-07","year":2005,"month":5,"lon":-113.543304,"lat":53.517567,"tags":"animals,casey,dogs,north,outdoors,park,pets,river,saskatchewan","S2CellId":"54c7000000000000","result":6307,"accuracy":0.014346368,"title":"Playing+in+the+River","description":"Casey+snooping+around+the+shallows+of+the+North+Saskatchewan+river."}
{"id":8034148264,"url":"http://farm9.staticflickr.com/8035/8034148264_c1d745e6be.jpg","path":"482/1b3/4821b3851da718dfe2f9dc1b8d3dbb53.jpg","date":"2012-09-23","year":2012,"month":9,"lon":-113.470856,"lat":53.550354,"tags":"10k,2012,2012%2F09%2F23,ab,aka%3A+sangudo,alberta,canada,canon7d,charity,competition,edmonton,fall,man,photographer%3A+robert+antoniuk,run,sport,yeg","S2CellId":"53a022c000000000","result":6073,"accuracy":0.58806837,"title":"2012+Heartbeat+Run","description":"Rented+Canon%27s+400mm+f%2F2.8+lens+on+the+weekend+and+practiced+on+the+Heartbeat+Run."}
{"id":4078899639,"url":"http://farm3.staticflickr.com/2739/4078899639_12f23af883.jpg","path":"fcc/fe4/fccfe476031b3ee5a681da80f7bff7.jpg","date":"2009-07-21","year":2009,"month":7,"lon":-113.5473,"lat":53.513214,"tags":"alberta,canada,edmonton,jmr64,valley+zoo,white","S2CellId":"88f5b00000000000","result":8731,"accuracy":0.033363953,"title":"Llama"}
{"id":5557451183,"url":"http://farm6.staticflickr.com/5110/5557451183_7e3a5d1e52.jpg","path":"117/654/1176548a921235380ebe4707de56287.jpg","date":"2011-03-24","year":2011,"month":3,"lon":-113.50211,"lat":53.54129,"tags":"britl,edmonton,edmonton+public+school,edmonton+public+school+board,edmonton+public+schools,edmonton+public+schools+foundation,edmonton+twestival,education,epsb,epsf,festival,fundraiser,league+of+extraordinary+media,lxm,support,tweet,tweeter,tweeters,twestival,twitter,twitter+festival,yeg,yegedu","S2CellId":"465f9d7000000000","result":2928,"accuracy":0.0058861705,"title":"Silent+Auction+sheet"}
{"id":5887121948,"url":"http://farm6.staticflickr.com/5313/5887121948_beab13d2ff.jpg","path":"a67/fea/a67feaf8503ccb23368d4d80c3a056f3.jpg","date":"2011-06-18","year":2011,"month":6,"lon":-113.530136,"lat":53.530846,"tags":"10k,2011,50d,5k+walk,ab,alberta,canada,canon,canon70200f2.8l,edmonton,high,knee,panties,run+fun+costumes+underwear+2011%2F06%2F18,sangudo,socks,the+underwear+affair,tights,tube,woman","S2CellId":"53a0224000000000","result":6072,"accuracy":0.43917292,"title":"2011+Underwear+Affair"}
{"id":2196750368,"url":"http://farm3.staticflickr.com/2166/2196750368_2a42385405.jpg","path":"f74/9a3/f749a364fb2b1cff340602ee08d1edd.jpg","date":"2007-12-24","year":2007,"month":12,"lon":-113.48033,"lat":53.095978,"tags":"christmas","S2CellId":"5363000000000000","result":6042,"accuracy":0.019978045,"title":"20071224_Xmas_0015"}
{"id":12390149463,"url":"http://farm8.staticflickr.com/7308/12390149463_bc43ce63df.jpg","path":"81f/322/81f322469617719c8c95f249bb9a536.jpg","date":"2014-01-30","year":2014,"month":1,"lon":-113.51853,"lat":53.416126,"tags":"alberta,blackmud,callaghan,canada,coyote,creek,edmonton","S2CellId":"89e6d00000000000","result":9384,"accuracy":0.025144137,"title":"DSC_0177"}
{"id":2108606617,"url":"http://farm3.staticflickr.com/2024/2108606617_1a46eb8738.jpg","path":"966/e1a/966e1abd2b19c7a115cf2b2a199e53f.jpg","date":"2004-08-22","year":2004,"month":8,"lon":-113.6265,"lat":53.523613,"tags":"2004,alberta,august,black,edmonton,west+edmonton+mall,white","S2CellId":"883b500000000000","result":8352,"accuracy":0.024803737,"title":"dsc03115"}
{"id":6403333279,"url":"http://farm8.staticflickr.com/7149/6403333279_87cae273d2.jpg","path":"42c/e74/42ce74a87cdab4ede62bb6994322b5.jpg","date":"2011-11-25","year":2011,"month":11,"lon":-113.4995,"lat":53.540894,"tags":"104+street,104+underground,bay%2Fenterprise+square,edmonton,events,lrt,mastermaq,mercury+opera,opera","S2CellId":"0d379c0000000000","result":323,"accuracy":0.047292884,"title":"Mercury+Opera%27s+104+Underground"}
{"id":8339969351,"url":"http://farm9.staticflickr.com/8076/8339969351_3c54302d32.jpg","path":"ec6/8d9/ec68d934fc56b19f1c0d220e1b829c4.jpg","date":"2012-05-05","year":2012,"month":5,"lon":-113.64652,"lat":53.61084,"tags":"dinners,enjoy+centre,food,gala,slow+food","S2CellId":"3442abdc00000000","result":2080,"accuracy":0.007108948,"title":"Slow+Food+Gala+2012","description":"Roots%2C+Shoots+%26+Garden+Boots"}
{"id":4877815233,"url":"http://farm5.staticflickr.com/4082/4877815233_f4462130d1.jpg","path":"9a7/666/9a766646b16dd451b6ab9843d8aba228.jpg","date":"2010-08-08","year":2010,"month":8,"lon":-113.48804,"lat":53.49597,"tags":"bbq,beer,edmonton,events,food,mastermaq,slow+food,slow+food+edmonton,wild+boar","S2CellId":"548ff00000000000","result":6177,"accuracy":0.01741647,"title":"Wild+Boar+%26+Beer+BBQ+2010"}
{"id":2408424423,"url":"http://farm3.staticflickr.com/2319/2408424423_421c979efc.jpg","path":"637/62a/63762aabf97287968714b5c3bdceae3.jpg","date":"2008-03-31","year":2008,"month":3,"lon":-113.48907,"lat":53.540154,"tags":"alberta,architecture,canada,edmonton,fairmont,gord,gordmckenna,hotel,hotel+macdonald,inn,mckenna,north,prairie,railway,river,saskatchewan","S2CellId":"35f0529000000000","result":2368,"accuracy":0.0357304,"title":"Hotel+MacDonald%2C+Edmonton+2008","description":"The+Fairmont+Hotel+Macdonald+is+my+favourite+place+to+stay.+The+light+this+March+morning+was+particularly+nice."}
{"id":5714759510,"url":"http://farm4.staticflickr.com/3366/5714759510_133f91567e.jpg","path":"504/782/5047824778c127317c4c6d59c32b9ac0.jpg","date":"2008-08-02","year":2008,"month":8,"lon":-113.49027,"lat":53.54111,"tags":"downtown,edmonton,urban","S2CellId":"89b1111000000000","result":8803,"accuracy":0.0338633,"title":"Urban+Edmonton+2008"}
{"id":8065912470,"url":"http://farm9.staticflickr.com/8172/8065912470_60b22993a8.jpg","path":"a3c/b4f/a3cb4f2483d877ee64d07c503dbac939.jpg","date":"2012-09-30","year":2012,"month":9,"lon":-113.54074,"lat":53.540714,"tags":"2012,2012%2F09%2F30,630+ched%27s+santas+anonymous,ab,aka%3A+sangudo,alberta,alberta+safety+council,canada,canon70200f2.8l,canon7d,charity,edmonton,government+house+park,groat+road,motorcycle,motorcycle+toy+run,photographer%3A+robert+antoniuk,yeg","S2CellId":"87d8b2c000000000","result":8003,"accuracy":0.08926619,"title":"2012+Motorcycle+Toy+Run","description":"The+annual+Motorcycle+Toy+Run+hosted+by+the+Alberta+Safety+Council+to+support+630+CHED%27S+Santas+Anonymous+campaign.++Held+on+2012%2F09%2F30+in+Edmonton%2C+Alberta%2C+Canada."}
{"id":2849694482,"url":"http://farm4.staticflickr.com/3089/2849694482_18f81ba866.jpg","path":"959/cd2/959cd2968d6493de6047d49a7534fe69.jpg","date":"2008-09-11","year":2008,"month":9,"lon":-113.48982,"lat":53.544285,"tags":"24c,airme,alberta,canada,edmonton,iphone,mostly+sunny,sir+winston+churchill+square,weatherbug","S2CellId":"809ad10000000000","result":7121,"accuracy":0.092454985,"title":"Sir+Winston+Churchill+Square%2C+11-Sep-08","description":"Uploaded+with+%3Ca+href%3D%22http%3A%2F%2Fwww.airme.com%2F%22%3EAirMe%3C%2Fa%3E"}
{"id":540257071,"url":"http://farm2.staticflickr.com/1016/540257071_2913ff5569.jpg","path":"968/fb8/968fb81c61e407b9f755840c7d4e61.jpg","date":"2007-06-09","year":2007,"month":6,"lon":-113.85996,"lat":53.67132,"tags":"2007,villeneuve+airport","S2CellId":"80ac000000000000","result":7132,"accuracy":0.10608839,"title":"20070609_Villeneuve_0010"}
{"id":4060225188,"url":"http://farm4.staticflickr.com/3531/4060225188_68afe93f2c.jpg","path":"5c8/1ab/5c81abc0fa8c4ec6de0413b0fcb0b4.jpg","date":"2008-03-14","year":2008,"month":3,"lon":-113.58123,"lat":53.50151,"tags":"alberta,brentmas,edmonton,fort,fort+edmonton+park,night,sepia,snow","S2CellId":"466d300000000000","result":2943,"accuracy":0.011878741,"title":"Fort+Edmonton+Park+at+night"}
{"id":5327740343,"url":"http://farm6.staticflickr.com/5287/5327740343_1bcfa82aae.jpg","path":"4df/8d9/4df8d92198b938d615f4e3b9a9a848f.jpg","date":"2010-12-14","year":2010,"month":12,"lon":-113.49812,"lat":53.54347,"tags":"alberta,canada","S2CellId":"60188b9000000000","result":6478,"accuracy":0.00665602,"title":"Spaghetti+%40+the+Old+Spaghetti+Factory"}
{"id":3901505059,"url":"http://farm4.staticflickr.com/3511/3901505059_e80fbd7605.jpg","path":"12a/7e5/12a7e5bb9f46f472117f2e68ed9b8c.jpg","date":"2009-09-07","year":2009,"month":9,"lon":-113.48337,"lat":53.582478,"tags":"alberta,bug,close-up,insects,macro,micro,systemlayers","S2CellId":"465a400000000000","result":2886,"accuracy":0.1848402}
{"id":5219653585,"url":"http://farm6.staticflickr.com/5130/5219653585_ff7fc05324.jpg","path":"427/11f/42711fbf4d12f8562fbc7ea02fb7d.jpg","date":"2010-11-29","year":2010,"month":11,"lon":-113.512505,"lat":53.52314,"tags":"cupcakes,edmonton,mastermaq,mocupcake,mocupcakeyeg,movember,transcend+garneau","S2CellId":"47e61d1ec0000000","result":4564,"accuracy":0.018636972,"title":"MoCupcakeYEG"}
{"id":10850163,"url":"http://farm1.staticflickr.com/6/10850163_7ccf9595b4.jpg","path":"92c/eb7/92ceb7e86dafae757afd4b8f845aa62c.jpg","date":"2005-04-23","year":2005,"month":4,"lon":-113.55764,"lat":53.549217,"tags":"2005,andy,cat,closeup,kitten,kittens,outside,pet","S2CellId":"4769400000000000","result":3319,"accuracy":0.014727772,"title":"Andy","description":"Andy+doing+his+%22Tiger+in+the+grass%22+thing...+taken+about+2+seconds+before+he+attacked+the+lanyard+on+the+side+of+the+camera."}
{"id":415226472,"url":"http://farm1.staticflickr.com/172/415226472_9dd8274937.jpg","path":"8f3/7ed/8f37ed17e9417bbc1db021c81576bd81.jpg","date":"2007-03-05","year":2007,"month":3,"lon":-113.5052,"lat":53.516354,"tags":"cat","S2CellId":"8814b00000000000","result":8185,"accuracy":0.016138006,"title":"DSC01019","description":"listen"}
{"id":3918640056,"url":"http://farm3.staticflickr.com/2667/3918640056_bfbda5139f.jpg","path":"11a/cce/11accea23ec294736e60d63afe934f5.jpg","date":"2009-09-13","year":2009,"month":9,"lon":-113.49099,"lat":53.54118,"tags":"af-s+nikkor+70-300mm+f%2F4.5-5.6g+ed+vr,alberta,canada,d40,edmonton,hop%27s+handbags,jasper+avenue,nikon","S2CellId":"1319e40000000000","result":981,"accuracy":0.02680883,"title":"Pillar+Detail%2C+Hop%27s+Handbags"}
{"id":6206332191,"url":"http://farm7.staticflickr.com/6167/6206332191_e12ea81039.jpg","path":"134/9aa/1349aafb258382cda38c737f35f4a1ce.jpg","date":"2011-10-02","year":2011,"month":10,"lon":-113.59232,"lat":53.498,"tags":"bridges,edmonton,fort+edmonton+footbridge,mastermaq","S2CellId":"4d5c000000000000","result":5955,"accuracy":0.2517191,"title":"Fort+Edmonton+Footbridge"}
{"id":473100351,"url":"http://farm1.staticflickr.com/192/473100351_89eb5feb1b.jpg","path":"83b/0ef/83b0ef1c7903edf33bb8a51b597dff.jpg","date":"2007-04-25","year":2007,"month":4,"lon":-113.48222,"lat":53.530552,"tags":"abigfave,algae,bubble,creek,unusual+views+%26+perspectives,water,yellow","S2CellId":"7952400000000000","result":6862,"accuracy":0.014363892,"title":"Creek+Congestion"}
{"id":4953110628,"url":"http://farm5.staticflickr.com/4130/4953110628_400d6ed0da.jpg","path":"d39/35d/d3935d4ecf2478fb48d91fd6c95ceb33.jpg","date":"2010-08-31","year":2010,"month":8,"lon":-113.509415,"lat":53.52903,"tags":"tennis","S2CellId":"6b12d00000000000","result":6707,"accuracy":0.1533586,"title":"Owen%3A+Tennis"}
{"id":5003475986,"url":"http://farm5.staticflickr.com/4111/5003475986_d84dffe174.jpg","path":"d06/ed6/d06ed6f1c9b78a5f79dfc28f3a471ef.jpg","date":"2010-05-23","year":2010,"month":5,"lon":-113.6325,"lat":53.631832,"tags":"3gs,corgy,iphone,puppy,sherwood411","S2CellId":"87e5000000000000","result":8030,"accuracy":0.06975522,"title":"IMG_0758"}
{"id":2281137964,"url":"http://farm3.staticflickr.com/2032/2281137964_771209f25c.jpg","path":"e66/fd8/e66fd8a5c2767f2f08d49b33b4555f.jpg","date":"2008-01-23","year":2008,"month":1,"lon":-113.49703,"lat":53.521572,"tags":"alberta,canada,edmonton,ice,ice+on+whyte,ice+sculpure,night,sculpture","S2CellId":"4cb8950000000000","result":5865,"accuracy":0.017745817,"title":"100_0653"}
{"id":4829658746,"url":"http://farm5.staticflickr.com/4074/4829658746_0cc78ddbab.jpg","path":"733/0cf/7330cf1955fca380444164d6186cbc37.jpg","date":"2010-07-21","year":2010,"month":7,"lon":-113.47613,"lat":53.55998,"tags":"edmonton,fc+edmonton,mastermaq,portsmouth+fc,soccer,sports","S2CellId":"48761b7000000000","result":5331,"accuracy":0.16397661,"title":"FC+Edmonton"}
{"id":5270777751,"url":"http://farm6.staticflickr.com/5283/5270777751_74e7374aa8.jpg","path":"162/550/162550bfaaaac5614035997d79f7d2e3.jpg","date":"2010-12-15","year":2010,"month":12,"lon":-113.50336,"lat":53.5248,"tags":"blizzard,britl,edmonton,lights,snow,snowstorm,tree,yeg","S2CellId":"467c000000000000","result":2949,"accuracy":0.023383914,"title":"Snowstorm"}
{"id":4784350708,"url":"http://farm5.staticflickr.com/4119/4784350708_854494a640.jpg","path":"dbb/298/dbb29822c2f032d122ac57a8728d789d.jpg","date":"2010-07-10","year":2010,"month":7,"lon":-113.4889,"lat":53.544872,"tags":"aga,art,art+gallery,art+gallery+of+alberta,edmonton,events,late+night+art+party,mastermaq,parties,refinery","S2CellId":"808fccb400000000","result":7074,"accuracy":0.045161467,"title":"Refinery"}
{"id":8252200804,"url":"http://farm9.staticflickr.com/8338/8252200804_2f2d93d47f.jpg","path":"cc7/ae3/cc7ae37a495a6d855451f705aa22d38.jpg","date":"2012-12-06","year":2012,"month":12,"lon":-113.574554,"lat":53.319057,"tags":"757,boeing,cyeg,edmonton+international+airport,eia,fedex,n995fd,purple+promise,yeg","S2CellId":"47d87c4000000000","result":4429,"accuracy":0.1398932,"title":"N995FD","description":"Simply+one+of+the+biggest+planes+I%27ve+been+next+to%2C+a+FedEx+Boeing+757+that+had+gone+mechanical+shortly+after+takeoff+the+night+before.++That+figure+in+the+yellow+jacket+is+yours+truly%2C+one+step+away+from+the+centre+of+the+plane...+it%27s+THAT+tall."}
{"id":3621456826,"url":"http://farm4.staticflickr.com/3540/3621456826_f57a17ec13.jpg","path":"24c/34f/24c34f6ab59c37c185ece18d5de3233.jpg","date":"2009-06-12","year":2009,"month":6,"lon":-113.532265,"lat":53.60024,"tags":"%C2%A9+brian+podruzny+photography,18-50,18-50+macro,alberta,angle,canada,canon,canon+xs,car,crome,custom,edmonton,explore,explored,hdr,hot,hot+rod,light,lights,photoshop,pod,rod,sigma,tire,xs","S2CellId":"880e540000000000","result":8141,"accuracy":0.1107978,"title":"Rolling+Art","description":"I+was+going+to+go+to+the+supermarket+to+pick+up+some+supper+and+I+found+myself+behind+this+car.+I+decided+to+take+a+detour+and+follow+him.+I+had+my+two+best+lenses+plus+my+tripod+on+hand.+I+walked+up+and+asked+if+I+could+take+a+few+photos.+He+seemed+used+to+it+%28such+a+nice+car+I%27m+not+surprised%29+and+said+%22sure%2C+go+for+it%22.+%0A%0AI+took+about+50+or+60+shots+from+several+angles%2C+included+4+sets+of+HDR+exposures.+I+offered+to+e-mail+him+my+final+results%2C+he+said+%22no+thanks%2C+I%27ve+got+a+bunch+already%22.+I+hope+they+are+better+than+mine.+They+likely+are+better%2C+if+not%2C+he+lost+an+opportunity+for+free+photos+of+his+gorgeous+car.%0A%0AAll+comments+welcome.+Please+do+not+use+my+photo+for+any+reason+without+my+express+written+permission.+Thanks%21"}
{"id":4829672068,"url":"http://farm5.staticflickr.com/4137/4829672068_49853e4767.jpg","path":"deb/5a4/deb5a4e76ebfd313527e08f163323d4.jpg","date":"2010-07-21","year":2010,"month":7,"lon":-113.47613,"lat":53.55998,"tags":"edmonton,fc+edmonton,mastermaq,portsmouth+fc,soccer,sports","S2CellId":"6d38ae4000000000","result":6834,"accuracy":0.048582613,"title":"FC+Edmonton"}
{"id":7411180622,"url":"http://farm6.staticflickr.com/5441/7411180622_221679c483.jpg","path":"d2f/6ed/d2f6ed99fd7a2f35fbddbad9b6220ad.jpg","date":"2012-06-16","year":2012,"month":6,"lon":-113.52956,"lat":53.530716,"tags":"2012,2012%2F06%2F16,5k+walk,ab,alberta,alberta+cancer+foundation,canada,canon70200f2.8l,canon7d,charity,costumes,edmonton,event,female,knee+high+socks,robert+antoniuk,sangudo,shiny+shorts,sports+bra,tube+socks,underwear+affair,woman,yeg","S2CellId":"53a0224000000000","result":6072,"accuracy":0.13628957,"title":"2012+Edmonton+Underwear+Affair","description":"For+more+information+please+visit%3A+%3Ca+href%3D%22http%3A%2F%2Fed12.uncoverthecure.org%22+rel%3D%22nofollow%22%3Eed12.uncoverthecure.org%3C%2Fa%3E"}
{"id":5471107633,"url":"http://farm6.staticflickr.com/5291/5471107633_4b42a2bd63.jpg","path":"8b3/bfd/8b3bfd17bdb7237515da25a255da1d0.jpg","date":"2011-02-20","year":2011,"month":2,"lon":-113.54877,"lat":53.52592,"tags":"2011,50d,alberta,athletes,athletic,canada,canon,competition,edmonton,festival,frozen,hawrelak,ice,lake,park,pond,race,silver,skate,snow,sport,triathlon,winter","S2CellId":"5371c00000000000","result":6055,"accuracy":0.96163374,"title":"2011+Silver+Skate+Festival","description":"Edmonton+Winter+Triathlon"}
{"id":7947889696,"url":"http://farm9.staticflickr.com/8311/7947889696_0d6efc4b30.jpg","path":"146/bb7/146bb778476fd2ab664ac078df19.jpg","date":"2012-09-06","year":2012,"month":9,"lon":-113.57518,"lat":53.318737,"tags":"sunset","S2CellId":"5371640000000000","result":6051,"accuracy":0.0123676155,"title":"P1+Golden+Sunset+Pano","description":"Thanks+to+one+of+my+co-workers+for+calling+me+outside+to+see+the+wonderful+gradient+in+the+sunset+tonight."}
{"id":136988034,"url":"http://farm1.staticflickr.com/54/136988034_e2dac5b1c7.jpg","path":"f11/96c/f1196c4eb78cee668414157124fa5b4a.jpg","date":"2006-04-28","year":2006,"month":4,"lon":-113.57746,"lat":53.53208,"tags":"2006,abstract,alberta,b%26w,black+%26+white,black+and+white,canada,car,carwash,clarify,day,droplets,edmonton,esso,gas+station,indoor,my+%27good%27+images,photo,spray,suds,water,window","S2CellId":"80857dc000000000","result":6921,"accuracy":0.003728253,"title":"inverted+bass+clef","description":"%3Ca+href%3D%22http%3A%2F%2Fen.wikipedia.org%2Fwiki%2FBass_clef%23The_bass_clef%22%3EBass+Clef%3C%2Fa%3E%0A%0A%3Ca+href%3D%22http%3A%2F%2Fstatic.flickr.com%2F54%2F136987817_cb5e142efa_b.jpg%22%3Ecolour%3C%2Fa%3E"}
