{"id":7434149442,"url":"http://farm6.staticflickr.com/5456/7434149442_d2b412a0ac.jpg","path":"80e/18a/80e18ab6dc6b3466cff69aa37d4dbf.jpg","date":"2012-06-22","year":2012,"month":6,"lon":-110.96195,"lat":40.678024,"tags":"camping,forest,lake,outdoor,trees,vacation","S2CellId":"54c7000000000000","result":6307,"accuracy":0.13561407,"title":"P1050213"}
{"id":4116404028,"url":"http://farm3.staticflickr.com/2700/4116404028_fd0034b298.jpg","path":"a8f/465/a8f465959817defb16c54bb0aff49dd1.jpg","date":"2009-07-01","year":2009,"month":7,"lon":-110.70734,"lat":40.593384,"tags":"2009,ashley,camping,forest,high,hiking,mountains,national,uinta,ut,utah,wilderness","S2CellId":"54bf400000000000","result":6299,"accuracy":0.036554165,"title":"DSC00060"}
{"id":3784194590,"url":"http://farm3.staticflickr.com/2502/3784194590_d7b40a1633.jpg","path":"70f/18f/70f18fb6a37da88b1fd9e886b5554ae.jpg","date":"2009-07-08","year":2009,"month":7,"lon":-110.40644,"lat":40.92698,"tags":"forest,mirror,mountains,national,uinta,ut,utah,wasatch","S2CellId":"5240000000000000","result":5966,"accuracy":0.24616838,"title":"DSC00300"}
{"id":3844707974,"url":"http://farm4.staticflickr.com/3421/3844707974_5aa8c6a9bb.jpg","path":"ff5/4c5/ff54c56a87ef727757cd98c35cce0b.jpg","date":"2009-08-09","year":2009,"month":8,"lon":-110.79111,"lat":40.58456,"tags":"arta,caleb,camping,hiking,lake,leah,lost,mountains,uinta,ut,utah,wilderness","S2CellId":"536c000000000000","result":6045,"accuracy":0.076331,"title":"DSC00851"}
{"id":5943898203,"url":"http://farm7.staticflickr.com/6007/5943898203_b91d676be7.jpg","path":"16b/538/16b53860ee2a49dfe84823c19e785c.jpg","date":"2011-07-09","year":2011,"month":7,"lon":-110.966034,"lat":40.683144,"tags":"aceti+family,people,utah","S2CellId":"5377000000000000","result":6058,"accuracy":0.05697368,"title":"Crystal+Lake"}
{"id":4116450756,"url":"http://farm3.staticflickr.com/2587/4116450756_7014dfe1da.jpg","path":"b76/fd2/b76fd2c22a8220bb8e9e812564db44be.jpg","date":"2009-07-01","year":2009,"month":7,"lon":-110.67839,"lat":40.633293,"tags":"2009,ashley,camping,forest,high,hiking,mountains,national,uinta,ut,utah,wilderness","S2CellId":"534e400000000000","result":6028,"accuracy":0.25250784,"title":"DSC00081"}
{"id":203572345,"url":"http://farm1.staticflickr.com/60/203572345_a469ca3c4f.jpg","path":"5a4/b9e/5a4b9ebae3f1fb7efa22b95d196b1f71.jpg","date":"2006-07-30","year":2006,"month":7,"lon":-110.88295,"lat":40.792076,"tags":"brian,jesse,titus,uinta+mountains","S2CellId":"5140000000000000","result":5964,"accuracy":0.08443139,"title":"Camping+in+the+Uintas+7-30-2006+11-25-40+AM"}
{"id":4116322212,"url":"http://farm3.staticflickr.com/2791/4116322212_a3761af000.jpg","path":"5db/ddc/5dbddcd63fc33be56d328b637755be4.jpg","date":"2009-07-01","year":2009,"month":7,"lon":-110.70365,"lat":40.555824,"tags":"2009,ashley,camping,forest,high,hiking,mountains,national,uinta,ut,utah,wilderness","S2CellId":"8740500000000000","result":7808,"accuracy":0.14832626,"title":"DSC00024"}
{"id":7434226052,"url":"http://farm6.staticflickr.com/5350/7434226052_ec4824f4bb.jpg","path":"4db/9ed/4db9edea5ce59bd73df41ea928142316.jpg","date":"2012-06-22","year":2012,"month":6,"lon":-110.96195,"lat":40.678024,"tags":"camping,forest,lake,outdoor,trees,vacation","S2CellId":"8099700000000000","result":7111,"accuracy":0.16825983,"title":"P1050132"}
{"id":7512294734,"url":"http://farm9.staticflickr.com/8285/7512294734_40e4f79bb6.jpg","path":"42a/513/42a513d9af12473f48f5db5b1725512.jpg","date":"2012-07-01","year":2012,"month":7,"lon":-110.888054,"lat":40.70111,"tags":"autostitch,hanna,lake,mirror+lake,panorama,panoramic,united+states,utah,wasatch+national+forest","S2CellId":"5377000000000000","result":6058,"accuracy":0.09767071,"title":"Mirror+Lake"}
{"id":4898007719,"url":"http://farm5.staticflickr.com/4073/4898007719_f7b8720cfa.jpg","path":"a71/646/a716462f977cb7d5ea92d66fd4a1b6a1.jpg","date":"2010-08-15","year":2010,"month":8,"lon":-110.90004,"lat":40.692448,"tags":"bald+mountain,black+%26+white,bw,clouds,sepia,uinta+range,uintas","S2CellId":"5370c00000000000","result":6047,"accuracy":0.12171844,"title":"Uinta+Peak+Sepia"}
{"id":3843984551,"url":"http://farm3.staticflickr.com/2564/3843984551_12c569444a.jpg","path":"9c8/fc8/9c8fc8ae43a6eabb8d8218cec9d13f.jpg","date":"2009-08-09","year":2009,"month":8,"lon":-110.79111,"lat":40.58456,"tags":"arta,caleb,camping,hiking,lake,leah,lost,mountains,uinta,ut,utah,wilderness","S2CellId":"009d000000000000","result":45,"accuracy":0.013019074,"title":"DSC00862"}
