{"id":3705507382,"url":"http://farm3.staticflickr.com/2425/3705507382_8ba1b00bac.jpg","path":"361/2da/3612da38b8c2a99debef523a633f29.jpg","date":"2009-07-09","year":2009,"month":7,"lon":-92.33415,"lat":38.95217,"tags":"bike,lomography,schwinn,vintage","S2CellId":"478df00000000000","result":3674,"accuracy":0.007961593}
{"id":5843889245,"url":"http://farm6.staticflickr.com/5197/5843889245_3697920bf7.jpg","path":"91c/046/91c0464a83fd527d23f54155136c46da.jpg","date":"2011-06-17","year":2011,"month":6,"lon":-92.17307,"lat":38.579136,"tags":"jefferson+city,missouri,state+capitol","S2CellId":"89c2590100000000","result":8993,"accuracy":0.08316329,"title":"Jeff+City-7","description":"There+was+a+missing+persons+presentation+that+day+in+the+rotunda.++You%27ll+see+Quinci+and+Ellia+in+this+KSDK+report%3A+%3Ca+href%3D%22http%3A%2F%2Fwww.ksdk.com%2Fnews%2Flocal%2Fstory.aspx%3Fstoryid%3D263615%22+rel%3D%22nofollow%22%3Ewww.ksdk.com%2Fnews%2Flocal%2Fstory.aspx%3Fstoryid%3D263615%3C%2Fa%3E"}
{"id":5354211026,"url":"http://farm6.staticflickr.com/5165/5354211026_3074cdfce7.jpg","path":"487/b97/487b977ed5dcd9b55fae57122da7fcc.jpg","date":"2010-10-26","year":2010,"month":10,"lon":-92.17351,"lat":38.577854,"tags":"35-210mm,city+of+jefferson,jefferson+city%2C+mo,k-x,pentax,tamron,tamron+sp,tamron+sp+35-210mm","S2CellId":"880e2b7000000000","result":8112,"accuracy":0.110675536,"title":"US+Post+Office","description":"Post+office+in+historic+downtown+of+Jefferson+City%2C+MO.+Taken+with+Tamron+SP+35-210mm+f3.5-4+lens."}
{"id":3145566018,"url":"http://farm4.staticflickr.com/3097/3145566018_5090cb2bb0.jpg","path":"a31/c68/a31c688365fb8f3ad3d12c4a6d1129d5.jpg","date":"2008-12-28","year":2008,"month":12,"lon":-92.31101,"lat":38.94443,"tags":"bentley,christmas","S2CellId":"47c9b00000000000","result":4397,"accuracy":0.01581597,"title":"Clyde+and+Garrett"}
{"id":3065041580,"url":"http://farm4.staticflickr.com/3054/3065041580_548002cd06.jpg","path":"b50/d77/b50d778fae59ac2db8de1b38bbeee3.jpg","date":"2008-11-27","year":2008,"month":11,"lon":-92.31101,"lat":38.94443,"tags":"columbia%2C+mo.,international+guests,thanksgiving,university+of+missouri","S2CellId":"89c2f61000000000","result":9109,"accuracy":0.030645369,"title":"2008+Mohammed+Salih","description":"Iraqi+journalism+student"}
{"id":2267518214,"url":"http://farm3.staticflickr.com/2186/2267518214_f83f062e22.jpg","path":"711/5e7/7115e7cdf53ab32dd1d96784237abc2.jpg","date":"2005-01-27","year":2005,"month":1,"lon":-92.33082,"lat":38.93698,"tags":"columbia,missouri","S2CellId":"12a4a2f6d0000000","result":734,"accuracy":0.014312795,"title":"Nephew+Aidan+Mixing+Goo"}
{"id":3939644457,"url":"http://farm4.staticflickr.com/3442/3939644457_0e5a28ae98.jpg","path":"f03/398/f03398ec12f7c4b6e3e33cd7c112149.jpg","date":"2009-09-10","year":2009,"month":9,"lon":-92.16688,"lat":38.571053,"tags":"bicycle+racing,bicycles,kansas+city,missouri,st+louis,tour+of+missouri,uci","S2CellId":"89c8049000000000","result":9190,"accuracy":0.35422087,"title":"09+Tour+of+Missouri"}
{"id":5904775154,"url":"http://farm6.staticflickr.com/5239/5904775154_c6c5515a7f.jpg","path":"8f8/c58/8f8c5819db6c389f84a67305babdf6e.jpg","date":"2010-08-04","year":2010,"month":8,"lon":-92.381,"lat":38.811832,"tags":"bike,bike+path,missouri,mkt,train","S2CellId":"4787400000000000","result":3613,"accuracy":0.040083066,"title":"IMG_6286"}
{"id":3064207347,"url":"http://farm4.staticflickr.com/3184/3064207347_d532375006.jpg","path":"555/1d2/5551d2ef5937385a1bfca97e1eb4fd5.jpg","date":"2008-11-27","year":2008,"month":11,"lon":-92.31101,"lat":38.94443,"tags":"columbia%2C+mo.,international+guests,thanksgiving,university+of+missouri","S2CellId":"3467e70000000000","result":2121,"accuracy":0.048719104,"title":"2008+Kai+Liu%2C+Ningjie+Liu+and+Bowen+Fu+with+Greta","description":"China"}
{"id":5904776332,"url":"http://farm7.staticflickr.com/6021/5904776332_c7b3ce691b.jpg","path":"dd2/232/dd2232522abf53740c4a4704afab.jpg","date":"2010-08-04","year":2010,"month":8,"lon":-92.1715,"lat":38.59883,"tags":"bike,bike+path,bridge,missouri,mkt,train","S2CellId":"479ec00000000000","result":3862,"accuracy":0.29873368,"title":"IMG_6295"}
{"id":8632945974,"url":"http://farm9.staticflickr.com/8529/8632945974_6efb5df829.jpg","path":"9cf/aa3/9cfaa3361bed4ce1166f82badcaeb636.jpg","date":"2013-04-07","year":2013,"month":4,"lon":-92.33415,"lat":38.95217,"tags":"cloudy,day","S2CellId":"8842400000000000","result":8397,"accuracy":0.04528971,"title":"Warm+Springs+Ranch","description":"Warm+Springs+Ranch%2C+where+the+Budweiser+Clydesdales+are+bred."}
{"id":8599877339,"url":"http://farm9.staticflickr.com/8510/8599877339_7b80f58f87.jpg","path":"bbb/e26/bbbe2643d5eb7eaa3b124ee4bee35c0.jpg","date":"2013-03-29","year":2013,"month":3,"lon":-92.39833,"lat":38.919167,"tags":"lego,mf0,mfz,mobileframezero","S2CellId":"89c1700000000000","result":8930,"accuracy":0.019706905,"title":"Red+Squad+v2","description":"Revised+my+red+squad+%28and+made+a+smaller+scale+ship+for+them%29.%0A%0AI+have+some+new+parts+coming+to+replace+the+firing+tubes+on+the+missile+carrier%2C+i%27m+okay+with+the+style+of+them+the+way+they+are%2C+but+I%27m+not+super+hot+on+mixing+%3Ca+href%3D%22http%3A%2F%2Fwww.flickr.com%2Fphotos%2Fnifkin%2F8589754980%2Fin%2Fphotostream%2F%22%3Esquad+colors%3C%2Fa%3E.%0A%0ALeft+is+meant+to+be+an+artillery%2Fmissile+carrier.+%0AFront+is+a+spotter%2Fdefender+%28ECM%2C+strobe+lights%2C+etc.%29.%0ARight+is+for+direct+fire+range+action."}
{"id":180457656,"url":"http://farm1.staticflickr.com/73/180457656_ad14ecaf25.jpg","path":"d6c/01f/d6c01f4d89fa3db3c434b249eda3436d.jpg","date":"2006-07-02","year":2006,"month":7,"lon":-92.34245,"lat":38.916176,"tags":"columbia,creatista,crosswalk,crosswalk+america,griessel,missouri,scott+griessel","S2CellId":"31da700000000000","result":1882,"accuracy":0.0699252,"title":"_MG_9283.jpg"}
{"id":2452512847,"url":"http://farm3.staticflickr.com/2334/2452512847_f534a40338.jpg","path":"354/ab6/354ab6165bed593772c54c70f65e28.jpg","date":"2008-04-29","year":2008,"month":4,"lon":-92.34682,"lat":38.943047,"tags":"house,redbud,remodel,roof","S2CellId":"8840400000000000","result":8378,"accuracy":0.016665308,"title":"the+wall+goes+up","description":"Jamie+%28our+contractor%29+and+his+crew+at+work"}
{"id":4958815677,"url":"http://farm5.staticflickr.com/4127/4958815677_1094d86cfa.jpg","path":"8bd/fed/8bdfedef985a6b11f31b96dd7a53aa8.jpg","date":"2010-09-04","year":2010,"month":9,"lon":-92.32202,"lat":38.878746,"tags":"80-210mm,apaturinae,asterocampa,asterocampa+celtis,bmna,butterfly,dorsal,emperor,hackberry,hackberry+emperor,justpentax,midsize,missouri,mo,nymphalidae,prairie,rock+bridge+state+park,september,tamron,tamron+1%3A3.8-4+80-210mm+cf+tele+macro","S2CellId":"95b5000000000000","result":9826,"accuracy":0.02165858,"title":"Hackberry+Emperor"}
{"id":8499777279,"url":"http://farm9.staticflickr.com/8111/8499777279_e82650d869.jpg","path":"9c4/462/9c446290e375b54eed95f1e2286cc62.jpg","date":"2013-02-22","year":2013,"month":2,"lon":-92.31534,"lat":38.963547,"tags":"columbia,film+festival,missouri,true%2Ffalse","S2CellId":"548ff00000000000","result":6177,"accuracy":0.21521614,"title":"Doug+on+the+pentagon"}
{"id":868298316,"url":"http://farm2.staticflickr.com/1086/868298316_a30d1c6f0b.jpg","path":"f8b/73e/f8b73e2922f13a52183715ce597a9ec.jpg","date":"2005-10-01","year":2005,"month":10,"lon":-92.74894,"lat":38.97405,"tags":"boonville,katy,missouri,mkt,trail","S2CellId":"888d000000000000","result":8518,"accuracy":0.008964193,"title":"DSCF0045"}
{"id":8745700612,"url":"http://farm8.staticflickr.com/7299/8745700612_40efdcba61.jpg","path":"b65/9a9/b659a927b39e29b06f77162c62afb41.jpg","date":"2013-05-16","year":2013,"month":5,"lon":-92.33165,"lat":38.884483,"tags":"instagram+app,iphoneography,rise,square,square+format","S2CellId":"8847000000000000","result":8402,"accuracy":0.012759206,"title":"Despite+soil+%26+rock+erosion%2C+this+path+remains+due+to+steel+%26+concrete+anchors"}
{"id":5943943842,"url":"http://farm7.staticflickr.com/6012/5943943842_2e1d429936.jpg","path":"d54/7f9/d547f9172b3ec7841cc4f10af2c1ed6.jpg","date":"2011-07-16","year":2011,"month":7,"lon":-92.31101,"lat":38.94443,"tags":"365+project,evie,grandchildren,greta,whippet","S2CellId":"8814b00000000000","result":8185,"accuracy":0.11962708,"title":"130%2F365+There%27s+nothing+like+a+blanket%2C+a+good+movie+and+a+warm+whippet.","description":"Evie+curled+up+on+the+couch+to+watch+TV+and+Greta+immediately+saw+an+opportunity+for+canine+heaven."}
{"id":3650167951,"url":"http://farm4.staticflickr.com/3632/3650167951_3d9ef0734f.jpg","path":"79f/78e/79f78ee2e57c64af8dc3127dee4f132.jpg","date":"2009-06-16","year":2009,"month":6,"lon":-92.18018,"lat":38.586315,"tags":"kt09,missouri,rivers","S2CellId":"94f7000000000000","result":9773,"accuracy":0.21055323,"title":"Missouri+River+at+Jefferson+City"}
{"id":3650233391,"url":"http://farm4.staticflickr.com/3411/3650233391_3c5a31e412.jpg","path":"7c4/1ee/7c41ee8a61af5de2760261111d3a0.jpg","date":"2009-06-17","year":2009,"month":6,"lon":-92.757996,"lat":38.97362,"tags":"kt09,missouri,rivers","S2CellId":"87d5000000000000","result":7996,"accuracy":0.029727885,"title":"Missouri+river+at+Boonville"}
{"id":8176879981,"url":"http://farm9.staticflickr.com/8484/8176879981_4a07e30878.jpg","path":"ca4/9b1/ca49b1f437818114cfdaf43b7e1d982d.jpg","date":"2012-08-18","year":2012,"month":8,"lon":-92.1571,"lat":38.57248,"tags":"jefferson+city,missouri,missouri+state+penitentiary,the+walls","S2CellId":"85cd000000000000","result":7450,"accuracy":0.026391657,"title":"Missouri+State+Penitentiary","description":"The+well+behaved+were+allowed+to+paint+and+decorate+their+rooms."}
{"id":6977101908,"url":"http://farm9.staticflickr.com/8147/6977101908_d44fd32331.jpg","path":"516/7e7/5167e7eb93666d41e9c79954450b826.jpg","date":"2010-07-27","year":2010,"month":7,"lon":-92.63105,"lat":38.204464,"tags":"blue,lake,lake+of+the+ozarks,missouri,orange,sky,sunset,water","S2CellId":"12c9100000000000","result":838,"accuracy":0.06414459,"title":"sunset+at+lake+of+ozarks"}
{"id":2895868743,"url":"http://farm4.staticflickr.com/3207/2895868743_fc662c5d1e.jpg","path":"7f5/fe0/7f5fe022b5368d1dbf9ef4214ad3634.jpg","date":"2008-09-21","year":2008,"month":9,"lon":-92.33415,"lat":38.95217,"tags":"40d,bokeh,canon+eos+40d,canon40d,dof,geometry,mat,shape","S2CellId":"12a46c0000000000","result":690,"accuracy":0.0038223823}
{"id":2342420086,"url":"http://farm3.staticflickr.com/2109/2342420086_f1cc24bf19.jpg","path":"3ce/d90/3ced902a6321fdc3a32219d61e8dc3f.jpg","date":"2007-07-08","year":2007,"month":7,"lon":-92.32685,"lat":38.952408,"tags":"columbia,graffiti,missouri,stencil,street+art","S2CellId":"87c0f40000000000","result":7974,"accuracy":0.008417966,"title":"TV+head","description":"N%2FS+alley+behind+old+Ragtag"}
{"id":5589111348,"url":"http://farm6.staticflickr.com/5171/5589111348_a1d2a103f2.jpg","path":"4fc/292/4fc292d984fc647cb97fde243807a8.jpg","date":"2011-04-02","year":2011,"month":4,"lon":-92.74167,"lat":38.952274,"tags":"1022,boonville,charity,eagles,foe,golf,missouri,tournament","S2CellId":"8838400000000000","result":8320,"accuracy":0.17836766,"title":"2011+Boonville+Eagles+%231022+Charity+Golf+Tournament","description":"Pictures+from+the+4th+annual+charity+golf+tournament+in+Boonville%2C+MO+hosted+by+Eagles+%231022.++We+had+26+teams+come+out+to+play+that+day%21"}
{"id":3264760216,"url":"http://farm1.staticflickr.com/250/3264760216_a27688ba5c.jpg","path":"31d/37c/31d37c6869696ac91cc4b6d932f4f78.jpg","date":"2009-02-01","year":2009,"month":2,"lon":-92.33415,"lat":38.95217,"tags":"40d,artist,canon+eos+40d,canon40d,chinese,columbia,dance,dancer,dancers,international,missouri,red,students,welcome+party","S2CellId":"0d47700000000000","result":401,"accuracy":0.032469362}
{"id":1396962575,"url":"http://farm2.staticflickr.com/1274/1396962575_f15b5528b1.jpg","path":"dda/bd2/ddabd28663921e1190bfa7e6bc845c68.jpg","date":"2007-09-16","year":2007,"month":9,"lon":-92.323006,"lat":38.87306,"tags":"flowers,missouri,nature,plants,rockbridge+state+park,rocks,trees","S2CellId":"8807400000000000","result":8099,"accuracy":0.057588525,"title":"Down+to+the+icebox","description":"%3Ca+href%3D%22http%3A%2F%2Fwww.mostateparks.com%2Frockbridge.htm%22%3Ewww.mostateparks.com%2Frockbridge.htm%3C%2Fa%3E"}
{"id":4504853830,"url":"http://farm5.staticflickr.com/4019/4504853830_c17e1d6807.jpg","path":"623/785/6237851f664b0dcad1ddb5e9c12e6.jpg","date":"2010-04-08","year":2010,"month":4,"lon":-92.16988,"lat":38.57516,"tags":"24mm,aetna+rokunar+24mm+f2.8,jefferson+city%2C+mo,k-x,pentax,urban","S2CellId":"876bec4000000000","result":7871,"accuracy":0.13077636,"title":"High+Street","description":"High+street+in+Jefferson+City%2C+MO.+Aetna+Rokunar+24mm+lens."}
{"id":2591188381,"url":"http://farm4.staticflickr.com/3277/2591188381_021c94eb76.jpg","path":"229/fa3/229fa3e1dcb912bf40cf19ad83bbb57.jpg","date":"2008-06-15","year":2008,"month":6,"lon":-92.34682,"lat":38.943047,"tags":"columbia,drywall,house,redbud,remodeling","S2CellId":"8620a5c000000000","result":7508,"accuracy":0.042021073,"title":"chase","description":"This+chase+hides+the+drain+pipes+for+the+upstairs+bathroom."}
{"id":2047464936,"url":"http://farm3.staticflickr.com/2364/2047464936_15da76f368.jpg","path":"564/f33/564f33fe5e74c08661b34f17f89aec2.jpg","date":"2007-10-18","year":2007,"month":10,"lon":-92.167564,"lat":38.57508,"tags":"2007october,harry+potter+party,hogwarts+party,jefferson+city,kids+club,library,missouri,missouri+river+regional+library,public","S2CellId":"87f1000000000000","result":8044,"accuracy":0.045541506,"title":"October+07+284"}
{"id":5556507935,"url":"http://farm6.staticflickr.com/5178/5556507935_654d461c26.jpg","path":"cbc/d6e/cbcd6e69e1c6468ea9aaecd81c517ee1.jpg","date":"2011-02-25","year":2011,"month":2,"lon":-92.76027,"lat":38.97516,"tags":"boonville,missouri,outdoors,snow,weather,winter","S2CellId":"883cae5000000000","result":8363,"accuracy":0.14827926,"title":"February+2011+Snow+-+Boonville%2C+MO","description":"Another+beautiful+snowfall+in+Boonville%2C+MO."}
{"id":1907951837,"url":"http://farm3.staticflickr.com/2305/1907951837_c6f884ce21.jpg","path":"622/af4/622af41942353459babf7c874aced5fe.jpg","date":"2006-06-24","year":2006,"month":6,"lon":-92.304985,"lat":38.595272,"tags":"jefferson+city,library,missouri,missouri+river+regional+library,public","S2CellId":"47df1c0000000000","result":4514,"accuracy":0.023937318,"title":"June+06+Pictures+085"}
{"id":1918412187,"url":"http://farm3.staticflickr.com/2143/1918412187_b1c81a66b9.jpg","path":"3c1/8b6/3c18b61afabb185c07a41a31aa1d48b.jpg","date":"2007-06-23","year":2007,"month":6,"lon":-92.304985,"lat":38.595272,"tags":"2007,2007june,jefferson+city,library,missouri,missouri+river+regional+library,public,renaissance+festival,renfest07,renfest2007","S2CellId":"4716d00000000000","result":3226,"accuracy":0.03386444,"title":"IMG_0950"}
{"id":180456695,"url":"http://farm1.staticflickr.com/48/180456695_0cab0a9400.jpg","path":"c7d/22a/c7d22a5b859e42aa6af2eb985e03cbf.jpg","date":"2007-07-03","year":2007,"month":7,"lon":-92.3432,"lat":38.91664,"tags":"columbia,creatista,crosswalk,crosswalk+america,griessel,missouri,scott+griessel","S2CellId":"8814b00000000000","result":8185,"accuracy":0.026072262,"title":"29CW7733.jpg"}
{"id":5844437468,"url":"http://farm4.staticflickr.com/3602/5844437468_0fcecee00b.jpg","path":"df4/dd1/df4dd18a1997d152c618b454a62afac.jpg","date":"2011-06-17","year":2011,"month":6,"lon":-92.17307,"lat":38.579136,"tags":"jefferson+city,missouri,state+capitol","S2CellId":"87d5000000000000","result":7996,"accuracy":0.10300124,"title":"From+the+4th+floor+of+the+capitol"}
{"id":8633553625,"url":"http://farm9.staticflickr.com/8526/8633553625_7edc18334c.jpg","path":"7fa/4b5/7fa4b55d3f04e84a03f2cde34da91c3.jpg","date":"2013-04-08","year":2013,"month":4,"lon":-92.17322,"lat":38.578518,"tags":"2013,capitol,day,mobikefed,mobikefed+capitol+day+2013","S2CellId":"8747400000000000","result":7817,"accuracy":0.024924194,"title":"Senator+David+Pearce+was+one+of+the+legislators+who+addressed+the+crowd+before+we+left+on+the+Legislator%27s+Ride"}
{"id":5589191642,"url":"http://farm6.staticflickr.com/5251/5589191642_cb7f194455.jpg","path":"439/585/439585a276c6d622947a52a235d6fba4.jpg","date":"2011-04-02","year":2011,"month":4,"lon":-92.74167,"lat":38.952274,"tags":"1022,boonville,charity,eagles,foe,golf,missouri,tournament","S2CellId":"88388d0000000000","result":8324,"accuracy":0.14027487,"title":"2011+Boonville+Eagles+%231022+Charity+Golf+Tournament","description":"Pictures+from+the+4th+annual+charity+golf+tournament+in+Boonville%2C+MO+hosted+by+Eagles+%231022.++We+had+26+teams+come+out+to+play+that+day%21"}
{"id":127273322,"url":"http://farm1.staticflickr.com/56/127273322_25527f54d6.jpg","path":"ec6/c99/ec6c995b40b1a67eb1ce4acc6f35346.jpg","date":"2006-04-11","year":2006,"month":4,"lon":-92.16911,"lat":38.610306,"tags":"april,jefferson+city,katy+trail,missouri,travel","S2CellId":"8869700000000000","result":8478,"accuracy":0.042653177,"title":"Missou2+006a","description":"The+Turkey+Creek+trestle+along+the+Katy+Trail."}
{"id":34310679,"url":"http://farm1.staticflickr.com/22/34310679_e0087f1bb9.jpg","path":"183/7dc/1837dc36b621b82fbf653be26db52c63.jpg","date":"2005-08-13","year":2005,"month":8,"lon":-92.33476,"lat":38.949265,"tags":"columbia,everything2,me,missouri,mizzou,nodermeet","S2CellId":"4786300000000000","result":3573,"accuracy":0.021167753,"title":"RoguePoet+skewers+you+with+a+sidelong+glance"}
{"id":3064198943,"url":"http://farm4.staticflickr.com/3034/3064198943_d5c215fa5c.jpg","path":"cfc/9d2/cfc9d2465368b8380b042d82b859f63.jpg","date":"2008-11-27","year":2008,"month":11,"lon":-92.31101,"lat":38.94443,"tags":"columbia%2C+mo.,international+guests,thanksgiving,university+of+missouri","S2CellId":"48760e4000000000","result":5284,"accuracy":0.0049160933,"title":"2008+Kseniya+Solodovnik","description":"Russian+professor+of+English"}
{"id":1465133844,"url":"http://farm2.staticflickr.com/1353/1465133844_ffc7b8c6b1.jpg","path":"5d4/b32/5d4b32c61e3a5c523490b64683a89b72.jpg","date":"2007-09-30","year":2007,"month":9,"lon":-92.32174,"lat":38.967667,"tags":"argusc2,columbiamo,como,film,missouri","S2CellId":"80c2b84000000000","result":7160,"accuracy":0.02471915,"title":"Picket+Fence"}
{"id":12993087145,"url":"http://farm8.staticflickr.com/7381/12993087145_99ece8b5e7.jpg","path":"bc2/6ce/bc26ce26d25c1c225bee599982380b5.jpg","date":"2014-03-04","year":2014,"month":3,"lon":-92.327484,"lat":38.949337,"tags":"columbia,missouri,true%2Ffalse","S2CellId":"89b7b79b00000000","result":8861,"accuracy":0.21344815,"title":"March+March+from+40+feet"}
{"id":6614471247,"url":"http://farm8.staticflickr.com/7015/6614471247_e8afc5c2ca.jpg","path":"c1e/826/c1e82635729ddf4a57b1b479bb1157e.jpg","date":"2012-01-01","year":2012,"month":1,"lon":-92.56067,"lat":38.083332,"tags":"hidden+springs+trail,lake+of+the+ozarks,missouri,trail+of+the+four+winds","S2CellId":"864e640000000000","result":7620,"accuracy":0.035962846,"title":"Afternoon+Silhouette"}
{"id":6797269975,"url":"http://farm8.staticflickr.com/7021/6797269975_2eb9c99daf.jpg","path":"dcb/f16/dcbf166d3e94f9c2db10f140de4f6520.jpg","date":"2012-01-31","year":2012,"month":1,"lon":-92.325836,"lat":38.950966,"tags":"sign,truefalse","S2CellId":"8620a61400000000","result":7511,"accuracy":0.026222028,"title":"Box+Office+sign+measurements"}
{"id":6603954049,"url":"http://farm8.staticflickr.com/7160/6603954049_9ce57017d7.jpg","path":"c6c/4e8/c6c4e855292dece1b7c23f161f8519.jpg","date":"2011-12-31","year":2011,"month":12,"lon":-92.60333,"lat":38.068165,"tags":"honey+run,honey+run+trail,lake+of+the+ozarks,missouri","S2CellId":"89b4400000000000","result":8820,"accuracy":0.13866407,"title":"Forgotten+Trail+Improvements"}
{"id":3914961658,"url":"http://farm4.staticflickr.com/3518/3914961658_9580522efa.jpg","path":"76e/2fa/76e2fa5dffa8e72c58b538162752f56b.jpg","date":"2009-09-10","year":2009,"month":9,"lon":-92.23349,"lat":38.587032,"tags":"28-105mm,dslr,flowers,k100d,pentax,runge,series+1,vivitar","S2CellId":"46f9000000000000","result":3115,"accuracy":0.0063187247,"title":"IMGP7074"}
{"id":6145996998,"url":"http://farm7.staticflickr.com/6073/6145996998_5f60524bb7.jpg","path":"dee/d29/deed29606d68735d9b016c317fe72.jpg","date":"2011-09-12","year":2011,"month":9,"lon":-92.32833,"lat":38.9525,"tags":"healer%27s+art","S2CellId":"864dc00000000000","result":7616,"accuracy":0.013299326,"title":"Craig+Eck"}
{"id":1627780302,"url":"http://farm3.staticflickr.com/2331/1627780302_dca120ac67.jpg","path":"cfb/f96/cfbf966196269ef6c2f78424c3c71cc3.jpg","date":"2007-10-16","year":2007,"month":10,"lon":-92.28703,"lat":38.929943,"tags":"boy,bug,columbia,gallardia,hike,insect,missouri,nature,roger,sulfur+butterfly,usa,vacation","S2CellId":"47abc00000000000","result":3957,"accuracy":0.0057364977,"title":"Male+Orange+sulphur+or+Alfalfa+butterfly+%28Colias+eurytheme%29","description":"Male+Orange+sulphur+or+Alfalfa+butterfly+%28Colias+eurytheme%29%0A%0AIdentification+and+additional+information+from+Philip+Koenig%2C+Missouri+regional+coordinator+for+Butterflies+and+Moths+of+North+America.+++See+%3Ca+href%3D%22http%3A%2F%2Fwww.butterfliesandmoths.org%2F%22%3Ewww.butterfliesandmoths.org%2F%3C%2Fa%3E+for+more+information.++%28Phil%3A+Thank+you%21%29"}
{"id":12255453683,"url":"http://farm4.staticflickr.com/3733/12255453683_0d9da06a11.jpg","path":"4fc/d07/4fcd07bcad1ce8796344cd93bff14c.jpg","date":"2014-01-29","year":2014,"month":1,"lon":-92.31534,"lat":38.963547,"tags":"sign,true%2Ffalse,vimeo","S2CellId":"3442aeb000000000","result":2088,"accuracy":0.018188942,"title":"Vimeo+sign+%231%2C+logo+mounted"}
{"id":9183401880,"url":"http://farm4.staticflickr.com/3726/9183401880_cf6dfe963e.jpg","path":"3eb/e9f/3ebe9f14b1c1d86d766c1a3ab7f6c.jpg","date":"2013-06-29","year":2013,"month":6,"lon":-92.58166,"lat":38.054024,"tags":"2013,camden+co.,christmas+fern,coakley+hollow,dryopteridaceae,fern,lake+of+the+ozarks+state+park,mo,polypodiales,polystichum,polystichum+acrostichoides,pteridopsida","S2CellId":"8620af4000000000","result":7522,"accuracy":0.04436108,"title":"CAB016908a","description":"Christmas+Fern+at+the+Coakley+Hollow+Fen%2C+Lake+of+the+Ozarks+State+Park%2C+Camden+Co.%2C+MO%2C++130629.++Polystichum+acrostichoides.++Pteridopsida%3A+Polypodiales%3A+Dryopteridaceae."}
{"id":5589113028,"url":"http://farm6.staticflickr.com/5188/5589113028_f4a9cb9c14.jpg","path":"9ad/e39/9ade39b615fd13f2209538bf817323ce.jpg","date":"2011-04-02","year":2011,"month":4,"lon":-92.74167,"lat":38.952274,"tags":"1022,boonville,charity,eagles,foe,golf,missouri,tournament","S2CellId":"88388d0000000000","result":8324,"accuracy":0.32304642,"title":"2011+Boonville+Eagles+%231022+Charity+Golf+Tournament","description":"Pictures+from+the+4th+annual+charity+golf+tournament+in+Boonville%2C+MO+hosted+by+Eagles+%231022.++We+had+26+teams+come+out+to+play+that+day%21"}
{"id":2853673676,"url":"http://farm4.staticflickr.com/3075/2853673676_0e33a7682a.jpg","path":"f2f/0f5/f2f0f586c1f721af26ff57177d5d4745.jpg","date":"2008-09-12","year":2008,"month":9,"lon":-92.17316,"lat":38.577534,"tags":"cycling,jefferson+city,stage+5,team+cycling,tour+of+missouri,tour+of+missouri+2008","S2CellId":"0d50940000000000","result":432,"accuracy":0.021633059,"title":"Michael+Van+Staeyen+-+Team+Rabobank","description":"Second%2C+Stage+5"}
{"id":7370796052,"url":"http://farm8.staticflickr.com/7087/7370796052_90c25a992e.jpg","path":"276/b1e/276b1e59355222c49ca65ccd3829d876.jpg","date":"2012-05-24","year":2012,"month":5,"lon":-92.74192,"lat":38.966366,"tags":"grey,kicks,nike,no+show,sneakers,yellow","S2CellId":"8814b00000000000","result":8185,"accuracy":0.08562503,"title":"Nike%21","description":"Awesome+grey+and+yellow+Nike+sneakers"}
{"id":1750511998,"url":"http://farm3.staticflickr.com/2174/1750511998_42e44653e7.jpg","path":"f8f/483/f8f4837493c1c43a1b3e8f8139ca786b.jpg","date":"2007-10-20","year":2007,"month":10,"lon":-92.28628,"lat":38.930805,"tags":"blue+sky,columbia,missouri,pond,reflection,usa,vacation","S2CellId":"6b17c00000000000","result":6723,"accuracy":0.023978058,"title":"Reflecting+Upon+the+Pond"}
{"id":5194758375,"url":"http://farm5.staticflickr.com/4126/5194758375_c4a0207170.jpg","path":"439/9d6/4399d6694f91d5fc1bcf88d74c2ee23.jpg","date":"2010-11-20","year":2010,"month":11,"lon":-92.32658,"lat":38.94491,"tags":"columbia,lowry+mall,missouri","S2CellId":"876bec4000000000","result":7871,"accuracy":0.031661186,"title":"Lowry+Mall","description":"Columbia%2C+Missouri"}
{"id":9684560135,"url":"http://farm8.staticflickr.com/7294/9684560135_53d8cff85a.jpg","path":"1f9/d23/1f9d23e7216e346d350b4b2f945ef6.jpg","date":"2013-08-24","year":2013,"month":8,"lon":-92.5502,"lat":38.960506,"tags":"bikemo2013","S2CellId":"8806c00000000000","result":8098,"accuracy":0.023083355,"title":"2013-08-24+08.01.03","description":"BikeMO+2013"}
{"id":8530704828,"url":"http://farm9.staticflickr.com/8239/8530704828_fc8bc20164.jpg","path":"bcb/f31/bcbf31d11ffb3441f7e6652289efad8.jpg","date":"2013-02-24","year":2013,"month":2,"lon":-92.196495,"lat":38.59554,"tags":"25mm,c-mount,cine,cosmicar,cosmicar+25mm+1%3A1.4,g3,missouri,mo,panasonic,pentax,river,snow,winter","S2CellId":"87f9000000000000","result":8063,"accuracy":0.048157677,"title":"winterscape+%2323","description":"Missouri+shoreline+in+snow.+Taken+with+Panasonic+G3+and+Pentax+Cosmicar+25mm+1%3A1.4+cine+lens."}
{"id":6028048346,"url":"http://farm7.staticflickr.com/6075/6028048346_5084a8b783.jpg","path":"964/b94/964b947d35dd3dc7a5c7234c2b45ed7.jpg","date":"2011-08-01","year":2011,"month":8,"lon":-92.32484,"lat":38.945168,"tags":"365+project,international+guests","S2CellId":"3397c84000000000","result":1920,"accuracy":0.035946786,"title":"146%2F365+Visitors+from+Taiwan","description":"I+spent+an+enjoyable+morning+with+a+group+of+visiting+scholars+from+Taiwan.++I+hope+to+visit+them+sometime+soon+--+while+studying+the+HTC+mobile+phone+company."}
{"id":2712300153,"url":"http://farm4.staticflickr.com/3278/2712300153_baf2d76840.jpg","path":"436/fe9/436fe9e10fc1260255e9f4c4f58124a.jpg","date":"2005-08-09","year":2005,"month":8,"lon":-92.37634,"lat":38.96364,"tags":"high+school+toy+bra+alex,missouri+sedalia,sedalia","S2CellId":"80d9535400000000","result":7284,"accuracy":0.05371396,"title":"i+bought+a+man+a+pink+bra"}
{"id":6265987645,"url":"http://farm7.staticflickr.com/6117/6265987645_01d22d82d2.jpg","path":"cf2/b42/cf2b42c04eca648c1605444f35de22.jpg","date":"2011-10-21","year":2011,"month":10,"lon":-92.77953,"lat":38.933853,"tags":"brannan,instagram+app,iphoneography,square,square+format","S2CellId":"89b0c00000000000","result":8799,"accuracy":0.0032666307,"title":"I%27m+enjoying+an+exquisite+replica+of+Polo"}
{"id":5087298383,"url":"http://farm5.staticflickr.com/4086/5087298383_b7358165b1.jpg","path":"ba3/8e5/ba38e5ce2baf8942cdbd6d3bcbab5c6.jpg","date":"2010-10-16","year":2010,"month":10,"lon":-92.747116,"lat":38.97199,"tags":"abandonded,boonville,campus,derelict,fall,kemper,kemper+military+school,missouri,school","S2CellId":"89c7c00000000000","result":9180,"accuracy":0.06479971,"title":"Old+Kemper+Military+School+-+Boonville%2C+MO","description":"Pictures+from+the+long+abandonded+Kemper+Military+School+in+Boonville%2C+MO.++The+school+shut+down+in+2002+and+the+grounds+have+sent+empty+since.++The+city+of+Boonville+owns+the+property+and+the+fields+are+used+for+soccer+games+and+other+activities%2C+but+the+buildings+sit+falling+down+and+apart.++Mother+nature+and+vandals+have+taken+their+toll+over+the+years.++Pictures+are+from+the+fall+of+2010."}
{"id":5711834721,"url":"http://farm3.staticflickr.com/2731/5711834721_1679f5883a.jpg","path":"7b4/b1b/7b4b1b578e1f1fd37a8a48f8eef44e5.jpg","date":"2011-05-07","year":2011,"month":5,"lon":-92.32653,"lat":38.8689,"tags":"28-210,fungi,k-x,kiron,kiron+28-210mm,kiron+28-210mm+f%2F4-5.6,pentax,plants,superzoom","S2CellId":"4651000000000000","result":2842,"accuracy":0.004571763,"title":"Ferns+of+the+Devil%27s+Ice+Box","description":"Rock+Bridge+Memorial+State+Park%2C+Missouri.+Devil%27s+Ice+Box+is+a+sinkhole+where+the+roof+of+the+underground+river+cave+collapsed.+Even+at+the+hottest+days+of+summer+it+stays+cool%2C+providing+for+very+uncharacteristic+for+the+climate+vegetation+covering+the+walls+of+the+opening.%0A%0ATaken+with+Pentax+K-x+and+original+Kiron+28-210mm+f4-5.6+super-zoom."}
{"id":6662645,"url":"http://farm1.staticflickr.com/5/6662645_c094125339.jpg","path":"96a/cdd/96acddcd94243f85387b5377c290863a.jpg","date":"2004-04-03","year":2004,"month":4,"lon":-92.327225,"lat":38.944244,"tags":"columbia,como,flower,missouri,mizzou,mu,spring,tree,university","S2CellId":"6018640000000000","result":6457,"accuracy":0.10337686,"title":"DSC01922"}
{"id":4634036178,"url":"http://farm4.staticflickr.com/3329/4634036178_4c42c75d5b.jpg","path":"8fd/5aa/8fd5aae5c2fb2a4ea3d3084ce4ba9fe.jpg","date":"2010-05-23","year":2010,"month":5,"lon":-92.25672,"lat":38.604187,"tags":"blackeys+b%2Bw+film,hipstamatic,john+s+lens","S2CellId":"4667000000000000","result":2937,"accuracy":0.0035632614,"title":"HIP_296354713.040190"}
{"id":2447581204,"url":"http://farm4.staticflickr.com/3030/2447581204_1e23aa88b4.jpg","path":"482/e26/482e2658b93c9395fb2c4e45fd5afc.jpg","date":"2008-04-27","year":2008,"month":4,"lon":-92.34682,"lat":38.943047,"tags":"house,redbud,remodeling","S2CellId":"487d0c0000000000","result":5624,"accuracy":0.042444464,"title":"New+room","description":"Bamboo+floor%21"}
{"id":5197448132,"url":"http://farm5.staticflickr.com/4129/5197448132_e431838e5e.jpg","path":"18f/d3c/18fd3cbd9c06a68a2b58f81ead08b.jpg","date":"2010-11-20","year":2010,"month":11,"lon":-92.32979,"lat":38.95039,"tags":"columbia,deja+vu,missouri,mizzou","S2CellId":"876bec4000000000","result":7871,"accuracy":0.06587681,"title":"Former+Location+of+Deja+Vu","description":"Columbia%2C+Missouri"}
