{"id":2732951184,"url":"http://farm4.staticflickr.com/3223/2732951184_c8b337f305.jpg","path":"429/a43/429a4318a401767462dc12df8146d.jpg","date":"2008-07-20","year":2008,"month":7,"lon":13.698358,"lat":66.72444,"tags":"20080720,dag16,scandinavi%C3%AB","S2CellId":"463f000000000000","result":2783,"accuracy":0.15561996,"title":"Svartissen"}
{"id":8202785091,"url":"http://farm9.staticflickr.com/8340/8202785091_c76cacd87f.jpg","path":"23d/b91/23db915a075b3b8cbede45928c569a.jpg","date":"2012-11-04","year":2012,"month":11,"lon":13.642959,"lat":66.88913,"tags":"norway","S2CellId":"476dd00000000000","result":3375,"accuracy":0.062330425,"title":"IMG_7381"}
{"id":6052395445,"url":"http://farm7.staticflickr.com/6086/6052395445_50788bc131.jpg","path":"89c/411/89c411e91df1f4a8191d1e017ad2e15.jpg","date":"2011-07-21","year":2011,"month":7,"lon":13.777885,"lat":66.68092,"tags":"arctic,europe,geography,glacial+retreat,glaciation,ice,norway,svartisen+glacier","S2CellId":"4889300000000000","result":5756,"accuracy":0.07381767,"title":"Svartisen+Glacier+tongue","description":"The+%27black+ice%27+of+the+Svartisen+Glacier+has+a+blueish+tinge+in+sunlight."}
{"id":2921949373,"url":"http://farm4.staticflickr.com/3192/2921949373_7c31e5a478.jpg","path":"619/e96/619e96b6a5936272623cb63ba5d0fa3.jpg","date":"2008-07-02","year":2008,"month":7,"lon":13.485374,"lat":66.742615,"tags":"norv%C3%A8ge,norway,smarties+box","S2CellId":"5367000000000000","result":6044,"accuracy":0.082527414,"title":"Best+picnic+place+ever"}
{"id":2854719299,"url":"http://farm4.staticflickr.com/3180/2854719299_1847986842.jpg","path":"7f9/75b/7f975b3214bbe8349f1e951c3a2c0ba.jpg","date":"2008-06-28","year":2008,"month":6,"lon":13.332939,"lat":66.80983,"tags":"mel%C3%B8y,mountain,norway,sea","S2CellId":"961c000000000000","result":9868,"accuracy":0.37420836,"title":"Mountains+in+the+distance"}
{"id":2733006714,"url":"http://farm4.staticflickr.com/3144/2733006714_a101401a6b.jpg","path":"279/ea8/279ea88dd26da4cddb91ed45a87557b0.jpg","date":"2008-07-20","year":2008,"month":7,"lon":13.302339,"lat":66.2891,"tags":"20080720,dag16,scandinavi%C3%AB","S2CellId":"4674000000000000","result":2948,"accuracy":0.27015686,"title":"Rv17+Noorwegen"}
{"id":10519279784,"url":"http://farm4.staticflickr.com/3799/10519279784_c2d4548e74.jpg","path":"61a/783/61a783a09359eb14a6e244c0489f33eb.jpg","date":"2013-09-29","year":2013,"month":9,"lon":13.479788,"lat":66.79675,"tags":"birds,eagle,hurtigruten,l%C3%B8ktholmen,nature,norge,norway,scandinavia,sea+eagle,skj%C3%A5holmen,svartisen","S2CellId":"488e400000000000","result":5768,"accuracy":0.050452083,"title":"Sea+Eagles","description":"Near+L%C3%B8ktholmen+and+Skj%C3%A5holmen%2C+Norway"}
