{"id":2582654531,"url":"http://farm4.staticflickr.com/3045/2582654531_ffb62a3470.jpg","path":"758/4be/7584be64c71fd4ad3f54f6cccbeca7ed.jpg","date":"2008-04-19","year":2008,"month":4,"lon":-64.68201,"lat":10.177837,"tags":"acci%C3%B3n,action,boulevard,lights,luces,movimiento,night,noche,nocturno,paseo,paseo+col%C3%B3n,puerto+la+cruz,venezuela,walk","S2CellId":"31752f4700000000","result":1787,"accuracy":0.017101774,"title":"Paseo+Col%C3%B3n%2C+Puerto+la+Cruz"}
{"id":178697809,"url":"http://farm1.staticflickr.com/44/178697809_da45640651.jpg","path":"2a5/a41/2a5a41fec58699d7d9415f1114e6a52.jpg","date":"2006-03-26","year":2006,"month":3,"lon":-64.06366,"lat":10.86518,"tags":"isla+margarita,nude,nude+bird","S2CellId":"88d0a631cabb5071","result":8563,"accuracy":0.15190496,"title":"Tweet+Tweet","description":"Yes+it%27s+a+%22Nude+Bird%22.+Thanks+for+looking%2C+please+enjoy+all+my+other+pics+..."}
{"id":3890423828,"url":"http://farm4.staticflickr.com/3445/3890423828_d143bc86e0.jpg","path":"5cd/e93/5cde93112e760da3d456511836cde5b.jpg","date":"2009-08-21","year":2009,"month":8,"lon":-64.705864,"lat":10.211543,"tags":"barcelona,caracas,isla+margarita,porlamar,sabre,travel,venezuela,work","S2CellId":"144c000000000000","result":1197,"accuracy":0.17225988}
{"id":2092685762,"url":"http://farm3.staticflickr.com/2312/2092685762_b1ef64b542.jpg","path":"22c/8b4/22c8b4e444592be699b786c0d1cf220.jpg","date":"2007-11-18","year":2007,"month":11,"lon":-64.64287,"lat":10.219145,"tags":"aplusphoto,atardecer,barco,beach,cloud,diamondclassphotographer,flickrdiamond,jr2v,landscape,mar,muelle,mywinners,nube,paisaje,pelicano,playa,puertolacruz,sea,sun,sunset,venezuela","S2CellId":"4801700000000000","result":4748,"accuracy":0.020188991,"title":"La+Verdad","description":"Es+evidente+que+existe+la+verdad.+Porque+el+que+niega+que+existe+la+verdad%2C+conoce+que+la+verdad+existe.+Si%2C+pues%2C+no+existe+la+verdad%2C+es+verdad+que+la+verdad+no+existe.%0A%3Cb%3ESanto+Tom%C3%A1s+de+Aquino%3C%2Fb%3E.%0A%0ANo+se+porque+escog%C3%AD+el+titulo+y+la+frase+para+acompa%C3%B1ar+esta+foto%2C+si+miran+bien+ver%C3%A1n+que+en+una+de+mis+fotos+quise+mostrar+la+parte+bella+del+lugar%2C+quiza+hice+mal+en+ocultar+lo+dem%C3%A1s%2C+pues+la+verdad+es+que+es+as%C3%AD%2C+como+todo%2C+tiene+sus+partes+obscuras+y++feas%2C+pero+en+el+fondo+hay+algo+que+nos+hace+%C3%BAnicos."}
{"id":178698520,"url":"http://farm1.staticflickr.com/47/178698520_eac3e3f5d2.jpg","path":"ab7/e9e/ab7e9e94565559d125f7e5bbae563d7.jpg","date":"2006-03-26","year":2006,"month":3,"lon":-64.06416,"lat":10.862119,"tags":"isla+margarita","S2CellId":"1844000000000000","result":1428,"accuracy":0.05383977,"title":"Resize+of+DSC_1418"}
{"id":178699943,"url":"http://farm1.staticflickr.com/77/178699943_e2047d6950.jpg","path":"a37/8e9/a378e983cef7c432b402448e4bb2fb7.jpg","date":"2006-03-26","year":2006,"month":3,"lon":-64.06327,"lat":10.863947,"tags":"isla+margarita","S2CellId":"185c000000000000","result":1431,"accuracy":0.12007087,"title":"Resize+of+DSC_1485"}
{"id":178699133,"url":"http://farm1.staticflickr.com/72/178699133_425b723eea.jpg","path":"88c/e69/88ce697c26bcfa60791312c4e55196.jpg","date":"2006-03-26","year":2006,"month":3,"lon":-64.06409,"lat":10.861413,"tags":"isla+margarita","S2CellId":"40e4000000000000","result":2711,"accuracy":0.19834867,"title":"Resize+of+DSC_1446"}
{"id":232857595,"url":"http://farm1.staticflickr.com/82/232857595_43078c0db1.jpg","path":"615/e1f/615e1fd510fc3a9945be92f89ad1ebe.jpg","date":"2006-09-03","year":2006,"month":9,"lon":-64.16822,"lat":10.975572,"tags":"%28null%29,isla+margarita,la+restinga,venezuela","S2CellId":"8fa7000000000000","result":9567,"accuracy":0.08382258,"title":"La+Restinga+National+Park","description":"%3Ca+href%3D%22http%3A%2F%2Fmaps.google.com%3Fq%3D10.975572162082099%2C-64.1682243347168%28La+Restinga+National+Park%29%26t%3Dh%22%3ESee+where+this+picture+was+taken.%3C%2Fa%3E+%3Ca+href%3D%22http%3A%2F%2Fwww.flickr.com%2Fgroups%2Fgeotagging%2Fdiscuss%2F72157594165549916%2F%22%3E%5B%3F%5D%3C%2Fa%3E"}
{"id":6638682265,"url":"http://farm8.staticflickr.com/7156/6638682265_72cd925cdb.jpg","path":"ad4/6dd/ad46ddf4fee91ec8258bb5f83167045.jpg","date":"2012-01-04","year":2012,"month":1,"lon":-64.460045,"lat":10.258168,"tags":"anzo%C3%A1tegui,geography,mochima+national+park,playa+blanca,rv+vema,sv+mandalay,travel,venezuela","S2CellId":"3055c00000000000","result":1615,"accuracy":0.21478023,"title":"Mochima+National+Park+C21","description":"MOCHIMA+NATIONAL+PARK%2C+Venezuela+--+Okay%2C+so+maybe+finding+the+beautiful+beachcomber+wasn%27t+that+much+of+an+accident."}
{"id":114266027,"url":"http://farm1.staticflickr.com/38/114266027_632e0cc842.jpg","path":"b9f/eb3/b9feb3f57a6ad6419a51cb6bbdbfa1f0.jpg","date":"2006-02-27","year":2006,"month":2,"lon":-64.622955,"lat":10.236292,"tags":"dts,mdts,outreach,puerto+la+cruz,venezuela,ywam","S2CellId":"9689d00000000000","result":9910,"accuracy":0.07805192,"title":"DSC09942"}
{"id":114267578,"url":"http://farm1.staticflickr.com/45/114267578_c4124d3f36.jpg","path":"157/9de/1579de2ae946c4319754c05ced80686f.jpg","date":"2006-03-01","year":2006,"month":3,"lon":-64.622955,"lat":10.236292,"tags":"dts,mdts,outreach,puerto+la+cruz,venezuela,ywam","S2CellId":"9aab000000000000","result":9926,"accuracy":0.10041461,"title":"DSC00138","description":"iguana"}
{"id":9186013791,"url":"http://farm4.staticflickr.com/3693/9186013791_9d2001735d.jpg","path":"e13/1a0/e131a0a4acf9ab351f94c82a494b2f2.jpg","date":"2013-06-29","year":2013,"month":6,"lon":-64.6065,"lat":10.291333,"tags":"anzoategui,el,faro,mar,mochima,ocean,oceano,sea","S2CellId":"7c00100000000000","result":6878,"accuracy":0.05672102}
{"id":2535647637,"url":"http://farm4.staticflickr.com/3158/2535647637_2de90d532f.jpg","path":"e0c/08b/e0c08bc249e5f83834d788063feb.jpg","date":"2008-05-22","year":2008,"month":5,"lon":-64.17783,"lat":10.474814,"tags":"10x,4x,agua,air,albahaca,art,back,basil,beach,big,blonde,blow,blue,boom,core,d40,dead,devil,dof,eveil,evil,flor,flower,fun,funny,girl,god,good,green,heart,heat,javier,javier+d.+volcan+r.,javier+david+volcan+romano,javier+volcan,jdvolcan,king,lens,lente,life,live,love,macro,mail,mas,mes,mine,miss,more,nature,nice,nikon,nine,old,pan,party,people,pool,prince,sex,shadows,six,sky,soap,sox,tiffen,ups,venezuela,volcan,water","S2CellId":"6ad642a400000000","result":6620,"accuracy":0.008999262,"title":"Basil+Flower"}
{"id":2193754925,"url":"http://farm3.staticflickr.com/2127/2193754925_90b6d62198.jpg","path":"6da/836/6da836597e82aced9eee742cf2f82d81.jpg","date":"2007-12-26","year":2007,"month":12,"lon":-64.605446,"lat":10.291865,"tags":"beach,landscape,lighthouse,mountain,ocean,people,venezuela","S2CellId":"3471b00000000000","result":2239,"accuracy":0.07038413,"title":"2007-12+Lighthouse+Island+04"}
