{"id":5484915463,"url":"http://farm6.staticflickr.com/5213/5484915463_43a4499a3e.jpg","path":"891/6e7/8916e743f6253f92fd7dfd54f8d1d0da.jpg","date":"2011-02-28","year":2011,"month":2,"lon":-48.966667,"lat":-21.133333,"tags":"brazil,catanduva,citydoku,sao+paulo,sudoku,yourdoku","S2CellId":"8852c00000000000","result":8415,"accuracy":0.12221285,"title":"Catanduva","description":"This+is+a+solvable+sudoku+made+with+the+characters+of+Catanduva+city+from+Sao+Paulo+in+Brazil.%0A%0AView+%3Ca+href%3D%22http%3A%2F%2Fwww.yourdoku.com%2Fcity%2Fcatanduvadoku%22+rel%3D%22nofollow%22%3Ecatanduvadoku%3C%2Fa%3E+or+make+your+own+design+at+%3Ca+href%3D%22http%3A%2F%2Fyourdoku.com%22+rel%3D%22nofollow%22%3Eyourdoku.com%3C%2Fa%3E"}
{"id":6622467077,"url":"http://farm8.staticflickr.com/7152/6622467077_6e14a86c81.jpg","path":"e21/762/e21762f4204ae62baa9e65c4ee3cfa0.jpg","date":"2011-12-27","year":2011,"month":12,"lon":-48.177452,"lat":-21.789469,"tags":"araraquara,christmas","S2CellId":"1030000000000000","result":645,"accuracy":0.0075162323,"title":"Araraquara"}
{"id":44795953,"url":"http://farm1.staticflickr.com/26/44795953_2c448758cb.jpg","path":"aee/33e/aee33e98efab9abd5b74a5dba89472c7.jpg","date":"2005-09-19","year":2005,"month":9,"lon":-48.17505,"lat":-21.78086,"tags":"araraquara,beetle,bug,deleteme,deleteme10,deleteme2,deleteme3,deleteme4,deleteme5,deleteme6,deleteme7,deleteme8,deleteme9,e100vs,lc-a,lomo,saveme,saveme2,saveme3,saveme4,saveme5,saveme6,saveme7,yellow","S2CellId":"808ff00000000000","result":7083,"accuracy":0.010703202,"title":"Fuca","description":"Not+edited"}
{"id":3149334068,"url":"http://farm4.staticflickr.com/3230/3149334068_1a8764339d.jpg","path":"6ee/89a/6ee89a60973369805d3b1f5b867b5bde.jpg","date":"2008-12-19","year":2008,"month":12,"lon":-48.30021,"lat":-21.249025,"tags":"jaboticabal,unesp","S2CellId":"94c4000000000000","result":9684,"accuracy":0.16471413,"title":"...","description":"Unesp%2FJaboticabal%28SP%29%2C+19%2F12%2F2008"}
{"id":8183529045,"url":"http://farm9.staticflickr.com/8347/8183529045_0ae80b685e.jpg","path":"2b9/051/2b905162fae69cd2b9644116eb74df.jpg","date":"2012-11-13","year":2012,"month":11,"lon":-48.008278,"lat":-21.140303,"tags":"acg,cart%C3%A3o,konig,layout,rafaelcg,sert%C3%A3ozinho,thekonig","S2CellId":"3135ab4000000000","result":1744,"accuracy":0.0071917814,"title":"ACG+%28Cart%C3%A3o+de+Visitas+frente%29","description":"Parte+frontal+do+cart%C3%A3o+de+visitas+da+empresa+ACG"}
{"id":5546820592,"url":"http://farm6.staticflickr.com/5291/5546820592_5164382ef8.jpg","path":"e05/ad9/e05ad9d43927a5c4b16c645b65f1c876.jpg","date":"2011-03-21","year":2011,"month":3,"lon":-48.347824,"lat":-21.256216,"tags":"135,35,brasil,brazil,experimental,expired,farm,fazenda,film,filme,itauna,jaboticabal,lomo,lomografia,lomography,negativo,piscina,pool,s%C3%A3opaulo,sampa,saopaulo,sp,supersampler,vencido","S2CellId":"2b40000000000000","result":1520,"accuracy":0.116301246,"title":"Fazenda+Itauna"}
{"id":5546241681,"url":"http://farm6.staticflickr.com/5092/5546241681_010b893dea.jpg","path":"e22/5c5/e225c5b9329b117aba9766d82cb34b7a.jpg","date":"2011-03-21","year":2011,"month":3,"lon":-48.347824,"lat":-21.256216,"tags":"135,35,brasil,brazil,experimental,expired,farm,fazenda,film,filme,itauna,jaboticabal,lomo,lomografia,lomography,negativo,piscina,pool,s%C3%A3opaulo,sampa,saopaulo,sp,supersampler,vencido","S2CellId":"2cb0000000000000","result":1530,"accuracy":0.19656086,"title":"Fazenda+Itauna"}
{"id":10226182683,"url":"http://farm6.staticflickr.com/5340/10226182683_19610e164e.jpg","path":"daf/5a2/daf5a22da3ebf8f1488a50b2eed2414.jpg","date":"2013-10-12","year":2013,"month":10,"lon":-48.025803,"lat":-21.125486,"tags":"hefe,instagram+app,iphoneography,square,square+format","S2CellId":"00bf000000000000","result":68,"accuracy":0.06317104,"title":"Feliz+dia+das+crian%C3%A7as%21%21%21+%23behappy"}
{"id":8476764285,"url":"http://farm9.staticflickr.com/8376/8476764285_814a85fac7.jpg","path":"af1/ba8/af1ba84279d934bacb291a8b452d7f9.jpg","date":"2013-01-24","year":2013,"month":1,"lon":-48.177452,"lat":-21.789469,"tags":"araraquara,holidays,santo+onofre","S2CellId":"60013c0000000000","result":6413,"accuracy":0.014208387,"title":"33%C2%AA+Santo+Onofre"}
{"id":2281265496,"url":"http://farm4.staticflickr.com/3150/2281265496_384180ed10.jpg","path":"5e8/91e/5e891e677acd6b6bd732c1e7df8f4a.jpg","date":"2008-02-20","year":2008,"month":2,"lon":-48.13488,"lat":-21.748178,"tags":"alijenu,araraquara,borboleta,naturesfinest,renato,seabra,seabraarte,the+perfect+photographer","S2CellId":"89c3700000000000","result":9120,"accuracy":0.019305037,"title":"Borboleta"}
{"id":2286319250,"url":"http://farm3.staticflickr.com/2199/2286319250_a8bf658e58.jpg","path":"55e/f56/55ef5628fe025788ede93676d41d2d.jpg","date":"2008-02-23","year":2008,"month":2,"lon":-48.13488,"lat":-21.748178,"tags":"123bw,alijenu,araraquara,betterthangood,bicicleta,bicycle,broken,descompuesta,diamondclassphotographer,f.a.b.,flickrdiamond,platinumphoto,quebrada,renato,seabra,seabraarte,theunforgettablepictures","S2CellId":"472c000000000000","result":3253,"accuracy":0.0024144284,"title":"No+more+special"}
{"id":2237388235,"url":"http://farm3.staticflickr.com/2079/2237388235_26919afe42.jpg","path":"9e2/84f/9e284fb544e1bdb9ad5859b5c2981a51.jpg","date":"2007-11-05","year":2007,"month":11,"lon":-48.520603,"lat":-21.274818,"tags":"wonderful+world+of+flowers","S2CellId":"47abc00000000000","result":3957,"accuracy":0.010986135,"title":"20071105_212606.jpg"}
{"id":4967549575,"url":"http://farm5.staticflickr.com/4130/4967549575_7fa1f6a389.jpg","path":"0a2/e15/0a2e15334fd59814b8cdb4e6a0c785.jpg","date":"2010-09-04","year":2010,"month":9,"lon":-48.346622,"lat":-21.257336,"tags":"android,camera,cell,digital,droid,milestone,motorola,phone,vignette","S2CellId":"94cc400000000000","result":9693,"accuracy":0.004571913,"title":"1283634818262"}
