{"id":7045347567,"url":"http://farm6.staticflickr.com/5040/7045347567_fcbab77468.jpg","path":"3fb/08d/3fb08d18807eca5cc364ef6e45895e.jpg","date":"2012-03-25","year":2012,"month":3,"lon":16.4205,"lat":41.278,"tags":"italy,puglia,trani","S2CellId":"1347c00000000000","result":1164,"accuracy":0.5757662,"title":"Trani"}
{"id":1459256149,"url":"http://farm2.staticflickr.com/1083/1459256149_207e7a3cd8.jpg","path":"289/949/2899496c563af6a8bf5051a72521b73f.jpg","date":"2007-09-28","year":2007,"month":9,"lon":16.87029,"lat":41.131886,"tags":"barcamp,barcamp+bollentispiriticreativecamp,barcampitalia,bollentispiriticreativecamp","S2CellId":"1470000000000000","result":1222,"accuracy":0.14130472,"title":"BS+CreativeCampers+23","description":"Bari+-+Monastero+di+Santa+Scolastica%2C+28+settembre+2007"}
{"id":4726872196,"url":"http://farm2.staticflickr.com/1136/4726872196_534b94056a.jpg","path":"61e/1eb/61e1ebbb093bc80908d9a0af59dbf9.jpg","date":"2010-06-21","year":2010,"month":6,"lon":16.878626,"lat":41.108524,"tags":"bari,convegno,ecologia,mobilit%C3%A0,politecnico,tekneco,territorio","S2CellId":"0d19331000000000","result":217,"accuracy":0.16399994,"title":"apertura+dei+lavori"}
{"id":5645770924,"url":"http://farm6.staticflickr.com/5103/5645770924_b7b299d551.jpg","path":"6b4/da3/6b4da39b1cd1c1e98ff2a02510bd2dbb.jpg","date":"2011-04-22","year":2011,"month":4,"lon":16.872875,"lat":41.1237,"tags":"amos+oz,fabio+vacchi,federico+tiezzi,gae+aulenti,lo+stesso+mare,sandro+lombardi","S2CellId":"883cae5000000000","result":8363,"accuracy":0.029256111,"title":"lo+stesso+mare"}
{"id":2365087388,"url":"http://farm4.staticflickr.com/3151/2365087388_7b7e38f5b0.jpg","path":"ef8/9ca/ef89ca236ad493bf4a5f26feb732858b.jpg","date":"2007-10-04","year":2007,"month":10,"lon":16.279593,"lat":41.322105,"tags":"30d,barletta,canon","S2CellId":"4804400000000000","result":4751,"accuracy":0.0395647,"title":"Barletta","description":"view+from+a+building"}
{"id":3432162982,"url":"http://farm4.staticflickr.com/3553/3432162982_f2292d91c4.jpg","path":"21c/af7/21caf712aa41a45dc65ca4557c3b10c7.jpg","date":"2008-08-01","year":2008,"month":8,"lon":16.869658,"lat":41.11812,"tags":"bari,ferrovia,puglia,stazione,stazione+bari,stazione+ferroviaria,trasporti,trasporti+bari","S2CellId":"94ce585c00000000","result":9713,"accuracy":0.074680746,"title":"stazione+ferroviaria+Bari+2008_08_01+20","description":"Stazione+Ferroviaria+di+Bari+Centrale+-+01+agosto+2008"}
{"id":4727943194,"url":"http://farm2.staticflickr.com/1076/4727943194_68d54a1564.jpg","path":"c04/61f/c0461f717f0c952185c81a09846f060.jpg","date":"2010-06-22","year":2010,"month":6,"lon":16.878626,"lat":41.108524,"tags":"bari,bioedilizia,convegno,ecologia,free+press,politecnico+di+bari,puglia,rinnovabili,tekneco,territorio","S2CellId":"0d19331000000000","result":217,"accuracy":0.5184453,"title":"il+Prof.+Attolico%2C+Universit%C3%A0+di+Padova"}
{"id":2717122941,"url":"http://farm4.staticflickr.com/3103/2717122941_7b3f2f6185.jpg","path":"22b/198/22b198137e8db8f1629e27ee97182e9.jpg","date":"2009-02-09","year":2009,"month":2,"lon":16.874527,"lat":41.102814,"tags":"44m-4,58%2F2,58mm,a+day+at+the+park,bari,bianco,bizz0k0,cazzeggio,china,cinese,film,gigi,gigitzu,helios,italia,italy,luigi,m42,parco,pellicola,scorcia,white,zenit+et","S2CellId":"89b7b7a100000000","result":8864,"accuracy":0.056322884,"title":"A+day+at+the+park","description":"Alla+fine+si+%C3%A8+fatta+male%2C+eccola+con+il+perito+dell%27assicurazione...%0AZenit+ET+%2B+Helios+44M-4+58%2F2"}
{"id":3402084649,"url":"http://farm4.staticflickr.com/3664/3402084649_e586c4b47a.jpg","path":"67c/c2a/67cc2a689a2116c14317ccd2f1d6c5.jpg","date":"2009-03-31","year":2009,"month":3,"lon":16.872713,"lat":41.128155,"tags":"bari,bianco,bizz0k0,bn,bw,china,cinese,gi%C3%A0+che+c%27ero,gigi,gigitzu,luigi,scale,scorcia,stairs,vecchia,white","S2CellId":"4776907000000000","result":3414,"accuracy":0.019897118,"title":"gia+che+c%27ero+%282%29","description":"angosciosa"}
{"id":8687228653,"url":"http://farm8.staticflickr.com/7050/8687228653_b79cec4cb0.jpg","path":"e3d/e4f/e3de4fd32c461ece5b46d39101c2c60.jpg","date":"2006-12-29","year":2006,"month":12,"lon":16.869602,"lat":41.130272,"tags":"bari,basilica,chiesa,italy,nicola,puglia,san+nicola","S2CellId":"8e81000000000000","result":9489,"accuracy":0.05767576,"title":"Bari+%28BA%29%2C+2006%2C+Basilica+di+San+Nicola.","description":"%3Cb%3EWikipedia%3A+%3Ca+href%3D%22http%3A%2F%2Fit.wikipedia.org%2Fwiki%2FBari%22+rel%3D%22nofollow%22%3EBari%3C%2Fa%3E%3B+%3Ca+href%3D%22http%3A%2F%2Fit.wikipedia.org%2Fwiki%2FBasilica_di_San_Nicola%22+rel%3D%22nofollow%22%3EBasilica+di+San+Nicola%3C%2Fa%3E%3B+%3Ca+href%3D%22http%3A%2F%2Fit.wikipedia.org%2Fwiki%2FCastello_Normanno-Svevo_%28Bari%29%22+rel%3D%22nofollow%22%3ECastello+Normanno+-+Svevo%3C%2Fa%3E%3C%2Fb%3E"}
{"id":6901402836,"url":"http://farm8.staticflickr.com/7245/6901402836_2fc2663a0e.jpg","path":"ad9/260/ad926071757714709a3ae8599eb4216.jpg","date":"2012-03-22","year":2012,"month":3,"lon":16.139166,"lat":41.865166,"tags":"italy,puglia","S2CellId":"0d3d000000000000","result":329,"accuracy":0.06559163,"title":"Puglia+countryside"}
{"id":5083957205,"url":"http://farm5.staticflickr.com/4128/5083957205_f6f17238c6.jpg","path":"e8f/c72/e8fc72431d64c811dbc720ee4f9e53e6.jpg","date":"2010-10-15","year":2010,"month":10,"lon":16.67333,"lat":41.18431,"tags":"365,365+project,fake+vintage,falso+vintage,giovinazzo,hipstamatic,iphone,lomo,lomografia,lomography,lomora,low+fi,polarize,progetto+365,vintage","S2CellId":"5495a0b000000000","result":6261,"accuracy":0.007174296,"title":"045%2F365","description":"Il+cavaliere+del+pulito%3A+una+scopa+per+lancia%2C+una+bici+per+destriero...%0A%0AThe+cleaning+knight%3A+a+brush+as+spare%2C+a+bike+for+horse"}
{"id":5268867038,"url":"http://farm6.staticflickr.com/5288/5268867038_e73ef1a434.jpg","path":"1e9/efd/1e9efd2c89fd50518883e43576552370.jpg","date":"2010-12-17","year":2010,"month":12,"lon":16.6726,"lat":41.184635,"tags":"365,365+project,fake+vintage,falso+vintage,giovinazzo,hipstamatic,iphone,lomo,lomografia,lomography,lomora,low+fi,polarize,progetto+365,vintage","S2CellId":"87bb000000000000","result":7950,"accuracy":0.015708037,"title":"Vecchie+jeans+-+An+old+Jeans","description":"%2B+smoking+lighter"}
{"id":38653045,"url":"http://farm1.staticflickr.com/29/38653045_b73cc07d6b.jpg","path":"9b5/08f/9b508fac2ac66d5fe237ce5a34c458.jpg","date":"2006-10-17","year":2006,"month":10,"lon":16.16226,"lat":41.892567,"tags":"black+ribbon+icon","S2CellId":"0730000000000000","result":95,"accuracy":0.03131199}
{"id":152074609,"url":"http://farm1.staticflickr.com/54/152074609_03c55e2c93.jpg","path":"d69/ed3/d69ed34933e0246a5c7cae0ad46a299.jpg","date":"2006-04-17","year":2006,"month":4,"lon":16.282082,"lat":41.329002,"tags":"barletta,castello","S2CellId":"89b7b73000000000","result":8848,"accuracy":0.014718325,"title":"Castello+di+Barletta+-+mostra+burattini+14","description":"Barletta+%28BA%29%2C+1+maggio+2006"}
{"id":2358112990,"url":"http://farm3.staticflickr.com/2112/2358112990_3fe09df869.jpg","path":"179/65d/17965d11862e2aefef47744458ec9e.jpg","date":"2008-03-22","year":2008,"month":3,"lon":16.01429,"lat":41.93306,"tags":"foggiaedintorni,gargano,vieste","S2CellId":"5495a0b000000000","result":6261,"accuracy":0.091842264,"title":"Francesco","description":"Vieste%2C+22+marzo+2008"}
{"id":9052738914,"url":"http://farm8.staticflickr.com/7283/9052738914_a4cf1c6997.jpg","path":"73c/edf/73cedf55a05dcbf2916ec178a380399b.jpg","date":"2013-06-15","year":2013,"month":6,"lon":16.174734,"lat":41.867085,"tags":"instagram+app,iphoneography,square,square+format,walden","S2CellId":"12ba700000000000","result":822,"accuracy":0.03969945,"title":"%23vieste+%23gargano+%23italia+%23mare+%23sea"}
{"id":2425655864,"url":"http://farm3.staticflickr.com/2130/2425655864_64bb804bbf.jpg","path":"e8f/926/e8f926e32f5df6cd5d4914742268f53.jpg","date":"2004-10-01","year":2004,"month":10,"lon":16.866074,"lat":41.127083,"tags":"2004,bari,elis,puglia,viaggio","S2CellId":"9aab000000000000","result":9926,"accuracy":0.04352452,"title":"Costa+Bari"}
{"id":1459183227,"url":"http://farm2.staticflickr.com/1119/1459183227_c59db60cee.jpg","path":"848/1dd/8481ddf1dce7a983834db733f0ea5cf1.jpg","date":"2007-09-28","year":2007,"month":9,"lon":16.87029,"lat":41.131886,"tags":"barcamp,barcamp+bollentispiriticreativecamp,barcampitalia,bollentispiriticreativecamp","S2CellId":"0d379c0000000000","result":323,"accuracy":0.1488892,"title":"BS+CreativeCampers+10","description":"Bari+-+Monastero+di+Santa+Scolastica%2C+28+settembre+2007"}
{"id":8677872146,"url":"http://farm9.staticflickr.com/8406/8677872146_52054e76d3.jpg","path":"8e9/c60/8e9c606ac6de4be128d7adf8d6a82149.jpg","date":"2006-05-01","year":2006,"month":5,"lon":16.68952,"lat":41.107002,"tags":"bitonto,italy,puglia","S2CellId":"150329cc00000000","result":1362,"accuracy":0.022568054,"title":"Bitonto+%28BA%29%2C+2006.","description":"%3Cb%3EWikipedia%3A+%3Ca+href%3D%22http%3A%2F%2Fit.wikipedia.org%2Fwiki%2FBitonto%22+rel%3D%22nofollow%22%3EBitonto%3C%2Fa%3E.%3C%2Fb%3E"}
{"id":5671713629,"url":"http://farm6.staticflickr.com/5105/5671713629_92201b45e9.jpg","path":"592/b17/592b174d67c3242ef3ffec0c2198e64.jpg","date":"2011-04-27","year":2011,"month":4,"lon":16.872875,"lat":41.1237,"tags":"bari,lo+stesso+mare,teatro+petruzzelli","S2CellId":"47f4ebc000000000","result":4722,"accuracy":0.032406304,"title":"teatro+petruzzelli"}
{"id":2951939988,"url":"http://farm4.staticflickr.com/3154/2951939988_057f36a533.jpg","path":"4e2/9d1/4e29d15e5f8055d5b1e412e669e4f71e.jpg","date":"2008-09-16","year":2008,"month":9,"lon":16.416664,"lat":41.280903,"tags":"apuglia,italia,italy,puglia,trani","S2CellId":"1347c00000000000","result":1164,"accuracy":0.10719621,"title":"Passage"}
{"id":5672301918,"url":"http://farm6.staticflickr.com/5267/5672301918_77f6c0684b.jpg","path":"77e/092/77e09232943f319425317f2b07119b0.jpg","date":"2011-04-29","year":2011,"month":4,"lon":16.872875,"lat":41.1237,"tags":"bari,lo+stesso+mare,teatro+petruzzelli","S2CellId":"87c7000000000000","result":7980,"accuracy":0.14232221,"title":"teatro+petruzzelli"}
{"id":2521302388,"url":"http://farm4.staticflickr.com/3207/2521302388_a901440423.jpg","path":"277/8fb/2778fbe8b2d832c62ea093b62699ec20.jpg","date":"2008-05-25","year":2008,"month":5,"lon":16.925093,"lat":41.01232,"tags":"bicicletta,campagna,campaign,cellamare,cycling,italia,italy,landscape,natura,nature,south+italy,spring","S2CellId":"876c900000000000","result":7897,"accuracy":0.011892021,"title":"Campagna+cellamarese","description":"Cycling+through+Cellamare%27s+campaigns+with+my+trusty+Nokia+N82+in+a+wonderful+May+sunny+day"}
{"id":8203538283,"url":"http://farm9.staticflickr.com/8340/8203538283_b15f405df4.jpg","path":"13b/8d3/13b8d33a56fc3a771283162fd8c3f.jpg","date":"2012-10-07","year":2012,"month":10,"lon":16.865503,"lat":41.1248,"tags":"2012,apulia,bari,europe,italia,italy,puglia,travel","S2CellId":"132e900000000000","result":1057,"accuracy":0.13479704,"title":"Bari+0973"}
{"id":5404132201,"url":"http://farm6.staticflickr.com/5133/5404132201_5721a8f93c.jpg","path":"83d/53b/83d53b11ffccaba4d16ce5c0d37a4c2.jpg","date":"2011-01-31","year":2011,"month":1,"lon":16.67144,"lat":41.188305,"tags":"365,365+project,fake+vintage,falso+vintage,giovinazzo,hipstamatic,iphone,lomo,lomografia,lomography,lomora,low+fi,polarize,progetto+365,vintage","S2CellId":"880e2ca100000000","result":8116,"accuracy":0.038731303,"title":"Miriam+the+Joker","description":"One+of+my+wonderfull+models%21%0A%0AUna+delle+mie+bellissime+modelle"}
{"id":864737755,"url":"http://farm2.staticflickr.com/1332/864737755_2db7ed736f.jpg","path":"17f/c61/17fc61f87889d6849ac478e46721c6fc.jpg","date":"2007-06-25","year":2007,"month":6,"lon":16.503996,"lat":41.24472,"tags":"bisceglie,boats,fishing,italy,port,sea","S2CellId":"1347c00000000000","result":1164,"accuracy":0.40467548,"title":"Bisceglie%2C+fishing+port"}
{"id":5080377903,"url":"http://farm5.staticflickr.com/4040/5080377903_9cbd1c12a7.jpg","path":"a63/51a/a6351a63c328528f582f1acce16fd4c.jpg","date":"2010-10-05","year":2010,"month":10,"lon":16.27563,"lat":41.08185,"tags":"castel+del+monte,castle,flickr,octagon,ottagono,puglia,sky","S2CellId":"132e900000000000","result":1057,"accuracy":0.120449744,"title":"The+octagonal+eye","description":"From+internal+courtyard+of+Castle+del+Monte%2C+Puglia"}
{"id":2479255988,"url":"http://farm4.staticflickr.com/3103/2479255988_5620a9f67b.jpg","path":"30a/8ce/30a8ced58cb92449401e83e24a61795a.jpg","date":"2009-02-10","year":2009,"month":2,"lon":16.878803,"lat":41.122894,"tags":"28mm,400iso,bari,bianco,bizz0k0,bn,bw,china,cinese,comizio,film,gigi,gigitzu,italia,italy,luigi,m42,ozeck,pellicola,scorcia,white,zenit+et","S2CellId":"12a4a2f100000000","result":728,"accuracy":0.26190415,"title":"comizio_02","description":"Zenit+ET+%2B+Ozeck+28%2F2.8+400ISO"}
{"id":89256929,"url":"http://farm1.staticflickr.com/13/89256929_15d24a8ea8.jpg","path":"133/4dc/1334dc9f7c64ab779a80c82d8fda5d4a.jpg","date":"2009-01-04","year":2009,"month":1,"lon":16.552221,"lat":41.130444,"tags":"bari,italy,mirror,portrait,terlizzi","S2CellId":"94ce59f000000000","result":9723,"accuracy":0.017746842,"title":"Mirror","description":"Terlizzi+%28Bari%29+-+May+1996"}
{"id":2480937276,"url":"http://farm3.staticflickr.com/2310/2480937276_bcd910b8c6.jpg","path":"24d/9ef/24d9efb0cb5bc85f57ec7ec5cfd7b7ad.jpg","date":"2008-05-10","year":2008,"month":5,"lon":16.867704,"lat":41.127518,"tags":"bari,ragazzi+per+l%27unit%C3%A0,run4unity,teens+for+unity","S2CellId":"0d15c00000000000","result":207,"accuracy":0.08325779,"title":"Bari"}
{"id":5645751248,"url":"http://farm6.staticflickr.com/5026/5645751248_c056e29a3c.jpg","path":"d61/f4a/d61f4a1974877f61a219d9515ba1345f.jpg","date":"2011-04-22","year":2011,"month":4,"lon":16.872875,"lat":41.1237,"tags":"amos+oz,fabio+vacchi,federico+tiezzi,gae+aulenti,lo+stesso+mare,sandro+lombardi","S2CellId":"6b12ae5c00000000","result":6691,"accuracy":0.022365583,"title":"lo+stesso+mare"}
{"id":2478459347,"url":"http://farm3.staticflickr.com/2238/2478459347_874eb6723d.jpg","path":"9e4/d8f/9e4d8fb8571d22c24825c826c620d292.jpg","date":"2009-02-10","year":2009,"month":2,"lon":16.876083,"lat":41.100925,"tags":"28mm,400iso,bari,bianco,bizz0k0,china,cinese,film,gigi,gigitzu,italia,italy,luigi,m42,ozeck,pellicola,scorcia,vivicitt%C3%A0,white,zenit+et","S2CellId":"12a6f00000000000","result":767,"accuracy":0.058175486,"title":"vivicitt%C3%A0+Bari+6-4-08+15","description":"Oddio+mi+inseguonooooooooooo%0A%0AZenit+ET+%2B+Ozeck+28%2F2.8+400ISO"}
{"id":3852022334,"url":"http://farm4.staticflickr.com/3488/3852022334_59c369f24f.jpg","path":"449/287/44928799164c3eca6393e731e979eb5.jpg","date":"2009-08-16","year":2009,"month":8,"lon":16.271095,"lat":41.084656,"tags":"castel,del,monte","S2CellId":"134c100000000000","result":1170,"accuracy":0.02440237,"title":"DSCN2605"}
{"id":8564720960,"url":"http://farm9.staticflickr.com/8370/8564720960_532fe53b50.jpg","path":"bc5/711/bc57112647d91b76615fc19a7888a261.jpg","date":"2013-03-17","year":2013,"month":3,"lon":16.551847,"lat":41.206524,"tags":"afternoon,kids,mall,parents,reportage,saturday,shop,shopping,street,trolley","S2CellId":"4cc91a5100000000","result":5890,"accuracy":0.052358054,"title":"F%28ratelli%29","description":"Reportage+%C2%A7+%22Mini+people+mall%22.%0A%0A%3Ca+href%3D%22http%3A%2F%2Fwww.hypereyed.it.pn%2F%22+rel%3D%22nofollow%22%3Ewww.hypereyed.it.pn%2F%3C%2Fa%3E"}
{"id":5627526338,"url":"http://farm6.staticflickr.com/5063/5627526338_5e7b1364b1.jpg","path":"a7e/b71/a7eb717216d54fd63fa0987be129c38a.jpg","date":"2011-04-15","year":2011,"month":4,"lon":16.872875,"lat":41.1237,"tags":"amos+oz,bari,fabio+vacchi,federico+tiezzi,sandro+lombardi","S2CellId":"0d126c1400000000","result":190,"accuracy":0.49627748,"title":"bari"}
{"id":8534530328,"url":"http://farm9.staticflickr.com/8247/8534530328_b2c55c34bc.jpg","path":"81a/65e/81a65eb79f7b50ec8a99191a5efdf475.jpg","date":"2012-03-05","year":2012,"month":3,"lon":16.587767,"lat":41.194496,"tags":"boundaries,grass,italy,landscape,meadow,mediterranean,molfetta,pinus,puglia,south,spontaneous,urban,vegetation","S2CellId":"8620a5c000000000","result":7508,"accuracy":0.011161658,"title":"Meadow+%231","description":"close+to+the+boundary+of+the+town+%0A%3Ca+href%3D%22http%3A%2F%2Fbighugelabs.com%2Fonblack.php%3Fid%3D8534530328%26size%3Dlarge%22+rel%3D%22nofollow%22%3Ebetter+large+on+black%3C%2Fa%3E"}
{"id":3938723198,"url":"http://farm3.staticflickr.com/2425/3938723198_df80fedf4c.jpg","path":"f82/0fa/f820faa1629fd59dfec6984facbc84cc.jpg","date":"2009-08-23","year":2009,"month":8,"lon":16.150782,"lat":41.906837,"tags":"duo,foggia,italia,mare,parenti,ritratto,vieste,zeiler+oliver,zeiler+olli%27s,zeiler+vincentz","S2CellId":"1367000000000000","result":1190,"accuracy":0.045406155,"title":"Vincent+con+pap%C3%83"}
{"id":2953258818,"url":"http://farm4.staticflickr.com/3289/2953258818_e0e9a47335.jpg","path":"e65/410/e6541016e7be8b915b42e59c1b2ac952.jpg","date":"2008-09-16","year":2008,"month":9,"lon":16.416664,"lat":41.280903,"tags":"apuglia,italia,italy,puglia,trani","S2CellId":"12dcc00000000000","result":939,"accuracy":0.28764853,"title":"Trani"}
{"id":2953257848,"url":"http://farm4.staticflickr.com/3144/2953257848_653ef07a9e.jpg","path":"498/9e4/4989e4f0f3f7c75594a1093b479a79.jpg","date":"2008-09-16","year":2008,"month":9,"lon":16.416664,"lat":41.280903,"tags":"apuglia,italia,italy,puglia,trani","S2CellId":"1347c00000000000","result":1164,"accuracy":0.33147302}
{"id":7044410385,"url":"http://farm8.staticflickr.com/7059/7044410385_b49feb8d0a.jpg","path":"f8e/e85/f8ee856172858a306e8a61ab64cf33.jpg","date":"2012-03-22","year":2012,"month":3,"lon":16.178165,"lat":41.885334,"tags":"italy,puglia,vieste","S2CellId":"0d2f6c0000000000","result":298,"accuracy":0.03695656,"title":"Vieste"}
{"id":9166581761,"url":"http://farm6.staticflickr.com/5453/9166581761_3b3f18d19e.jpg","path":"e3b/8b5/e3b8b5f981fb1c6b79394ee2b3117d.jpg","date":"2013-06-29","year":2013,"month":6,"lon":16.173248,"lat":41.88081,"tags":"italia,mare,puglia,trabucco,vieste","S2CellId":"0d72400000000000","result":589,"accuracy":0.07812911,"title":"Trabucco","description":"Trabucco+a+Vieste+in+Puglia"}
{"id":2747349390,"url":"http://farm4.staticflickr.com/3266/2747349390_e43605a932.jpg","path":"8ca/231/8ca231862be3f1d78f8d83858220f6bf.jpg","date":"2008-08-08","year":2008,"month":8,"lon":16.304096,"lat":41.23167,"tags":"andria,animale,animali,apulia,arte+di+strada,ba,bari,bat,bt,ego,equino,graffiti,graffito,puglia,stencil,street+art,via+raffaello+sanzio,zebra,zebras","S2CellId":"88d9b6c000000000","result":8600,"accuracy":0.009463177,"title":"Ego+Zebra","description":"Stencil+in+via+Raffaello+Sanzio+by+Ego.+%0AAndria+%28Ba%29+Italy."}
{"id":6896702074,"url":"http://farm8.staticflickr.com/7189/6896702074_75bfe0e33b.jpg","path":"e67/dae/e67dae83bfeb27c7d67977b44527244.jpg","date":"2012-03-21","year":2012,"month":3,"lon":16.183332,"lat":41.88283,"tags":"italy,puglia,vieste","S2CellId":"1313d00000000000","result":966,"accuracy":0.16254218,"title":"Vieste"}
{"id":6901498342,"url":"http://farm8.staticflickr.com/7246/6901498342_dc0bcea1db.jpg","path":"9c1/bd3/9c1bd32e785f6d3b179152ae3d5aa69.jpg","date":"2012-03-25","year":2012,"month":3,"lon":16.193998,"lat":41.8275,"tags":"italy,puglia","S2CellId":"4763000000000000","result":3311,"accuracy":0.10146687,"title":"Puglia+Coastline++from+Peschici+to+Mattinata"}
{"id":4727304523,"url":"http://farm2.staticflickr.com/1231/4727304523_06309a8611.jpg","path":"14f/211/14f2111e1065e3e7dceb73e5bba14319.jpg","date":"2010-06-22","year":2010,"month":6,"lon":16.878626,"lat":41.108524,"tags":"bari,bioedilizia,convegno,ecologia,free+press,politecnico+di+bari,puglia,rinnovabili,tekneco,territorio","S2CellId":"89b7b73000000000","result":8848,"accuracy":0.008025623,"title":"allestimento+Aula+Magna+%22A.+Alto%22"}
{"id":5329727001,"url":"http://farm6.staticflickr.com/5246/5329727001_a46577f627.jpg","path":"4ad/166/4ad1663f793889edb495e8053a8d971.jpg","date":"2011-01-06","year":2011,"month":1,"lon":16.673904,"lat":41.184788,"tags":"365,365+project,fake+vintage,falso+vintage,giovinazzo,hipstamatic,iphone,lomo,lomografia,lomography,lomora,low+fi,polarize,progetto+365,vintage","S2CellId":"87b2140000000000","result":7933,"accuracy":0.0025504585,"title":"128%2F365","description":"L%27ingresso+di+mia+nonna+-+My+granma%27s+home+entrance"}
{"id":2304856324,"url":"http://farm4.staticflickr.com/3229/2304856324_89e3d4ec1b.jpg","path":"116/da8/116da85a91d760e6705e35c3ea74acc.jpg","date":"2008-03-01","year":2008,"month":3,"lon":16.8664,"lat":41.12353,"tags":"240+peroni+finite+in+una+serata,chi+va+in+coma+etilico+prima+di+mezzanotte+poi+beve+gratis,flusso+creativo,follia,freebirthday,libero+contributo+di+1%E2%82%AC,svarione,uds,unione+degli+studenti,zonafranka","S2CellId":"9105c84000000000","result":9586,"accuracy":0.08125061,"title":"Loria+%26+Mongy"}
{"id":2516089827,"url":"http://farm3.staticflickr.com/2173/2516089827_9e0dc7aa90.jpg","path":"205/8cf/2058cff56463dc537a7fa74f70785ab.jpg","date":"2008-05-23","year":2008,"month":5,"lon":16.177809,"lat":41.885456,"tags":"cielo,contrasto,elisena,mare,nuvole,pierpaolo+pupillo,porto,temporale,vieste","S2CellId":"12ce900000000000","result":891,"accuracy":0.09433364,"title":"Il+Porto+visto+da+Pier","description":"Composizione+realizzata+dal+neo+aspirante+fotografo+Pierpaolo+che+abbagliato+dal+tramonto%2C+ha+colto+il+temporale+in+mezzo+al+mare.+Complimenti+Pier%21%21%21"}
{"id":5148116361,"url":"http://farm2.staticflickr.com/1196/5148116361_14d5ea039d.jpg","path":"688/68c/68868cbfe1f34d1ad4cab6fa04975.jpg","date":"2010-11-05","year":2010,"month":11,"lon":16.675734,"lat":41.18317,"tags":"365,365+project,fake+vintage,falso+vintage,giovinazzo,hipstamatic,iphone,iphonegrafia,iphonegraphy,lomo,lomografia,lomography,lomora,low+fi,polarize,progetto+365,vintage","S2CellId":"132d400000000000","result":1054,"accuracy":0.012121688,"title":"066%2F365","description":"L%27abitare+%C3%A8+un+concetto+soggettivo%0A%0ALiving+somewhere+is+a+subjective+matter"}
{"id":5780325410,"url":"http://farm3.staticflickr.com/2268/5780325410_0aeaeeaf1b.jpg","path":"c83/ffb/c83ffb9b5173c3eb836cf5663723378.jpg","date":"2011-05-29","year":2011,"month":5,"lon":16.271439,"lat":41.08489,"tags":"andria,castel+del+monte,federico+ii,puglia","S2CellId":"1339000000000000","result":1131,"accuracy":0.0875186,"title":"Castel+del+Monte"}
{"id":5672282352,"url":"http://farm6.staticflickr.com/5306/5672282352_f53bc9c06b.jpg","path":"3d5/d91/3d5d917c1217e0d1a5eab6e0dd1a26.jpg","date":"2011-04-28","year":2011,"month":4,"lon":16.872875,"lat":41.1237,"tags":"bari,lo+stesso+mare,teatro+petruzzelli","S2CellId":"0d379c0000000000","result":323,"accuracy":0.0033357425,"title":"teatro+petruzzelli"}
{"id":3313705590,"url":"http://farm4.staticflickr.com/3656/3313705590_4563fb03b5.jpg","path":"fae/891/fae891aaa8b1e0526da214dab59b2b0.jpg","date":"2009-02-27","year":2009,"month":2,"lon":16.88382,"lat":41.107635,"tags":"bari,bianco,bizz0k0,botanico,china,cinese,gigi,gigitzu,luigi,orto,scorcia,white","S2CellId":"80d9549000000000","result":7295,"accuracy":0.02036779}
{"id":449284173,"url":"http://farm1.staticflickr.com/176/449284173_5e03e2e794.jpg","path":"3c7/bc8/3c7bc8896596eff8cc4c653eb0ee29.jpg","date":"2007-03-29","year":2007,"month":3,"lon":16.824724,"lat":41.049137,"tags":"50mm,adelfia+jazz+trio,bianco+e+nero,bianconero,bn+-+persone,bn+-+spettacoli,bw,jazz,music,musician","S2CellId":"00a6990000000000","result":54,"accuracy":0.03941596,"title":"Adelfia+Jazz+Trio","description":"%40+Taylor%27s+Coffee+Blues+29.03.2007"}
