{"id":52810666,"url":"http://farm1.staticflickr.com/25/52810666_d77bb1880a.jpg","path":"bdf/f5c/bdff5c1cf4f463fbf1588fa5f9b74744.jpg","date":"2005-06-12","year":2005,"month":6,"lon":9.184226,"lat":45.477707,"tags":"agua,arbol,espejo,green,laguna,milan,milano,mirror,parque,rio,verde,water","S2CellId":"47c609e400000000","result":4328,"accuracy":0.06483823,"title":"Espejo","description":"Milan.+Italia."}
{"id":250776188,"url":"http://farm1.staticflickr.com/107/250776188_e8292a8e3a.jpg","path":"199/cc1/199cc12843674dc55b10a1229458491f.jpg","date":"2006-09-19","year":2006,"month":9,"lon":10.853805,"lat":47.383472,"tags":"%C3%B6sterreich,alps,austria,lakes,mountains,tirol,tyrol","S2CellId":"5367000000000000","result":6044,"accuracy":0.12975067,"title":"Still+Quiet+Serene"}
{"id":614419955,"url":"http://farm2.staticflickr.com/1307/614419955_9b15c83dca.jpg","path":"cca/fc4/ccafc439fcd1820f060708fe1bec0b3.jpg","date":"2007-05-28","year":2007,"month":5,"lon":9.23521,"lat":46.016605,"tags":"hostel,italy07,lake+como","S2CellId":"5ff8400000000000","result":6373,"accuracy":0.00920142,"title":"room+with+a+view","description":"I+lucked+out+at+%22La+Primula%22+hostel%3A+my+room+had+a+balcony+that+overlooked+Lake+Como.++Because+of+the+sudden+change+in+weather%2C+I+only+had+one+other+roommate."}
{"id":1829940511,"url":"http://farm3.staticflickr.com/2243/1829940511_2b84463d0a.jpg","path":"7aa/69f/7aa69fe0bb6b6ef2aaba7d2c97c5ebe2.jpg","date":"2007-08-25","year":2007,"month":8,"lon":11.94952,"lat":46.92125,"tags":"tures","S2CellId":"4777c00000000000","result":3426,"accuracy":0.18434168,"title":"Tures-1002.jpg"}
{"id":2260867565,"url":"http://farm3.staticflickr.com/2230/2260867565_716b76fb14.jpg","path":"385/392/3853920b093dff0882f8f8f5f677e9b.jpg","date":"2008-02-12","year":2008,"month":2,"lon":9.189924,"lat":45.465622,"tags":"400d,canon,canon+eos+400d,emanuele,eos,eos+400d,galleria,galleria+vittorio+emanuele+ii,hdr,ii,milan,milano,vittorio","S2CellId":"47e66fd100000000","result":4630,"accuracy":0.040774312,"title":"IMG_0405hdr_0_minus2_minus4_plus2_plus4_tonemapped"}
{"id":3306061485,"url":"http://farm4.staticflickr.com/3378/3306061485_3da9d29895.jpg","path":"4e4/ed6/4e4ed6ad64dde9a521765238a1b9c5.jpg","date":"2009-02-21","year":2009,"month":2,"lon":9.025526,"lat":46.193584,"tags":"2009,bellinzona,canon+eos+40d,carnevale,corteo,guggen,rabadan,sigma+10+20","S2CellId":"8085806300000000","result":6930,"accuracy":0.11201056,"title":"Carnevale+Rabadan+Bellinzona+-+Corteo+Guggen+2009","description":"scatto+di+Elisa+Alzeni"}
{"id":4476167138,"url":"http://farm5.staticflickr.com/4048/4476167138_8280600969.jpg","path":"43b/5cd/43b5cd71bf76e8b9ad17b01346e28.jpg","date":"2010-03-30","year":2010,"month":3,"lon":11.872839,"lat":45.40928,"tags":"cat,gatto,lingua,poladroid,tongue","S2CellId":"89d4d40000000000","result":9260,"accuracy":0.06404177,"title":"Linguetta-pola"}
{"id":4871956495,"url":"http://farm5.staticflickr.com/4134/4871956495_18a5681dce.jpg","path":"523/090/523090c0de2868724d3ab7aedc14df81.jpg","date":"2010-08-08","year":2010,"month":8,"lon":10.725746,"lat":47.553707,"tags":"20100808,allg%C3%A4u,bavaria,europe2010,germany","S2CellId":"5353000000000000","result":6037,"accuracy":0.19216557,"title":"DSCN4292"}
{"id":5416443851,"url":"http://farm6.staticflickr.com/5058/5416443851_9e451d6d7b.jpg","path":"a42/beb/a42bebfd2862b947f48ada3f6858ba.jpg","date":"2011-01-22","year":2011,"month":1,"lon":9.183583,"lat":45.46505,"tags":"500,abarth,car,fiat,red","S2CellId":"3442ac4000000000","result":2082,"accuracy":0.012389946,"title":"IMG_5432"}
{"id":5576859205,"url":"http://farm6.staticflickr.com/5012/5576859205_fffe8635be.jpg","path":"06c/8a5/06c8a5f3d56def457bfe43cee83c2b.jpg","date":"2011-03-26","year":2011,"month":3,"lon":11.115158,"lat":47.469822,"tags":"alpen,alps,partnachalm,schnee,wetterstein,wetterstein20110326,winter","S2CellId":"479d900000000000","result":3821,"accuracy":0.10295315,"title":"IMG_1982+Schneerest+bei+der+Partnachalm"}
{"id":5936055037,"url":"http://farm7.staticflickr.com/6012/5936055037_1721d99632.jpg","path":"3c2/523/3c252317ccc71c11efa8cfb6b7e1b7e7.jpg","date":"2011-07-14","year":2011,"month":7,"lon":9.283333,"lat":45.483334,"tags":"citydoku,italy,lombardia,segrate,sudoku,yourdoku","S2CellId":"8852c00000000000","result":8415,"accuracy":0.12316924,"title":"Segrate","description":"This+is+a+solvable+sudoku+made+with+the+characters+of+Segrate+city+from+Lombardia+in+Italy.%0A%0AView+%3Ca+href%3D%22http%3A%2F%2Fwww.yourdoku.com%2Fcity%2Fsegratedoku%22+rel%3D%22nofollow%22%3Esegratedoku%3C%2Fa%3E+or+make+your+own+design+at+%3Ca+href%3D%22http%3A%2F%2Fyourdoku.com%22+rel%3D%22nofollow%22%3Eyourdoku.com%3C%2Fa%3E"}
{"id":7302537536,"url":"http://farm9.staticflickr.com/8166/7302537536_a32f475f6f.jpg","path":"457/8c4/4578c4add08177cfb6c05cfbf1ec8558.jpg","date":"2012-05-26","year":2012,"month":5,"lon":9.632863,"lat":46.510784,"tags":"canon+ef-s+18-55mm+f%2F3.5-5.6+is+ii","S2CellId":"5481000000000000","result":6095,"accuracy":0.10307338}
{"id":209958975,"url":"http://farm1.staticflickr.com/57/209958975_9e94b6e0ac.jpg","path":"87f/f2f/87ff2f4564a34915196cf15ac107b7.jpg","date":"2006-07-21","year":2006,"month":7,"lon":10.186557,"lat":45.83071,"tags":"boschi,brescia,montagna,montecampione,valcamonica","S2CellId":"477ac00000000000","result":3438,"accuracy":0.061855014,"title":"Montecampione+1200+01","description":"Montecampione+%28BS%29%2C+15-22+luglio+2006"}
{"id":506303412,"url":"http://farm1.staticflickr.com/216/506303412_8f116f7d77.jpg","path":"bb1/98b/bb198bf9f38e337da9e276d7e7286.jpg","date":"2007-05-20","year":2007,"month":5,"lon":9.141826,"lat":45.421646,"tags":"%C3%A9glise,chiesa,church,coucher+de+soleil,milano,parco+agricolo+sud,rice-field,risaia,rizi%C3%A8re,san+marchetto,san+marco+al+bosco,sunset,tramonto,via+bardolino,zona+barona","S2CellId":"4786500000000000","result":3574,"accuracy":0.08198196,"title":"fabcom_IMG_1679"}
{"id":2455322989,"url":"http://farm3.staticflickr.com/2209/2455322989_43a07472e2.jpg","path":"53e/7e9/53e7e936ee9143b64c83af98a2e61ec.jpg","date":"2008-04-07","year":2008,"month":4,"lon":9.185771,"lat":45.46248,"tags":"adobe,flex,milano,onairtour","S2CellId":"0d19331000000000","result":217,"accuracy":0.023025978,"title":"Adobe+AIR+Example","description":"Sony+dsc"}
{"id":2925396208,"url":"http://farm4.staticflickr.com/3255/2925396208_79113e7634.jpg","path":"19f/ec5/19fec5beffc5882644e4c2e8213e8f.jpg","date":"2008-09-08","year":2008,"month":9,"lon":9.283962,"lat":46.015205,"tags":"acqua,ferie,lago,lago+di+como,panorama","S2CellId":"4784240000000000","result":3554,"accuracy":0.15925702,"title":"Ruscello+che+va+sul+lago"}
{"id":3438768995,"url":"http://farm4.staticflickr.com/3390/3438768995_3abdfdf2e2.jpg","path":"965/df8/965df85ef8ae1ed58ba357dcfde0b07d.jpg","date":"2009-04-13","year":2009,"month":4,"lon":9.259779,"lat":45.9858,"tags":"battello,bellagio,boat,canon,como,ferry,g9,italia,italy,lago,lake,lombardia,powershot","S2CellId":"6018e10000000000","result":6527,"accuracy":0.04609253,"title":"Lungolago+di+Bellagio"}
{"id":3690728047,"url":"http://farm4.staticflickr.com/3550/3690728047_c67c373c8a.jpg","path":"181/44e/18144e63c856b313ae7dda57e0b783.jpg","date":"2009-07-05","year":2009,"month":7,"lon":10.807285,"lat":45.763573,"tags":"2009,holiday,italy,lago+di+garda,lake+garda,malcesine,summer","S2CellId":"12acc00000000000","result":779,"accuracy":0.021016885,"title":"Bob+%27n%27+Jeanie%27s","description":"Malcesine"}
{"id":4015530398,"url":"http://farm3.staticflickr.com/2756/4015530398_6b3c8ea20d.jpg","path":"ddb/cf2/ddbcf28f64f1be5d78d4d733f752457.jpg","date":"2009-10-15","year":2009,"month":10,"lon":9.233493,"lat":46.05322,"tags":"animali,bregagno,comasca,comasche,comasco,gregge,montagna,montagne,monte,monte+bregagno,pascolo,pecora,pecore","S2CellId":"12a8400000000000","result":770,"accuracy":0.043143705,"title":"Pecore+comasche","description":"Sul+Monte+Bregagno+%28CO%29."}
{"id":4540999014,"url":"http://farm5.staticflickr.com/4005/4540999014_d2d50e5d23.jpg","path":"ea3/3ff/ea33ff695cba01bf9a2ec4e767c7.jpg","date":"2010-04-21","year":2010,"month":4,"lon":10.462893,"lat":45.561302,"tags":"iphone,lo,morelomo","S2CellId":"8717000000000000","result":7728,"accuracy":0.011066018,"title":"BLUE+RAYS"}
{"id":6043191410,"url":"http://farm7.staticflickr.com/6184/6043191410_ee5993007f.jpg","path":"fa6/cf3/fa6cf362533cfe13530e096168b52.jpg","date":"2011-08-10","year":2011,"month":8,"lon":10.899124,"lat":46.279106,"tags":"escursione,estate,leonardo,montagna,mountain,rosso,sasso,trekking,val+di+sole","S2CellId":"4776f00000000000","result":3424,"accuracy":0.056166325,"title":"Sasso+Rosso+2011","description":"Sasso+Rosso"}
{"id":7506897390,"url":"http://farm9.staticflickr.com/8284/7506897390_0bba45150a.jpg","path":"16c/aed/16caedd632f397b9ee2189b892472c1.jpg","date":"2012-06-14","year":2012,"month":6,"lon":11.831205,"lat":46.533253,"tags":"klettersteig,pisciadu","S2CellId":"4778700000000000","result":3430,"accuracy":0.30143535,"title":"IMG_0597"}
{"id":7822370806,"url":"http://farm9.staticflickr.com/8302/7822370806_8df9a7c32e.jpg","path":"86d/c58/86dc58ff8a2262b7c1395232d33a0b.jpg","date":"2012-04-18","year":2012,"month":4,"lon":9.511928,"lat":47.669315,"tags":"ok-rto","S2CellId":"479b100000000000","result":3807,"accuracy":0.87899244,"title":"OK-RTO","description":"Czech+Sport+PS-28+at+Aero+2012%2CFriedrichshafen%2CGermany%2C18%2F04%2F12."}
{"id":8076634836,"url":"http://farm9.staticflickr.com/8332/8076634836_c02bfd8ec2.jpg","path":"7f3/cbb/7f3cbbf859ca28da85e9192db2ada5d.jpg","date":"2012-03-15","year":2012,"month":3,"lon":11.0905,"lat":47.491646,"tags":"alpen,garmisch-partenkirchen,hotel,hotel+zugspitze,zugspitze","S2CellId":"88fb8c0000000000","result":8745,"accuracy":0.22877988,"title":"Zimmer+im+Hotel+Zugspitze%2C+Garmisch-Partenkirchen","description":"Das+%3Cb%3EHotel+Zugspitze%3C%2Fb%3E+-+Ihr+Urlaubshotel+mitten+in+GARMISCH-Partenkirchen.%0A%0A4+Sterne.+Zentrale+und+doch+ruhige+Lage.+360+Grad+Bergpanoramablick.%0AWeitere+Informationen+unter+%3Ca+href%3D%22http%3A%2F%2Fwww.hotel-zugspitze.de%22+rel%3D%22nofollow%22%3Ewww.hotel-zugspitze.de%3C%2Fa%3E."}
{"id":8492224830,"url":"http://farm9.staticflickr.com/8227/8492224830_3fdd6d61dd.jpg","path":"1fa/533/1fa533976093ac8e8ac186bcf23946.jpg","date":"2010-10-10","year":2010,"month":10,"lon":10.541467,"lat":46.689606,"tags":"2010,flickrfs,italien,mals,vinschgau,wandern","S2CellId":"42c0000000000000","result":2742,"accuracy":0.06327618,"title":"vinschgau_0019"}
{"id":9773229586,"url":"http://farm8.staticflickr.com/7435/9773229586_5365135c6e.jpg","path":"d59/332/d593328488bcc7f437afb6c8ef3de2ca.jpg","date":"2013-09-13","year":2013,"month":9,"lon":11.87725,"lat":45.397366,"tags":"cruise,italien,italy,kreuzfahrt,kreuzfahrtschiffe,schiffe,venedig,venice","S2CellId":"47e61d1ec0000000","result":4564,"accuracy":0.056148805,"title":"Padua+%7C+Italy","description":"Padua+%7C+Italy"}
{"id":10945683224,"url":"http://farm4.staticflickr.com/3743/10945683224_764ec81a5d.jpg","path":"4d8/9a7/4d89a7e9adbfa3ddbb7be4b1a5a3541.jpg","date":"2012-07-17","year":2012,"month":7,"lon":10.973968,"lat":47.433662,"tags":"depression,grau,melancholie,natur,schwarzwei%C3%9F,sepia,stille,stillleben,trauer","S2CellId":"479d900000000000","result":3821,"accuracy":0.07564035,"title":"D%C3%BCsternis","description":"Wenn+ich+durch+die+junge+Nacht+streiche%0Aund+zu+den+dichten+Wolken+blicke%0Af%C3%A4llt+mir+auf+dass+ich+es%0Anicht+wert+bin+hier+zu+stehen.%0A%0AVersteckt+hinter+einem+Wolkenwall%0Alebt+eine+Sonne%2C+dessen+seichte+Strahlen%0Amir+die+Hoffnung+geben%0Anach+dem+Ende+weiter+zu+leben."}
{"id":1249950623,"url":"http://farm2.staticflickr.com/1292/1249950623_e178ea293e.jpg","path":"dbf/b36/dbfb36e6b9fd2c359b6debda6aa14f83.jpg","date":"2007-08-26","year":2007,"month":8,"lon":10.817699,"lat":45.92571,"tags":"tenno,unalgiorno","S2CellId":"12d5400000000000","result":919,"accuracy":0.07838779,"title":"20070826","description":"cartolina+da+Tenno"}
{"id":2955487260,"url":"http://farm4.staticflickr.com/3270/2955487260_4c545ab78c.jpg","path":"508/f2b/508f2b8662798b907c619067da2a7757.jpg","date":"2008-10-15","year":2008,"month":10,"lon":9.173331,"lat":46.92025,"tags":"musiklager,musiklager+2008,musikschule,musikschulen+appenzell+ausserrhoden","S2CellId":"4773700000000000","result":3393,"accuracy":0.010901228,"title":"2008-10-15_170326"}
{"id":4102366953,"url":"http://farm3.staticflickr.com/2515/4102366953_e646d923a8.jpg","path":"6c6/4dd/6c64dd97b819afc7b794685244ee5f29.jpg","date":"2009-11-07","year":2009,"month":11,"lon":11.394475,"lat":47.270718,"tags":"%C3%A4rztetagung,%C3%B6sterreich,07.11.2009,a,alpen,alps,austria,bergrettungs%C3%A4rztetagung,innsbruck,kongresszentrum,tagung,tirol","S2CellId":"48718ec000000000","result":5061,"accuracy":0.011267061,"title":"Bergrettungs%C3%A4rztetagung+7.11.2009","description":"Bergrettungs%C3%A4rztetagung+7.11.2009%2C+wie+dieses+Teil+verwendet+werden+soll+bleibt+mir+umklar."}
{"id":4667229201,"url":"http://farm2.staticflickr.com/1307/4667229201_86273a21d4.jpg","path":"4ab/fef/4abfefdef62b62d850b78155365867.jpg","date":"2010-05-11","year":2010,"month":5,"lon":10.78617,"lat":47.5584,"tags":"bavaria,bayern,deutschland,germany,ostallg%C3%A4u","S2CellId":"132e400000000000","result":1056,"accuracy":0.13749494,"title":"Ibexes+%28Steinb%C3%B6cke%29"}
{"id":5114871714,"url":"http://farm2.staticflickr.com/1104/5114871714_0212684e26.jpg","path":"1f9/d49/1f9d499dcf014c718dc285211a59ff.jpg","date":"2010-10-25","year":2010,"month":10,"lon":9.358098,"lat":47.420334,"tags":"instagram+app,iphoneography,schnee,square,square+format,stuhl,tisch,winter","S2CellId":"88f4400000000000","result":8703,"accuracy":0.0028719378,"title":"Winter"}
{"id":5152650952,"url":"http://farm2.staticflickr.com/1409/5152650952_516b1c012d.jpg","path":"303/0b3/3030b3eb6e71dd51891b62e03f9122e1.jpg","date":"2010-11-06","year":2010,"month":11,"lon":10.071115,"lat":46.15323,"tags":"adda,autunno,fiume,sentiero,valtellina","S2CellId":"36f4000000000000","result":2416,"accuracy":0.1377111,"title":"sentiero+valtellina+5"}
{"id":5461905036,"url":"http://farm6.staticflickr.com/5012/5461905036_52f902fe3c.jpg","path":"f54/54d/f5454de4e67d5dfe2ab033464c786.jpg","date":"2011-02-20","year":2011,"month":2,"lon":9.214313,"lat":45.76912,"tags":"earlybird,instagram+app,iphoneography,square,square+format","S2CellId":"304ac40000000000","result":1594,"accuracy":0.0063585206,"title":"Tarte+tatin"}
{"id":6008487571,"url":"http://farm7.staticflickr.com/6016/6008487571_ac0b37c7fa.jpg","path":"71c/a28/71ca286b11b6ae4886d3f3a961e64.jpg","date":"2011-07-25","year":2011,"month":7,"lon":11.002144,"lat":45.448166,"tags":"europe,italy,tour,tourism,tourist,travel,trip,veneto,verona","S2CellId":"477f5f5000000000","result":3505,"accuracy":0.19512208,"title":"Verona+119"}
{"id":6087097568,"url":"http://farm7.staticflickr.com/6197/6087097568_0cb5fd4f42.jpg","path":"713/66c/71366cb2205420f8822db0cf949422bb.jpg","date":"2011-08-21","year":2011,"month":8,"lon":9.49503,"lat":47.478756,"tags":"2011,art,rohrschach,schweiz,stencil,stencilart,streetart,switzerland","S2CellId":"4873a10000000000","result":5088,"accuracy":0.0014541377,"title":"street+art+Rohrschach"}
{"id":255897280,"url":"http://farm1.staticflickr.com/112/255897280_ce9c651c2b.jpg","path":"f74/a15/f74a155f1d4b85dd7c768c52c16eb77a.jpg","date":"2006-09-25","year":2006,"month":9,"lon":10.162568,"lat":46.538555,"tags":"holidaylombardyalps,italy","S2CellId":"4783700000000000","result":3551,"accuracy":0.15515023,"title":"Passo+d%27Eira+4"}
{"id":505933874,"url":"http://farm1.staticflickr.com/209/505933874_15e1661fa2.jpg","path":"939/35f/93935f99a44c988c7965580b0d6be.jpg","date":"2007-04-09","year":2007,"month":4,"lon":9.249715,"lat":47.757965,"tags":"affenberg,salem","S2CellId":"54bf400000000000","result":6299,"accuracy":0.02229862,"title":"DSC00828"}
{"id":1447238271,"url":"http://farm2.staticflickr.com/1046/1447238271_b48e5d1482.jpg","path":"70a/b5e/70ab5ed1b71d3d6bf85161113775ce5c.jpg","date":"2005-03-01","year":2005,"month":3,"lon":9.747565,"lat":47.505093,"tags":"analog,electricity,film,installation,kub,kunsthaus+bregenz,lights,neon,patterns,rollei,rollei+35+s,scanned,zumtobel","S2CellId":"89b7b78500000000","result":8853,"accuracy":0.07148834,"title":"Patterns+Emerge+V"}
{"id":2499672172,"url":"http://farm4.staticflickr.com/3036/2499672172_531e3484dd.jpg","path":"79c/ea9/79cea9d49de0f64c14c0468794ad5f8.jpg","date":"2007-05-12","year":2007,"month":5,"lon":10.412292,"lat":46.19611,"tags":"aviolo,italia,italy,montagna,mountain,rifugio","S2CellId":"477a400000000000","result":3437,"accuracy":0.03875074,"description":"Rifugio+Aviolo+%28BS%29"}
{"id":2511605044,"url":"http://farm4.staticflickr.com/3138/2511605044_9fb91e7d5a.jpg","path":"535/a3d/535a3d96cf8f7b5e1f992d3468ad73a.jpg","date":"2008-05-16","year":2008,"month":5,"lon":10.748534,"lat":47.556313,"tags":"munich","S2CellId":"4ccfc00000000000","result":5928,"accuracy":0.07001873,"title":"IMG_1020"}
{"id":2698483589,"url":"http://farm4.staticflickr.com/3132/2698483589_e3c9c0639e.jpg","path":"e86/0ee/e860ee5f459211afb7472d19ab710ec.jpg","date":"2008-07-19","year":2008,"month":7,"lon":10.74377,"lat":47.555386,"tags":"austria,germany,germany+bavaria+austria,holiday,trip","S2CellId":"477ac00000000000","result":3438,"accuracy":0.3171909,"title":"Austria+%28220%29"}
{"id":2813925580,"url":"http://farm4.staticflickr.com/3021/2813925580_a86929d9ce.jpg","path":"12a/095/12a095a6f63e2b8187a2fe22bc397a25.jpg","date":"2008-08-16","year":2008,"month":8,"lon":9.50077,"lat":45.804752,"tags":"artificio,costa,fireworks,fuochi,imagna,s.rocco,valle","S2CellId":"6018410000000000","result":6444,"accuracy":0.18403548,"title":"Fireworks","description":"fuochi+artificio+fireworks+costa+valle+imagna+%0A%0Afuochi+artificio+fireworks+costa+valle+imagna"}
{"id":3664602617,"url":"http://farm4.staticflickr.com/3573/3664602617_20591f7fe6.jpg","path":"b4b/36c/b4b36cc34c421a4635f1cc5c041c7eb.jpg","date":"2009-06-27","year":2009,"month":6,"lon":9.239115,"lat":45.418777,"tags":"chiaravalle","S2CellId":"4780c00000000000","result":3528,"accuracy":0.13034067,"title":"Marianna+e+il+campanile"}
{"id":4857055890,"url":"http://farm5.staticflickr.com/4135/4857055890_414b8eb48b.jpg","path":"6f8/453/6f845381ea3bfd1470fd6b3f59aec48.jpg","date":"2010-08-03","year":2010,"month":8,"lon":9.960994,"lat":46.601337,"tags":"hike,impatiens,zuoz","S2CellId":"132e400000000000","result":1056,"accuracy":0.05539931,"title":"732","description":"Impatiens+lining+a+stream"}
{"id":6049490156,"url":"http://farm7.staticflickr.com/6188/6049490156_2ec7338a10.jpg","path":"61d/957/61d9578f28403239cf7923b131e5f4c0.jpg","date":"2011-07-23","year":2011,"month":7,"lon":9.068393,"lat":45.81529,"tags":"1001nights,abigfave,acqua,allmemorieswelcome,artofimages,betterthangood,colorphotoaward,dragonsdanger,goldstaraward,lago,lefotopi%C3%B9belledelmondo,lumixtz8,nature,natureselegantshots,platinumphoto,potofgold,reflets,reflexions,theperfectphotographer","S2CellId":"4696310c00000000","result":3026,"accuracy":0.070716485,"title":"Facciata+con+salone+ovale","description":"Como%2C+Villa+La+Rotonda+%281790-93%29"}
{"id":6198077584,"url":"http://farm7.staticflickr.com/6153/6198077584_7fcfc3b4fe.jpg","path":"3a1/587/3a1587be807d31df5328812f6b9aa4.jpg","date":"2011-09-25","year":2011,"month":9,"lon":10.005261,"lat":45.575523,"tags":"7%5E+trofeo+edil+be.ta.,73+a+0,brescia+u23,ospitaletto,prima+squadra,rovato,rugby,under+14,under+23","S2CellId":"5371740000000000","result":6053,"accuracy":0.032075867,"title":"DSC_0055","description":"7%5E+Trofeo+Edil+Be.Ta."}
{"id":6376675239,"url":"http://farm7.staticflickr.com/6059/6376675239_5759317091.jpg","path":"dc9/7ba/dc97bab2d68b9e67e7bd84f8204d411b.jpg","date":"2011-11-19","year":2011,"month":11,"lon":9.735152,"lat":45.72164,"tags":"alessandro+perissinotto,presente+prossimo,raul+montanari,villa+di+serio","S2CellId":"135f000000000000","result":1187,"accuracy":0.18064183,"title":"008+-+ALESSANDRO+PERISSINOTTO","description":"ALESSANDRO+PERISSINOTTO+a+Villa+di+Serio+-+19+novembre+2011%0A%0AFotografia+di+Gabriele+Bisacco"}
{"id":6595998847,"url":"http://farm8.staticflickr.com/7154/6595998847_88c30c6053.jpg","path":"923/f1e/923f1e29ffdfe1a9648479d3f8faa399.jpg","date":"2011-12-23","year":2011,"month":12,"lon":9.001665,"lat":45.656197,"tags":"italia,italie,italy,lombardia,pizza,turate","S2CellId":"5486717900000000","result":6123,"accuracy":0.01044052,"title":"Pizzeria+del+Centro"}
{"id":6956373392,"url":"http://farm9.staticflickr.com/8157/6956373392_97d057e211.jpg","path":"2d6/2bf/2d62bf2ddd0298acc1980d0b9bad7bd.jpg","date":"2012-04-21","year":2012,"month":4,"lon":11.183997,"lat":47.973698,"tags":"1.+andechs+trail,andechs,andechs+trail,kloster+andechs,laufen,mud,running,salomon,trail","S2CellId":"89b7b78500000000","result":8853,"accuracy":0.01537056,"title":"Andechs+Trail+-+April+2012","description":"Trail+Running%2C+Andechs"}
{"id":7692633766,"url":"http://farm8.staticflickr.com/7256/7692633766_f1fc179cda.jpg","path":"a5a/5b6/a5a5b6e8e98252fc7d63337b2c9933.jpg","date":"2012-07-30","year":2012,"month":7,"lon":9.750881,"lat":47.393234,"tags":"%C3%B6sterreich,%C3%BCbergang,abend,after-work,ausblick,austria,berg,blume,bodensee,bregenz,bright,cross,d%C3%A4mmerung,distraction,dornbirn,erholung,feierabend,gelb,genuss,hell,hike,inspiration,karren,landschaft,licht,light,natur,orange,panorama,recovery,recreation,rheintal,rhine,schatten,shade,shadow,sonne,sonnenuntergang,spazieren,spaziergang,stadt,sun,tree,unten,valley,view,vorarlberg,wald,walk,wandern,yellow","S2CellId":"40b3400000000000","result":2685,"accuracy":0.041829243,"title":"Blick+vom+Karren"}
{"id":8709605579,"url":"http://farm9.staticflickr.com/8127/8709605579_1a8a2a8166.jpg","path":"f46/cea/f46cea8fc1df423367251134678cc4d.jpg","date":"2013-05-01","year":2013,"month":5,"lon":10.3829,"lat":45.15154,"tags":"5d,canon,cat,eyes,gatto,italy,nature,nero,occhi,sguardo","S2CellId":"88d9300000000000","result":8584,"accuracy":0.00765653,"title":"Stay+away+from+me"}
{"id":9054835081,"url":"http://farm4.staticflickr.com/3827/9054835081_15863495f6.jpg","path":"f3b/e53/f3be53442816573b7853d40a145f36e.jpg","date":"2013-06-15","year":2013,"month":6,"lon":9.178666,"lat":45.472164,"tags":"a,al,assodigitale,con,corsa,di,diretta,durante,energizer,ficara,foto,fronte,in,incredibili,la,le,les,manganelli,michele,milano,nightrun,notturna,parco,pi%C3%B9,podismo,podisti,run,runner,running,scattate,sempione,sulla,torcia,tutti,una","S2CellId":"8085877000000000","result":6979,"accuracy":0.0671079,"title":"ENERGIZER+NIGHTRUN+LE+FOTO+PI%C3%99+INCREDIBILI+SCATTATE+IN+DIRETTA+DURANTE+LA+CORSA+NOTTURNA+AL+PARCO+SEMPIONE+DI+MILANO+TUTTI+I+RUNNER+CON+UNA+TORCIA+A+LED+SULLA+FRONTE","description":"Energizer+nightrun+le+foto+pi%C3%99+Incredibili+scattate+in+diretta+durante+la+corsa+notturna+al+parco+sempione+di+milano+tutti+i+runner+con+una+torcia+a+led+sulla+fronte"}
{"id":9410333628,"url":"http://farm6.staticflickr.com/5535/9410333628_cbf7a01ba7.jpg","path":"1a5/e75/1a5e75cd944a99cee5e85b8d7fba9a8.jpg","date":"2013-07-14","year":2013,"month":7,"lon":9.215941,"lat":45.615982,"tags":"2013,cj,cjramone,crooks,desio,festival,impossibili,labradors,live,musica,palco,pay,pubblico,ramone,rock,roll,tittoni,troublefestival,villa","S2CellId":"478df00000000000","result":3674,"accuracy":0.50160706,"title":"IMG_4149"}
{"id":9968595135,"url":"http://farm3.staticflickr.com/2833/9968595135_828eb28d72.jpg","path":"fb8/264/fb8264e8681b7423b7398cd9149ebee0.jpg","date":"2013-09-27","year":2013,"month":9,"lon":9.189769,"lat":45.464237,"tags":"al,assodigitale,calzolari,camisani,che,come,di,digitale,facile,ficara,il,insegna,la,libro,manganelli,maniera,marco,meglio,michele,mondo,nuovo,per,risorsa,tutti,utilizzare","S2CellId":"0d19331000000000","result":217,"accuracy":0.1074843,"title":"Il+mondo+digitale+di+marco+Camisani+Calzolari+il+nuovo+libro+che+insegna+a+tutti+come+utilizzare+al+meglio+la+risorsa+digitale+in+maniera+facile+per+tutti","description":"Il+mondo+digitale+di+marco+Camisani+Calzolari+il+nuovo+libro+che+insegna+a+tutti+come+utilizzare+al+meglio+la+risorsa+digitale+in+maniera+facile+per+tutti"}
{"id":113449748,"url":"http://farm1.staticflickr.com/53/113449748_5a548d3376.jpg","path":"a36/8b3/a368b3fe63ad5ba8d85dc39c145a0c1.jpg","date":"2006-03-03","year":2006,"month":3,"lon":11.609973,"lat":46.408924,"tags":"abstract,curve,curvy,furrows,hypnotic,shadow,ski,skiing,slope,snow,snow+cat,snowmobile,tracks,trail","S2CellId":"80c7000000000000","result":7223,"accuracy":0.057979863,"title":"cat%27s+tail","description":"or+%22the+perfect+slope%22"}
{"id":943543069,"url":"http://farm2.staticflickr.com/1243/943543069_e78081ea61.jpg","path":"b7b/1b3/b7b1b30f0273defa6fc3d01a5d790.jpg","date":"2007-07-29","year":2007,"month":7,"lon":9.961509,"lat":45.97096,"tags":"boario,di,mediumformat,spiazzi,square+format,zenza+bronica","S2CellId":"0d45c00000000000","result":395,"accuracy":0.01866642,"title":"Davide","description":"%3Ca+href%3D%22http%3A%2F%2Fwww.gengiskunk.net%22%3Ewww.gengiskunk.net%3C%2Fa%3E%0A%0AVote+for+Me+on+%22The+Assignment%22+to+Canon+website.%0ACanon+Assignment.+VOTE+ME%0A%0A%3Ca+href%3D%22http%3A%2F%2Fta.canon-europe.com%2Findex.php%3Fpg%3Dgallery%26cc%3Dit%26lc%3Dit%26photo_id%3Dfoto47f5786d00ef1%22%3Eta.canon-europe.com%2Findex.php%3Fpg%3Dgallery%26cc%3Dit%26lc...%3C%2Fa%3E"}
{"id":1830818400,"url":"http://farm3.staticflickr.com/2061/1830818400_e7cc4e12cb.jpg","path":"e54/66d/e5466d75c2de5dd23b1a8cae36e8.jpg","date":"2007-08-22","year":2007,"month":8,"lon":11.767044,"lat":46.635765,"tags":"val+di+funes","S2CellId":"4790300000000000","result":3707,"accuracy":0.095622346,"title":"Val+di+Funes-1013.jpg"}
{"id":2303908219,"url":"http://farm4.staticflickr.com/3268/2303908219_c1686de297.jpg","path":"ca6/249/ca6249189d17b3533abfaac044801c28.jpg","date":"2007-07-08","year":2007,"month":7,"lon":11.090011,"lat":46.90665,"tags":"austria,obergurgl,oesterreich","S2CellId":"4889300000000000","result":5756,"accuracy":0.058742482,"title":"Obergurgl+Slopes"}
{"id":2675036370,"url":"http://farm4.staticflickr.com/3006/2675036370_150206bd57.jpg","path":"749/683/749683246f1d6b9d4076ccfdbf8d35c3.jpg","date":"2008-04-26","year":2008,"month":4,"lon":9.882545,"lat":45.52791,"tags":"bsbeta,d80,daisy,flowers,garden,house,meadow,nikon","S2CellId":"47abc00000000000","result":3957,"accuracy":0.012861739,"title":"Daisy","description":"Today+I+found+a+daisy+in+my+garden+%3A-%29"}
{"id":2954966001,"url":"http://farm4.staticflickr.com/3053/2954966001_3ca64cf4f2.jpg","path":"b59/944/b59944baf284c342d41252b2b3ebf89a.jpg","date":"2008-10-17","year":2008,"month":10,"lon":9.173331,"lat":46.92025,"tags":"musiklager,musiklager+2008,musikschule,musikschulen+appenzell+ausserrhoden","S2CellId":"89d3c00000000000","result":9244,"accuracy":0.048656717,"title":"2008-10-17_094332"}
{"id":3488058167,"url":"http://farm4.staticflickr.com/3580/3488058167_4a349ddd2f.jpg","path":"6b3/5ed/6b35ed23f7a8b2ba2c489429771522.jpg","date":"2009-01-28","year":2009,"month":1,"lon":9.8308,"lat":46.801228,"tags":"che,congress+centre,davos,davos+platz,davos09,graubunden,klaus+schwab,switzerland,wef,wen+jiabao,world+economic+forum","S2CellId":"4784b00000000000","result":3561,"accuracy":0.37587276,"title":"Wen+Jiabao%2C+Klaus+Schwab+-+World+Economic+Forum+Annual+Meeting+Davos+2009","description":"DAVOS-KLOSTERS%2FSWITZERLAND%2C+28JAN09+-+Wen+Jiabao+%28FLTR%29%2C+Premier+of+the+People%27s+Republic+of+China+and+Klaus+Schwab%2C+Founder+and+Executive+Chairman%2C+World+Economic+Forum%2C+shake+hands+during+the+%27Special+Session+with+Wen+Jiabao%2C+Premier+of+the+People%27s+Republic+of+China%27+at+the+Annual+Meeting+2009+of+the+World+Economic+Forum+in+Davos%2C+Switzerland%2C+January+28%2C+2009.%0A%0ACopyright+by+World+Economic+Forum%0Aswiss-image.ch%2FPhoto+by+Remy+Steinegger"}
{"id":3907823768,"url":"http://farm3.staticflickr.com/2568/3907823768_4394c26a2a.jpg","path":"bdc/b91/bdcb915ce8482f6897f489878375ece1.jpg","date":"2009-08-01","year":2009,"month":8,"lon":9.394441,"lat":45.876114,"tags":"corno+medale,italy,lake+como,lecco","S2CellId":"47842c0000000000","result":3555,"accuracy":0.27501464,"title":"Lecco","description":"View+across+Lecco+at+the+south-eastern+end+of+Lake+Como.+Seen+from+the+summit+of+Corno+Medale."}
{"id":5131573306,"url":"http://farm5.staticflickr.com/4087/5131573306_1d5c7a8b38.jpg","path":"a9f/eb3/a9feb3f78fc63d57b7c6d7e627ed6a.jpg","date":"2010-08-20","year":2010,"month":8,"lon":9.684447,"lat":47.502823,"tags":"2010,ballontage,bodensee,rheintal,widnau","S2CellId":"479d900000000000","result":3821,"accuracy":0.040409338,"title":"Blick+Richtung+Rheintal"}
{"id":6046362577,"url":"http://farm7.staticflickr.com/6087/6046362577_4bafc7a01b.jpg","path":"ffb/add/ffbadd1ab8a4d998a69e9902fbfa16b.jpg","date":"2011-08-15","year":2011,"month":8,"lon":10.759048,"lat":46.311012,"tags":"estate,matilde,val+di+sole","S2CellId":"876c900000000000","result":7897,"accuracy":0.103764184,"title":"IMG_1440"}
{"id":6070316563,"url":"http://farm7.staticflickr.com/6080/6070316563_5be8647011.jpg","path":"3a7/7b8/3a77b89369bbdc99cade6b3abfd18fde.jpg","date":"2010-09-12","year":2010,"month":9,"lon":10.608555,"lat":45.49231,"tags":"di,europe,garda,gps,italy,lago,lake,map,nikon,photo,round,tour,tourism,tourist,travel,traveler,trip,world","S2CellId":"4781900000000000","result":3533,"accuracy":0.49063694,"title":"Garda+Trip+362"}
{"id":6071402694,"url":"http://farm7.staticflickr.com/6085/6071402694_4d6fa27c1f.jpg","path":"4e1/a5f/4e1a5f4b066e39c7d9cdfeb48a8d4d0.jpg","date":"2010-09-16","year":2010,"month":9,"lon":9.330136,"lat":46.154182,"tags":"como,di,europe,gps,italy,lago,lake,map,nikon,photo,tour,tourism,tourist,travel,traveler,trip,world","S2CellId":"4781500000000000","result":3531,"accuracy":0.13509785,"title":"Como+110"}
{"id":6527994513,"url":"http://farm8.staticflickr.com/7172/6527994513_fd763be50b.jpg","path":"c92/8e7/c928e73a1d2d2948b85dc445681f13c.jpg","date":"2011-12-17","year":2011,"month":12,"lon":9.307951,"lat":45.58198,"tags":"2011,aironi,brianteo,campionato,coppa,cup,heineken,ireland,irlanda,milano,monza,rugby,ulster","S2CellId":"48761d7000000000","result":5354,"accuracy":0.0152256405,"title":"IMG_3745"}
{"id":6967616524,"url":"http://farm8.staticflickr.com/7198/6967616524_fa46778cde.jpg","path":"847/8fe/8478fe99a721c5b941d5925eb9761e3.jpg","date":"2012-04-25","year":2012,"month":4,"lon":9.226412,"lat":45.98381,"tags":"flowers,nature","S2CellId":"47a85c0000000000","result":3946,"accuracy":0.006926987,"title":"IMG_1543"}
{"id":7123893687,"url":"http://farm8.staticflickr.com/7089/7123893687_5f57df380a.jpg","path":"4e8/b87/4e8b87c1f2c020b429979d4b1964e2.jpg","date":"2012-04-28","year":2012,"month":4,"lon":9.596813,"lat":45.716724,"tags":"animals,nature","S2CellId":"87d8b54000000000","result":8008,"accuracy":0.13102877,"title":"IMG_2007"}
{"id":7621734368,"url":"http://farm9.staticflickr.com/8432/7621734368_2deb2c69dc.jpg","path":"253/76b/25376b55e8f3cf1da798c1fa68af6055.jpg","date":"2012-07-21","year":2012,"month":7,"lon":9.510169,"lat":47.140404,"tags":"calanda+broncos,eurobowl+2012,kenko+dgx+14x,marko+glavic,nikkor+180mm+f2.8,nikon+d800e,rheinpark+vaduz,vienna+vikings","S2CellId":"8834d00000000000","result":8307,"accuracy":0.16266967,"title":"_DSC0832.jpg"}
{"id":8050954709,"url":"http://farm9.staticflickr.com/8180/8050954709_a803ac98ee.jpg","path":"128/5a7/1285a7fc749e25861dffda4a7c84794.jpg","date":"2012-08-04","year":2012,"month":8,"lon":11.913191,"lat":47.082268,"tags":"alpen,alpes,alpi,alps,animal,animales,animals,ask+for+commercial+use,austria,aut,berg,bildagentur,canon,canon+eos+7d,cattle,city%3A+mayrhofen,country%3A+austria,countrycode%3A+aut,cow,creature,europa,europe,for+sale,green,hagens+world+-+photography,hagens_world,kommerzielle+nutzung,kuh,landscape,landschaft,lebewesen,location%3A+stilluptal,mayrhofen,meadow,monta%C3%B1a,mountain,mountains,natur,natura,nature,nutzungshonorar,paisaje,pflanze,pflanzen,plant,plants,state%3A+tirol,stock+photography,stock+photos,tier,tiere,tirol,vaca,vieh,wiese","S2CellId":"4776f00000000000","result":3424,"accuracy":0.078719065,"title":"Stilluppgrund","description":"The+Zillertal+is+the+biggest+valley+branching+off+the+Inn+valley+in+Tyrol%2C+Austria+drained+by+the+river+Ziller.+It+is+surrounded+by+the+strongly+glaciated+Zillertal+Alps+to+the+south+and+east%2C+the+lower+grass+peaks+of+the+Kitzb%C3%BChel+Alps+to+the+east+and+Tux+Alps+to+the+west.+The+largest+settlement+is+Mayrhofen.%0AThe+Zillertal+branches+from+the+Inn+trench+near+Jenbach%2C+about+40+km+northeast+of+Innsbruck%2C+running+mostly+in+a+north-south+direction.+The+Zillertal+proper+stretches+from+the+village+of+Strass+to+Mayrhofen%2C+where+it+separates+into+four+smaller+valleys%2C+the+Tux+valley+and+the+sparsely+settled%2C+so-called+Gr%C3%BCnde+-+Zamsergrund%2C+Zillergrund+and+Stilluppgrund.+Along+the+way%2C+two+more+Gr%C3%BCnde+and+the+Gerlos+valley%2C+which+leads+to+the+Gerlos+Pass+and+into+Salzburg%2C+branch+off.%0AUnlike+other+side+valleys+of+the+Inntal%2C+the+Zillertal+rises+constantly%2C+but+only+marginally%2C+from+one+end+to+the+other+-+only+about+100+m+over+30+km.+Permanent+settlements+cover+about+9%25+of+the+entire+area+of+the+Zillertal+municipalities.%0A%0A%3E%3EPhotos+for+Sale+-+just+contact+me%3C%3C%0A%0A%3Ca+target%3D%22_blank%22+href%3D%22http%3A%2F%2Fwww.flickr.com%2Fphotos%2Fhagens_world%2Fsets%2F72157631684041574%2Fdetail%2F%22%3EMore+Photos+in+the+Album%3A+Alps%3C%2Fa%3E"}
{"id":8467225002,"url":"http://farm9.staticflickr.com/8369/8467225002_c769c3c564.jpg","path":"3e9/4e9/3e94e9bd38eabb1531aedefc7f7e372.jpg","date":"2013-02-12","year":2013,"month":2,"lon":11.898928,"lat":45.473793,"tags":"2013,balcone,davideanselmi,davideprod,evening,home,neve,sera,snow","S2CellId":"4786bc0000000000","result":3583,"accuracy":0.036529467,"title":"Nevicata+dal+balcone","description":"no+flash"}
{"id":8921507715,"url":"http://farm9.staticflickr.com/8113/8921507715_1ee4c135dc.jpg","path":"e38/986/e38986b2b0b9cc192f96eb4d9b30d4.jpg","date":"2013-06-01","year":2013,"month":6,"lon":9.163606,"lat":45.450966,"tags":"milano,superstudio+pi%C3%BA,taste,taste+of+milano,tortona+27","S2CellId":"0d0dd40000000000","result":174,"accuracy":0.11544371,"title":"Taste+of+Milano+2013","description":"Taste+of+Milano%0A%0ADal+30+Maggio+al+2+Giugno+2013%0A%0A4+DAYS+FULL+OF+TASTE%0A14+grandi+chef%2C+i+migliori+vini+e+prezzi+accessibili+per+scoprire%0Ae+vivere+insieme+l%E2%80%99esperienza+dell%E2%80%99alta+cucina.%0A%0A%3Ca+href%3D%22http%3A%2F%2Fwww.tasteofmilano.it%2F%22+rel%3D%22nofollow%22%3Ewww.tasteofmilano.it%2F%3C%2Fa%3E"}
{"id":9552750451,"url":"http://farm8.staticflickr.com/7457/9552750451_da67718928.jpg","path":"f36/678/f3667855dfe594647a649266e1ac51c.jpg","date":"2013-08-20","year":2013,"month":8,"lon":9.683568,"lat":47.54291,"tags":"instagram+app,iphoneography,lo-fi,square,square+format","S2CellId":"479fc00000000000","result":3870,"accuracy":0.082878485,"title":"Lindau+Old+City"}
{"id":9896027576,"url":"http://farm3.staticflickr.com/2838/9896027576_351e15eac2.jpg","path":"1de/ff2/1deff2258aed4c75286d2a6df7e873f.jpg","date":"2013-09-21","year":2013,"month":9,"lon":9.474334,"lat":47.6566,"tags":"bodensee,friedrichshafen,lago+constanza","S2CellId":"479b100000000000","result":3807,"accuracy":0.07227302,"title":"Friedrichshafen"}
{"id":13135367845,"url":"http://farm8.staticflickr.com/7322/13135367845_9d483c51cf.jpg","path":"f28/bb7/f28bb73df9867d2570281a255e3eb9.jpg","date":"2014-03-07","year":2014,"month":3,"lon":11.39815,"lat":47.2816,"tags":"alpengarteninnsbruck,cornus,kornelkirsche","S2CellId":"883cae5000000000","result":8363,"accuracy":0.015871122,"title":"Kornelkirsche+im+Alpengarten+Innsbruck","description":"Kornelkirsche+%28Cornus+mas%29"}
{"id":1544554034,"url":"http://farm3.staticflickr.com/2338/1544554034_eafb27e348.jpg","path":"cc6/38e/cc638e414e9e63cb1e18abdfdb693484.jpg","date":"2007-10-11","year":2007,"month":10,"lon":9.214514,"lat":45.438236,"tags":"2007,abigfave,biancoenero,blackwhite,blancinegre,bn,brenta,bwemotions,canoneos350d,casa+di+ringhiera,cielo,eos350d,mangiu,manuela+montanarelli,milan,palazzi+a+milano,panni+stesi,stroopwafels+actions,tramonto","S2CellId":"12d4fc0000000000","result":918,"accuracy":0.05393037,"title":"Le+case+di+ringhiera+a+Milano+sono+tutte+belle"}
{"id":2775701828,"url":"http://farm4.staticflickr.com/3196/2775701828_19eed30fe2.jpg","path":"f8f/003/f8f0033ad643118787d95df6d128a4.jpg","date":"2008-04-16","year":2008,"month":4,"lon":9.424284,"lat":45.37288,"tags":"%7Ejjjohn%7E,23%2F365,365,65mm,alemdagqualityonlyclub,blu,blue,bokeh,bokehlicious,canon+eos+5d,canon+mp-e+65mm+f%2F2.8+1-5x,canon+mp-e+65mm+f%2F2.8+1-5x+macro+photo,cervignano,cervignano+d%27adda,cfp,circolo+fotografico+paullese,drop,droplet,droplets,drops,ehbd,explore+%233,explore+interestingness+page,giovanni+orlando,gocce,goccia,hbw,italia,jjjohn,jjjohn70,lodi,lombardia,macro,monday+blues,orlando,the+365+days+bokeh+project,www.giovanniorlando.it","S2CellId":"47abc00000000000","result":3957,"accuracy":0.014958097,"title":"Day+23%2F365+%3A+Three+silly+drops","description":"%3Ca+href%3D%22http%3A%2F%2Fwww.flickr.com%2Fphotos%2Fjjjohn%2F2776925909%2Fin%2Fset-72157604514273489%2F%22%3E%3Cb%3EExplore+%233%3C%2Fb%3E%0AExplore+Interestingness+Page+on+Tuesday%2C+August+19%2C+2008%3C%2Fa%3E%0A%0AProject%3A+%3Ca+href%3D%22http%3A%2F%2Fwww.flickr.com%2Fphotos%2Fjjjohn%2Fsets%2F72157606390698331%2F%22%3E365+days+of+Bokeh%3C%2Fa%3E"}
{"id":4306288691,"url":"http://farm5.staticflickr.com/4059/4306288691_b82e595b48.jpg","path":"a8d/7f1/a8d7f17e414db3a01df6b63eaf9f31cd.jpg","date":"2010-01-26","year":2010,"month":1,"lon":9.8308,"lat":46.80118,"tags":"am2010,annual+meeting,davos,feature,switzerland,wef,wefdavos,world+economic+forum","S2CellId":"4861084000000000","result":4845,"accuracy":0.007735384,"title":"World+Economic+Forum+Annual+Meeting+Davos+2010","description":"DAVOS%2FSWITZERLAND%2C+26JAN10+-+A+security+guard+walks+outside+the+congress+centre.+Impression+of+the+final+preparations+for+the+upcoming+Annual+Meeting+2010+of+the+World+Economic+Forum+in+Davos%2C+Switzerland%2C+January+26%2C+2010..%0A.%0ACopyright+by+World+Economic+Forum.%0Aswiss-image.ch%2FPhoto+by+Michael+Wurtenberg.%0A."}
{"id":4876540237,"url":"http://farm5.staticflickr.com/4079/4876540237_f6ac8cbf70.jpg","path":"627/210/6272107a5b853c8d2123d77a38814e1.jpg","date":"2010-07-15","year":2010,"month":7,"lon":10.839085,"lat":45.883476,"tags":"ferry,italy,lago+di+benaco,lago+di+garda,lake+benaco,lake+front,lake+garda,lakeside,northern+italy,piazza+catena,riva,riva+del+garda,trento","S2CellId":"4785d00000000000","result":3570,"accuracy":0.10378645,"title":"Riva+del+Garda+-+steamer+ferry","description":"Shots+taken+from+the+lakeside+at+Riva+del+Garda.%0AAssume+that+this+is+the+same+steamer+I+saw+in+Torbole.+Still+no+idea+what+it%27s+name+was.%0A%0AThe+square+near+here+is+Piazza+Catena."}
{"id":5626760357,"url":"http://farm6.staticflickr.com/5148/5626760357_98ccce02ec.jpg","path":"303/557/3035574d7895d6c738fb4d2999366df4.jpg","date":"2009-08-06","year":2009,"month":8,"lon":10.793358,"lat":45.816223,"tags":"gardasee,limone","S2CellId":"4782100000000000","result":3540,"accuracy":0.6903609,"title":"Limone"}
{"id":5994291593,"url":"http://farm7.staticflickr.com/6125/5994291593_3da22aa58b.jpg","path":"afa/1df/afa1dfa789648bf165d2ce0d4b4d866.jpg","date":"2011-07-09","year":2011,"month":7,"lon":9.171524,"lat":45.48156,"tags":"cintia+barenho,europa,f%C3%A9rias,inverno+2011,it%C3%A1lia,italy,mil%C3%A3o,milan,milano,uni%C3%A3o+europ%C3%A9ia,vacation,ver%C3%A3o+2011","S2CellId":"4786c6af00000000","result":3602,"accuracy":0.7051474,"title":"Viajando+pelas+Zoropa+-+Milan","description":"Fui+pras+Zoropa+com+L%C3%ADvia+e+Helena.+Quinta+Parada+Mil%C3%A3o+%E2%80%93+It%C3%A1lia.+Julho+2011"}
{"id":6136587132,"url":"http://farm7.staticflickr.com/6200/6136587132_e82b8f1220.jpg","path":"979/24b/97924b533adfe7415a25138c53fd808f.jpg","date":"2011-09-09","year":2011,"month":9,"lon":11.875104,"lat":45.405895,"tags":"italia,padova","S2CellId":"478e500000000000","result":3680,"accuracy":0.060989026,"title":"Padova%2C+Italia"}
{"id":9805760094,"url":"http://farm8.staticflickr.com/7320/9805760094_193f0be689.jpg","path":"b73/3b5/b733b5b264cc16f8d6f43db1870d56f.jpg","date":"2013-08-26","year":2013,"month":8,"lon":9.530522,"lat":46.84802,"tags":"crossdresser,tgirl,transgender,transvestite,travestito","S2CellId":"4791100000000000","result":3711,"accuracy":0.053113356,"title":"Chur-Coira+-+Obere+Gasse+31"}
{"id":11287952054,"url":"http://farm3.staticflickr.com/2891/11287952054_ea4636eaec.jpg","path":"712/4d9/7124d980dc729e302447ff8543e46db7.jpg","date":"2013-12-07","year":2013,"month":12,"lon":9.568513,"lat":45.493877,"tags":"alessandro+bertante,casirate+d%27adda,presente+prossimo,raul+montanari","S2CellId":"88e77e4000000000","result":8673,"accuracy":0.06606092,"title":"_DSC0096","description":"CASIRATE+D%27ADDA%2C+7+dicembre+2013.%0ARaul+Montanari+incontra+ALESSANDRO+BERTANTE.%0A%0ACredits%3A+Alessandra+Merisio+%28thoda%40libero.it%29"}
{"id":13064014423,"url":"http://farm8.staticflickr.com/7357/13064014423_d8e4d8d5b9.jpg","path":"d9e/0a6/d9e0a6a3764a2dfbc19422b9cd32e8c.jpg","date":"2014-02-25","year":2014,"month":2,"lon":11.185594,"lat":47.32052,"tags":"%C3%B6sterreich,austria,dorf,nord,nordtirol,nordtyrol,oesterreich,oras,osterreich,salzburg,sat,seefeld,stadt,tirol,tyrol","S2CellId":"4771400000000000","result":3386,"accuracy":0.09196982,"title":"Seefeld+im+Tirol","description":"Nordtirol%2C+%C3%96sterreich"}
{"id":13647766085,"url":"http://farm3.staticflickr.com/2903/13647766085_f5c5bc663a.jpg","path":"dec/d14/decd146674de342e78f6192170874aac.jpg","date":"2014-04-05","year":2014,"month":4,"lon":9.166889,"lat":45.484077,"tags":"acqua,agua,drops,eau,feuille,foglia,folha,gocce,gotas,gouttes,green,hoja,natura,naturaleza,nature,verde,vert,water","S2CellId":"8814d00000000000","result":8186,"accuracy":0.0058256118,"title":"drops","description":"at+home+-+september+2013"}
{"id":1129523811,"url":"http://farm2.staticflickr.com/1289/1129523811_4a67ecdb23.jpg","path":"9e1/193/9e1193e1c3c1dbffc63f6c10524cead.jpg","date":"2007-08-12","year":2007,"month":8,"lon":9.737706,"lat":47.50589,"tags":"austria,bregenz","S2CellId":"54906ab300000000","result":6212,"accuracy":0.19330953,"title":"Floating+Tosca+Stage%2C+Bregenz"}
{"id":1907730826,"url":"http://farm3.staticflickr.com/2334/1907730826_a73ca4168b.jpg","path":"32a/48e/32a48e8d7929d8ccf0efaabf636e6f69.jpg","date":"2007-02-18","year":2007,"month":2,"lon":9.843835,"lat":46.49461,"tags":"frozen+lake,horse+races,horse+riding,ice,snow,st.+moritz,white+turf","S2CellId":"45d4000000000000","result":2755,"accuracy":0.08992845,"title":"White+Turf+2007","description":"The+most+exciting+horse+racing+on+the+planet.+It+takes+place+on+the+St.Moritz+lake.+Yes%2C+ON+the+lake+%3A-%29+you+can+park+your+car+on+it%2C+and+take+a+seat%2C+or+go+watch+a+cricket+match+where+the+ball+would+be+orange+%28to+see+it+in+the+snow%29+or+just+eat+something+and+chill+admiring+the+newest+BMWs+or+Rolls+Royce+presented+at+their+boots+on+ice."}
{"id":2130936992,"url":"http://farm3.staticflickr.com/2160/2130936992_615d3530c1.jpg","path":"f6f/765/f6f765737cb29cea733d29a039ef92.jpg","date":"2007-10-19","year":2007,"month":10,"lon":9.173331,"lat":46.92025,"tags":"elm,msam,msar,msav,msh,musiklager,musikschule","S2CellId":"87f1000000000000","result":8044,"accuracy":0.30439565,"title":"Musiklager+2007","description":"in+Elm+GL"}
{"id":3472701423,"url":"http://farm4.staticflickr.com/3347/3472701423_8eb8719360.jpg","path":"46b/362/46b362679725948edf9eef6853fb4cfe.jpg","date":"2004-11-07","year":2004,"month":11,"lon":11.395305,"lat":47.268482,"tags":"%C3%B6sterreich,2004,altstadt,attraction,austria,bild,bronzestatue,bronzestatuen,cc,church,city,downtown,flickr,foto,franziskaner,franziskanerkirche,free,geo,grabdenkmal,grabeskirche,grabmal,herbst,high+resolution,historic,hofkirche,i.,image,innenstadt,innsbruck,jpeg,jpg,kirche,maximilian,memorial,november,old,photo,picture,schwarzmander,schwarzmander-kirche,stockphoto,tirol,touristic,town,tyrol","S2CellId":"47e67db000000000","result":4682,"accuracy":0.113894835,"title":"2004-11-06+11-07+Innsbruck+057+Hofkirche"}
{"id":4171218407,"url":"http://farm3.staticflickr.com/2715/4171218407_1803de14d6.jpg","path":"7a7/fae/7a7faefb8ef467a6b43ab07e91a6594c.jpg","date":"2009-12-08","year":2009,"month":12,"lon":9.180536,"lat":45.455276,"tags":"border,canon,eos500d,milano","S2CellId":"40b1ff0000000000","result":2682,"accuracy":0.09501351,"title":"alle+colonne","description":"milano+dicembre+2009"}
{"id":5136686207,"url":"http://farm2.staticflickr.com/1167/5136686207_504acf12d8.jpg","path":"d1c/cb2/d1ccb2e95e6ed66d63a967c1631c4.jpg","date":"2010-11-01","year":2010,"month":11,"lon":11.311972,"lat":47.609406,"tags":"mmm+trip+zum+herzogstand","S2CellId":"479c400000000000","result":3812,"accuracy":0.113661684,"title":"_DSC2915","description":"MMM+trip+to+Herzogstand+%28Bavaria%2C+Germany%29"}
{"id":5607872220,"url":"http://farm6.staticflickr.com/5303/5607872220_37d5408b13.jpg","path":"6bf/ae3/6bfae3dc5365d2e683327c042f7f550.jpg","date":"2011-03-01","year":2011,"month":3,"lon":9.18103,"lat":45.46894,"tags":"18-105,arcata,arch,arco,art,arte,colonne,column,d90,dentro,fuori,inside,milan,milano,nikkor,nikon,outside,tourist","S2CellId":"477f5f5000000000","result":3505,"accuracy":0.04100997,"title":"Inside+and+Outside"}
{"id":5822368002,"url":"http://farm3.staticflickr.com/2726/5822368002_31f789b0ab.jpg","path":"899/31b/89931b1284a7692dcdbdc461dfc2bc.jpg","date":"2011-04-04","year":2011,"month":4,"lon":9.08521,"lat":45.806763,"tags":"como,italia,italy,lago,lake","S2CellId":"12d5840000000000","result":920,"accuracy":0.16643845,"title":"Como"}
{"id":6126625024,"url":"http://farm7.staticflickr.com/6085/6126625024_3f7330aff1.jpg","path":"579/4ce/5794ceb454e14d61dd9683fed2489.jpg","date":"2011-09-03","year":2011,"month":9,"lon":9.140537,"lat":45.449493,"tags":"acqua,bicchiere,fragola,light,light+painting,menta,paining,vetro","S2CellId":"48d60b4000000000","result":5793,"accuracy":0.015887087,"title":"Light+Painting+Test+%230001","description":"Primo+tentativo+%28fallimentare%2C+per+molti+versi%29%2C+di+light+painting.%0A%0AM+50%3A1.7+a+f22%0A30+sec+a+ISO+200%0A%0ABuio+pesto%2C+tavolo+nero%2C+bicchieri+illuminati+con+lampi+di+una+torcia+elettrica+di+varia+durata+da+varie+angolazioni.%0A%0AIl+primo+bicchiere+%C3%A8+semivuoto%2C+contiene+un+dito+di+sciroppo+di+menta+non+diluito+%28ma+sgocciolato+sulle+pareti%29%2C+da+cui+il+quasi+nero+che+si+vede+sul+fondo.%0AGli+altri+due+contengono+sciroppi+%28menta+e+fragola%29+ben+diluiti+e+mescolati.%0A%0ALe+foto+di+test+in+piena+luce+erano+a+fuoco%2C+non+capisco+come+mai+siano+venuti+sfocati+i+bicchieri+sullo+sfondo.+Forse+i+movimenti+della+torcia+troppo+rapidi+fanno+effetto+%22mosso%22%3F"}
{"id":6262921315,"url":"http://farm7.staticflickr.com/6031/6262921315_49232dd547.jpg","path":"f8b/b37/f8bb37a6cf353e6e3301bb56397e2f0.jpg","date":"2011-10-14","year":2011,"month":10,"lon":9.726859,"lat":45.036285,"tags":"cibo,conference,food,law,piacenza,universit%C3%A0+cattolica","S2CellId":"0d19331000000000","result":217,"accuracy":0.37463677,"title":"IMG_6699Lorenzo+Morelli"}
{"id":6903447737,"url":"http://farm8.staticflickr.com/7177/6903447737_85982a5314.jpg","path":"174/749/174749a9f68657f699d5aacf6a371919.jpg","date":"2012-02-12","year":2012,"month":2,"lon":11.753497,"lat":47.714916,"tags":"2011,2012,bavaria,bayern,deutschland,motiv,natur,nature,orte,schnee,snow,sonstige,tegernsee","S2CellId":"4786700000000000","result":3575,"accuracy":0.05452016,"title":"Sun+set+at+Tegernsee%2C+12.02.2012","description":"Sun+set+at+Tegernsee%0A%0AShot+with+a+Canon+EOS+60D+with+EF+24-104L+IS+USM.+Postprocessed+with+Adobe+Lightroom+3.6."}
{"id":9120913707,"url":"http://farm6.staticflickr.com/5337/9120913707_bd310f61c7.jpg","path":"252/b29/252b29a332735615adc98eed5b2efa22.jpg","date":"2013-06-23","year":2013,"month":6,"lon":9.072132,"lat":45.824135,"tags":"2013,como,como+lake,lago+di+como,lake","S2CellId":"478fb00000000000","result":3691,"accuracy":0.18941188,"title":"Lake+Como"}
{"id":11798353313,"url":"http://farm3.staticflickr.com/2883/11798353313_55708b5d46.jpg","path":"864/829/8648292d1c8265face2567c22c317b0.jpg","date":"2013-12-12","year":2013,"month":12,"lon":11.740726,"lat":46.306534,"tags":"cervi,cervo,paneveggio,parco,val+di+fiemme","S2CellId":"45d4000000000000","result":2755,"accuracy":0.058021672,"title":"2013_1212-8957-Cervi-Paneveggio"}
{"id":939473839,"url":"http://farm2.staticflickr.com/1106/939473839_5f9a8dc767.jpg","path":"63a/fcc/63afccc2946884b8ae6bba593a10265e.jpg","date":"2007-07-23","year":2007,"month":7,"lon":10.527606,"lat":46.819035,"tags":"italia,reschen","S2CellId":"4783300000000000","result":3549,"accuracy":0.8891357,"title":"IMG_4476"}
{"id":1809109232,"url":"http://farm3.staticflickr.com/2190/1809109232_a15944b976.jpg","path":"142/121/1421215ba0f5626f897fa1e82fa526f.jpg","date":"2007-09-14","year":2007,"month":9,"lon":9.075736,"lat":45.02058,"tags":"arancione,cielo,ctm,favcol,interestingness,ita,italia,italy,landscape,luckytom,most+interesting,ombre,orange,paesaggio,red,rosso,sagome,shadows,sky,sole,sun,sunset,tom,tramonto,yellow","S2CellId":"395c000000000000","result":2470,"accuracy":0.028419321,"title":"Too+hot%3F","description":"Foto+fatta+nei+pressi+di+Lungavilla"}
{"id":3328508477,"url":"http://farm4.staticflickr.com/3640/3328508477_f6ecc59b1a.jpg","path":"ecc/ebe/eccebe4afc38d5455461a5bf82277cf9.jpg","date":"2009-02-27","year":2009,"month":2,"lon":11.542124,"lat":45.547558,"tags":"ad,backstage,club,insulsia,insulsia+productions,poker,pokerclub,productions,spot,zooppa","S2CellId":"465f77e400000000","result":2907,"accuracy":0.018570838}
{"id":3890908882,"url":"http://farm3.staticflickr.com/2598/3890908882_88a411da0f.jpg","path":"bc1/466/bc146674a14d27174c4a84f491337339.jpg","date":"2009-09-03","year":2009,"month":9,"lon":9.218902,"lat":45.553337,"tags":"cat,gattino,gatto,kitten,merlino,occhi","S2CellId":"89d4d40000000000","result":9260,"accuracy":0.012219473,"title":"Merlino","description":"Ci+guarda+dalla+zanzariera"}
{"id":4670610172,"url":"http://farm5.staticflickr.com/4051/4670610172_5ec44c834d.jpg","path":"af2/491/af249114cc2a74c56d8546721e143a57.jpg","date":"2010-05-29","year":2010,"month":5,"lon":9.213066,"lat":47.11389,"tags":"murg,schweiz,suisse,switzerland,walensee","S2CellId":"478fb00000000000","result":3691,"accuracy":0.16977644,"title":"Murg+am+Walensee"}
{"id":4760690128,"url":"http://farm5.staticflickr.com/4114/4760690128_f7b826d1d3.jpg","path":"e6f/8e2/e6f8e24f1f83f45f751367888b10f032.jpg","date":"2010-04-03","year":2010,"month":4,"lon":10.998183,"lat":45.443398,"tags":"2010,amantovaeveronaconsara,borgo,cielo,citt%C3%A0,dante,esterno,giorno,hgpimn1,italy,monumento,noknownpeople,nopeople,palazzi,paolo_cst,piazza,statua,trasferta,veneto,verona","S2CellId":"477f5f5000000000","result":3505,"accuracy":0.1477275,"title":"48+Dante+-+Dialogo+tra+statue"}
{"id":4875840284,"url":"http://farm5.staticflickr.com/4123/4875840284_e3ef444939.jpg","path":"b0b/c41/b0bc411f1269263c14eaaeb59e8757.jpg","date":"2010-08-07","year":2010,"month":8,"lon":10.053606,"lat":46.189693,"tags":"prato+valentino","S2CellId":"463f000000000000","result":2783,"accuracy":0.024663072,"title":"Alpi","description":"Gita+a+Prato+Valentino"}
{"id":5454068472,"url":"http://farm6.staticflickr.com/5175/5454068472_96428227f8.jpg","path":"862/ed3/862ed3d0982bf614ade41e9dcb989cd.jpg","date":"2011-02-17","year":2011,"month":2,"lon":10.274939,"lat":47.13819,"tags":"austria,europe,zurich","S2CellId":"4777c00000000000","result":3426,"accuracy":0.12117011,"title":"St+Anton+am+Arlberg"}
{"id":6594295633,"url":"http://farm8.staticflickr.com/7162/6594295633_e9aa8ca70c.jpg","path":"245/ded/245dedb61ec6c78a3c84693834eb6b76.jpg","date":"2010-11-11","year":2010,"month":11,"lon":9.180044,"lat":45.473007,"tags":"italia,italy,milan,milano,moss,stone","S2CellId":"488b000000000000","result":5763,"accuracy":0.0034521965,"title":"milano_11.11.2010_5292"}
{"id":6603529631,"url":"http://farm8.staticflickr.com/7174/6603529631_9442746aa1.jpg","path":"3b9/ccf/3b9ccfa35c0d2da8754386834fe316c.jpg","date":"2011-12-30","year":2011,"month":12,"lon":11.176003,"lat":47.32677,"tags":"black,portrait,reflection,self,tennis,tree,white","S2CellId":"46920a3000000000","result":2985,"accuracy":0.0061507933,"title":"Ein+Schatten+seiner+selbst"}
{"id":6977782332,"url":"http://farm8.staticflickr.com/7220/6977782332_1d8fa5960e.jpg","path":"dd7/18b/dd718bf21d44ff5bf6b90a5e7c8a92.jpg","date":"2012-04-28","year":2012,"month":4,"lon":9.596813,"lat":45.716724,"tags":"animals,nature","S2CellId":"88e77e4000000000","result":8673,"accuracy":0.044165846,"title":"IMG_1902"}
{"id":8288718642,"url":"http://farm9.staticflickr.com/8070/8288718642_1380cdb5fb.jpg","path":"b56/bf5/b56bf586c3391640b718325beaccafe.jpg","date":"2012-06-14","year":2012,"month":6,"lon":11.898772,"lat":45.408527,"tags":"180mm,7d,animalia,arthropoda,canon,canoneos7d,closeup,coccinella,coccinella+septempunctata,coccinellaseptepunctata,colors,female,femmina,insect,insecta,insectes,insectos,insects,insetti,insetto,italia,italy,septempunctata,sigma,sigma180,veneto","S2CellId":"47c5ef0000000000","result":4303,"accuracy":0.02287915,"title":"Coccinella+septempunctata++%28Linnaeus%2C+1758%29","description":"Coccinella+septempunctata%0A+%28Linnaeus%2C+1758%29"}
{"id":161857464,"url":"http://farm1.staticflickr.com/78/161857464_806b719a59.jpg","path":"ea5/efe/ea5efe431e0df44b2cc2239328be466.jpg","date":"2006-06-06","year":2006,"month":6,"lon":9.189548,"lat":45.480476,"tags":"loreto,milan,milano,via+soperga","S2CellId":"0d0dd40000000000","result":174,"accuracy":0.0037986545,"title":"Raffineria+condominiale..."}
{"id":1372202294,"url":"http://farm2.staticflickr.com/1440/1372202294_775ac892d6.jpg","path":"14b/8f8/14b8f836d29a877a51dc3865e28ba22.jpg","date":"2007-09-09","year":2007,"month":9,"lon":11.002453,"lat":45.448135,"tags":"italien,verona","S2CellId":"477f5f5000000000","result":3505,"accuracy":0.5920797,"title":"IMG_1956","description":"Blick+vom+Castel+San+Pietro+Richtung+S"}
{"id":2432379396,"url":"http://farm4.staticflickr.com/3016/2432379396_9bf78bf2df.jpg","path":"915/887/9158879d337f89d26cdacee486862f61.jpg","date":"2008-04-20","year":2008,"month":4,"lon":9.189205,"lat":45.465218,"tags":"design,italy,milan,salone+mobile","S2CellId":"4784b00000000000","result":3561,"accuracy":0.14772144,"title":"IMG_6992"}
{"id":2448455427,"url":"http://farm4.staticflickr.com/3024/2448455427_e2927296d6.jpg","path":"2c9/542/2c9542f08058195a144e6b097f59dfc.jpg","date":"2005-04-25","year":2005,"month":4,"lon":9.187746,"lat":45.158073,"tags":"animal,cat,dog,snale","S2CellId":"87e5000000000000","result":8030,"accuracy":0.025355158,"title":"italia2005-04_521"}
{"id":2592912797,"url":"http://farm4.staticflickr.com/3029/2592912797_06145bc8de.jpg","path":"40d/68f/40d68f72d95f37d3dcc52648b18b46a5.jpg","date":"2008-06-01","year":2008,"month":6,"lon":11.014995,"lat":45.44758,"tags":"festival,percussion,rock,sanpiox","S2CellId":"47c3d1d000000000","result":4229,"accuracy":0.046226162,"title":"Percussions","description":"At+San+Pio+X+Rock+Festival"}
{"id":2944586028,"url":"http://farm4.staticflickr.com/3171/2944586028_1c8d306539.jpg","path":"818/026/818026d9fbffbf66e01a2354ff759475.jpg","date":"2006-11-12","year":2006,"month":11,"lon":10.829515,"lat":46.23323,"tags":"bpvn,convention,convention+bpvn,k-events,madonna+di+campiglio","S2CellId":"8085873000000000","result":6971,"accuracy":0.06835578,"title":"vista+3d"}
{"id":3126810519,"url":"http://farm4.staticflickr.com/3260/3126810519_0a08e94b7c.jpg","path":"4b8/ca9/4b8ca9f4ecf85792cf9ffeddaa6d0bb.jpg","date":"2007-11-18","year":2007,"month":11,"lon":11.753311,"lat":47.71265,"tags":"tegernsee","S2CellId":"6002c00000000000","result":6427,"accuracy":0.10971212,"title":"Tegernsee+-+Sonne%2C+See+und+Schnee+18.11.2007"}
{"id":3455343636,"url":"http://farm4.staticflickr.com/3597/3455343636_93f188e061.jpg","path":"c78/70b/c7870b0bc87459dc0e3edd272902151.jpg","date":"2009-04-17","year":2009,"month":4,"lon":10.36663,"lat":45.712833,"tags":"brescia,capovalle,d40,desenzano,foto,garda,idro,miglia,mille,montichiari,nikon,photo,photos,pietrozoccola,rally,valvestino","S2CellId":"12d5f00000000000","result":931,"accuracy":0.05681911,"title":"DSC_6208+-+Renault+Clio+S1600","description":"33%C2%B0+Rally+1000+Miglia+-+17-04-2009++PS+2+-+Capovalle"}
{"id":4359328574,"url":"http://farm5.staticflickr.com/4022/4359328574_a5be4dd648.jpg","path":"7de/779/7de779d6337fb0bf98e85bd0ef6311ab.jpg","date":"2010-02-13","year":2010,"month":2,"lon":9.087129,"lat":45.81067,"tags":"como,d3000,italy,lago+di+como,lake,nikon","S2CellId":"47900a1000000000","result":3696,"accuracy":0.09270824,"title":"ready+to+fly"}
{"id":5380744034,"url":"http://farm6.staticflickr.com/5203/5380744034_d4e650df7a.jpg","path":"86f/9d6/86f9d64533da8bbc973e2b8fd32ee9e.jpg","date":"2010-10-28","year":2010,"month":10,"lon":11.757087,"lat":45.388203,"tags":"accommodation+rental+tuscany,apartments+italy,chianti+luxury+villas,cottages+to+castles,exclusive+luxury+villa+for+rent,exclusive+villa+tuscany,exclusive+villas+tuscany,exquisite+villa+italy,farmhouse+accommodation+tuscany,holiday+home+tuscany,holiday+homes+in+tuscany,holiday+rentals+in+tuscany,holiday+tuscany,italian+villa+rentals,italian+villas+for+rent,italian+wedding+locations,italy+rentals,italy+villa+pool,italy+villas+rentals,luxury+italian+villas,luxury+rent+tuscany,luxury+rental+tuscany,luxury+vacation+rental,luxury+villas+in+italy,luxury+weddings,padua+veneto+italy,padua+venice+vicenza+verona,real+estate+tuscany+italy,rent+a+villa+italy,rent+tuscany,rental+villas+in+tuscany,renting+tuscany,trust+%26+travel,trust+and+travel,tuscan+farmhouse,tuscan+rental,tuscan+rentals,tuscan+villa,tuscan+villa+rental,tuscan+villa+rentals,tuscan+villas+for+rent,tuscan+villas+rental,tuscany+agritourism,tuscany+apartment+rentals,tuscany+farmhouse+rental,tuscany+holiday+houses,tuscany+house+rentals,tuscany+italy,tuscany+rental,tuscany+vacation,villa+apartment+tuscany,villa+emo+capodilista,villa+for+rent+italy,villa+for+rent+tuscany,villa+italy,villa+tuscany,villa+tuscany+apartments,villas+for+rent,villas+to+rent+italy,villas+tuscany,villas+tuscany+rentals,villas+with+pool+tuscany,www.trustandtravel.com","S2CellId":"47e67db000000000","result":4682,"accuracy":0.053119797,"title":"Villa+Emo+Capodilista+-+Veneto","description":"%3Ca+href%3D%22http%3A%2F%2Fwww.trustandtravel.com%2Fvenetia%2Fvilla_villa-emo-capodilista.html%22+rel%3D%22nofollow%22%3Ewww.trustandtravel.com%2Fvenetia%2Fvilla_villa-emo-capodilist...%3C%2Fa%3E"}
{"id":5728743093,"url":"http://farm4.staticflickr.com/3507/5728743093_34405eefaa.jpg","path":"68c/b52/68cb52999c6e986f7211ed1b69f52f96.jpg","date":"2011-05-07","year":2011,"month":5,"lon":9.659578,"lat":46.256374,"tags":"2011,hat,italy,lombardia,may,melloblocco,red,saturday,spring,ufraw,val+di+mello,val+masino","S2CellId":"876bd00000000000","result":7867,"accuracy":0.030118246,"title":"DSC_1805"}
{"id":6236511351,"url":"http://farm7.staticflickr.com/6108/6236511351_27c5d4b003.jpg","path":"65f/b9e/65fb9e6c52b1c2a668404b3ae0671edc.jpg","date":"2011-06-01","year":2011,"month":6,"lon":10.993902,"lat":45.439453,"tags":"%E5%87%BA%E9%81%8A,%E9%A4%90%E5%BB%B3,arena,dmc-gf1,italy,panasonic,piazza+bra,road,sky,verona","S2CellId":"12d591c000000000","result":924,"accuracy":0.3758863,"title":"P1210968","description":"Arena+di+Verona+%E9%98%BF%E9%9B%B7%E9%82%A3%E7%AB%B6%E6%8A%80%E5%A0%B4%0APiazza+Bra+%E5%B8%83%E6%8B%89%E5%BB%A3%E5%A0%B4%0A%E7%BE%A9%E5%A4%A7%E5%88%A9+Verona+%E7%B6%AD%E7%BE%85%E7%B4%8D"}
{"id":7661023224,"url":"http://farm9.staticflickr.com/8423/7661023224_8d776c73a7.jpg","path":"56c/382/56c38235869edcd87a508b1185dc2.jpg","date":"2012-07-22","year":2012,"month":7,"lon":9.124091,"lat":45.611942,"tags":"17-40l,5d,antonini,canon,ex,ii,manicomio,mark,mombello,ospedale,psichiatrico,reportage","S2CellId":"47a8900000000000","result":3948,"accuracy":0.5167489,"title":"EX+Manicomio+%22G.+Antonini%22.","description":"Costruita+nel+1754+dall%E2%80%99architetto+Francesco+Croce+sui+resti+di+edifici+che+risalivano+addirittura+al+Medioevo%2C+nell%E2%80%99Ottocento+la+struttura+era+conosciuta+come+%E2%80%9Cla+villa+di+Napoleone%E2%80%9D%2C+perch%C3%A9+l%C3%AC+fiss%C3%B2+la+residenza+l%E2%80%99imperatore+francese+durante+la+campagna+d%E2%80%99Italia.+Un+secolo+pi%C3%B9+tardi+la+settecentesca+Villa+Pusterla-Crivelli+e+il+suo+grande+parco+vennero+trasformati+nell%E2%80%99+ospedale+psichiatrico+Giuseppe+Antonini%2C+che+intorno+al+1960+arriv%C3%B2+ad+avere+pi%C3%B9+di+3.000+pazienti%2C+attirandosi+l%E2%80%99appellativo+di+%E2%80%9Ccolosso+dei+manicomi+italiani%E2%80%9D.+Dopo+la+Legge+Basaglia+del+13+maggio+1978%2C+la+struttura+venne+lentamente+abbandonata+e+attualmente+quasi+la+totalit%C3%A0+dei+padiglioni+si+trova+in+uno+stato+di+totale+degrado+e+abbandono.%0A%0A________________________%0A%0A%0A%3Ca+href%3D%22http%3A%2F%2Fwww.wix.com%2Fmatte4president%2Fmatteopaciottiphotography%23%21%22+rel%3D%22nofollow%22%3E+WEBSITE+%3C%2Fa%3E+-+%3Ca+href%3D%22http%3A%2F%2Fwww.facebook.com%2Fpages%2FMatteo-Paciotti-Photography%2F150177438411699%3Fsk%3Dwall%22+rel%3D%22nofollow%22%3E+FACEBOOK+%3C%2Fa%3E+-+%3Ca+href%3D%22http%3A%2F%2Ftwitter.com%2F%23%21%2FMatte4president%22+rel%3D%22nofollow%22%3E+TWITTER+%3C%2Fa%3E%0A%0AWatch+on+Black+--%3E+hit+%22L%22+on+your+keyboard"}
{"id":9569531358,"url":"http://farm4.staticflickr.com/3696/9569531358_ff8ccf9efb.jpg","path":"f4c/462/f4c462895e961a7b0eaada4da7d6b6f.jpg","date":"2013-08-21","year":2013,"month":8,"lon":10.46043,"lat":45.82479,"tags":"620,artist,artista,bagolino,busker,buskers,circo,circus,clown,funambolo,mangiafuoco,olympus,pagliaccio,palazzani,riccardo,sputafuoco,sterza,veridiano3","S2CellId":"0d42287f00000000","result":369,"accuracy":0.11672802,"title":"Il+Circo+Sterza%21","description":"Bagolino%2C+piazza+Marconi%2C+21+agosto+2013%2C+va+in+scena+il+circo+Sterza%21"}
{"id":9768856612,"url":"http://farm3.staticflickr.com/2867/9768856612_63010227a0.jpg","path":"f79/31d/f7931de84b6f64569aea13c9cee2226c.jpg","date":"2013-09-09","year":2013,"month":9,"lon":9.192052,"lat":47.704693,"tags":"1001+gardens,2013,baden-w%C3%BCrttemberg,duitsland,herfst,mainau,september,tuin","S2CellId":"0d56c00000000000","result":472,"accuracy":0.0060062967,"title":"Insel+Mainau"}
{"id":13019210563,"url":"http://farm3.staticflickr.com/2883/13019210563_a3d1dbd5bd.jpg","path":"428/241/42824106e9e18afdaa43fddd75b19.jpg","date":"2014-03-08","year":2014,"month":3,"lon":11.732155,"lat":45.335667,"tags":"earlybird,instagram+app,iphoneography,square,square+format","S2CellId":"14caf00000000000","result":1323,"accuracy":0.06656047,"title":"Tonight+%23budino+with+friends%21+%23Buddineria+%23Torreglia"}
{"id":257542842,"url":"http://farm1.staticflickr.com/92/257542842_42a2eb0f8a.jpg","path":"705/fd8/705fd82a8988cf687648e41b2b7a57.jpg","date":"2006-04-15","year":2006,"month":4,"lon":9.108695,"lat":47.255756,"tags":"osterlager+2006","S2CellId":"88dd900000000000","result":8636,"accuracy":0.010634355,"title":"imgp0408.jpg"}
{"id":334037115,"url":"http://farm1.staticflickr.com/165/334037115_c25d610f12.jpg","path":"fda/6f7/fda6f7f85ada2ef2791db77a57c0fb54.jpg","date":"2006-12-24","year":2006,"month":12,"lon":11.151401,"lat":46.44602,"tags":"2006,fire,fondo,italia,mains,red,snow,trentino,val+di+non,valle+di+non,water","S2CellId":"4887d40000000000","result":5726,"accuracy":0.013679422,"title":"Water+%26+Ice","description":"%5BIMG_1739%5D"}
{"id":706028179,"url":"http://farm2.staticflickr.com/1179/706028179_f64b25f08f.jpg","path":"3d9/c38/3d9c388a867302ec959c03ee5c6baae.jpg","date":"2007-07-03","year":2007,"month":7,"lon":9.706077,"lat":45.666306,"tags":"2008,ab300f,bergamo,dhl,flame,games,olympic,olympic+flame","S2CellId":"4cc91a5100000000","result":5890,"accuracy":0.11707992,"title":"P1011586_filtered1","description":"Christian+and+Manuele+with+the+Flame"}
{"id":1127247114,"url":"http://farm2.staticflickr.com/1011/1127247114_ba610e326a.jpg","path":"161/ab1/161ab1fd9bb6baf6f1dd7ac959ff577.jpg","date":"2007-07-07","year":2007,"month":7,"lon":11.287422,"lat":47.91358,"tags":"hochzeit,wedding","S2CellId":"12c9100000000000","result":838,"accuracy":0.040834,"title":"CIMG0539"}
{"id":1461415472,"url":"http://farm2.staticflickr.com/1327/1461415472_8075ca2fe3.jpg","path":"4d8/9ef/4d89efbfba7b4fb5e64656355d2517d7.jpg","date":"2007-09-19","year":2007,"month":9,"lon":9.32825,"lat":46.150345,"tags":"bellaggio,bellagio,como,domaso,lake","S2CellId":"a9d5400000000000","result":9944,"accuracy":0.5412507,"title":"como"}
{"id":1475557424,"url":"http://farm2.staticflickr.com/1131/1475557424_c4528410ae.jpg","path":"682/7e8/6827e837cd7dc5d88dd8214df6dd5523.jpg","date":"2007-07-04","year":2007,"month":7,"lon":9.225769,"lat":45.22183,"tags":"400d,acqua,animal,canon,chrysemys+picta,eos,nature,oasi,reptile,rettile,sant%27alessio,tartaruga,turtle,water","S2CellId":"88d0a631cabb5071","result":8563,"accuracy":0.019342816,"title":"Water+turtle+%28tartaruga+d%27acqua%29","description":"Chrysemys+picta+%28i+think%29%0A%0A%3Ca+href%3D%22http%3A%2F%2Fen.wikipedia.org%2Fwiki%2FPainted_Turtle%22%3Een.wikipedia.org%2Fwiki%2FPainted_Turtle%3C%2Fa%3E%0A%3Ca+href%3D%22http%3A%2F%2Fit.wikipedia.org%2Fwiki%2FEmydidae%22%3Eit.wikipedia.org%2Fwiki%2FEmydidae%3C%2Fa%3E%0A%0ADoesn%27t+she+%28I+decided+she+is+a+she%29+has+a+friendly+kind+little+snout%3F+%3A%29"}
{"id":3471261409,"url":"http://farm4.staticflickr.com/3138/3471261409_ee0f4337b5.jpg","path":"49e/13b/49e13bee11a548fdc77aa5d3b13c8a37.jpg","date":"2009-04-22","year":2009,"month":4,"lon":9.159958,"lat":45.451115,"tags":"design,fuori,interior,milan,salone,week","S2CellId":"465f9d7000000000","result":2928,"accuracy":0.008180447,"title":"CIMG1281"}
{"id":4468815803,"url":"http://farm5.staticflickr.com/4028/4468815803_aa2a360576.jpg","path":"e3a/bcd/e3abcdab6679e9bd9715053ea11183b.jpg","date":"2010-03-27","year":2010,"month":3,"lon":9.239212,"lat":45.433674,"tags":"crossdresser,tgirl,transgender,transvestite,travestito","S2CellId":"47c5b71000000000","result":4277,"accuracy":0.027750038,"title":"Milano+Rogoredo"}
{"id":5482445424,"url":"http://farm6.staticflickr.com/5098/5482445424_2db48f9d27.jpg","path":"189/638/189638ed5a9dba74a8592ddb5c9a52d.jpg","date":"2011-02-14","year":2011,"month":2,"lon":11.00712,"lat":45.443596,"tags":"februar,urlaub,verona","S2CellId":"864e640000000000","result":7620,"accuracy":0.108839765,"title":"%3F","description":"Hat+uns+schon+bei+der+Ankunft+%C3%BCberall+erfreut%2C+aber+was+ist+es%3F"}
{"id":5807266087,"url":"http://farm4.staticflickr.com/3226/5807266087_f318ae0143.jpg","path":"804/299/8042993e648fed496e6b367db86a6ad9.jpg","date":"2011-05-22","year":2011,"month":5,"lon":10.691928,"lat":45.441105,"tags":"a350,alpha,bella+italia,fortress,holiday,italy,lake+garda,moat,peschiera+del+garda,sony,wall,water","S2CellId":"4779500000000000","result":3434,"accuracy":0.0157298,"title":"Peschiera+del+Garda","description":"This+picture+is+available+to+use+for+free%2C+under+the+creative+commons+licence.+All+I+ask+is+that+I%27m+given+a+photo+credit+%26+a+courtesy+email+to+let+me+know+how+it%27s+being+used."}
{"id":8051851367,"url":"http://farm9.staticflickr.com/8455/8051851367_4ac370a4d2.jpg","path":"6f1/360/6f1360d48d1b7f5e2ca3cb3e6a8afef.jpg","date":"2010-06-24","year":2010,"month":6,"lon":10.840904,"lat":45.884506,"tags":"blogfest+blogfest2012+blogfest12+mia+mba+macchianera+awards+macchianera+blog+awards+macchianera+italian+awards+mia2012+rivadelgarda+trentino+premi+premiazioni+festa+blog+blogger+blogosfera+twitter,tweet+awards,tweeters,twit+awards","S2CellId":"52b3329000000000","result":5984,"accuracy":0.09191015,"title":"BlogFest+2012","description":"Le+foto+ufficiali+della+BlogFest+2012%2C+che+si+%C3%A8+tenuta+a+Riva+del+Garda+dal+28+al+30+settembre+2012.+Foto+di+Eleonora+Raggi."}
{"id":8291999670,"url":"http://farm9.staticflickr.com/8501/8291999670_c2e26f3bda.jpg","path":"893/136/893136c84a4f1ba766573cd861065c7.jpg","date":"2012-12-20","year":2012,"month":12,"lon":10.063058,"lat":45.60039,"tags":"in+viaggio+per+il+mondo,incontro+tra+popoli,intercultura,mostra+fotografica,mostra+fotografica+itinerante,viaggio","S2CellId":"12a4a2f6d0000000","result":734,"accuracy":0.0033997989,"title":"In-viaggio-per-il-mondo_-Passirano-%2819%29","description":"Tappa+a+Passirano+dal+8+al+16+dicembre+2012"}
{"id":33743909,"url":"http://farm1.staticflickr.com/22/33743909_b376de8bd5.jpg","path":"173/ece/173eceb1435cbbed23ec1530d7af6a45.jpg","date":"2005-08-09","year":2005,"month":8,"lon":11.87725,"lat":47.417168,"tags":"alpachtal,austria","S2CellId":"478ef00000000000","result":3685,"accuracy":0.08788935,"title":"alpachtal"}
{"id":2123743982,"url":"http://farm3.staticflickr.com/2404/2123743982_bd75e35da8.jpg","path":"70a/3a2/70a3a2bf045be324eb5d13471b68fc0.jpg","date":"2007-12-19","year":2007,"month":12,"lon":9.219733,"lat":45.4948,"tags":"apple,macbook,unpacking","S2CellId":"889d000000000000","result":8525,"accuracy":0.010372869,"title":"Opening+the+Cinema+Display+Box","description":"As+soon+as+I+opened+it%2C+on+the+top+there+was+an+envelope+with+the+manual"}
{"id":2747879590,"url":"http://farm4.staticflickr.com/3066/2747879590_d8bc03d3b2.jpg","path":"281/bda/281bda8ebf78b1e53cce3960c96272.jpg","date":"2008-07-27","year":2008,"month":7,"lon":10.839654,"lat":45.88484,"tags":"riva+del+garda","S2CellId":"477b6c0000000000","result":3443,"accuracy":0.11909292,"title":"DSC_6007"}
{"id":2797165753,"url":"http://farm4.staticflickr.com/3276/2797165753_bea5de4000.jpg","path":"30e/14e/30e14e80741ff63b196e9b93c76c7dc5.jpg","date":"2008-08-23","year":2008,"month":8,"lon":9.442169,"lat":45.631054,"tags":"alessandro,contrabbasso,garlaschelli,jazz,prada","S2CellId":"0d37f00000000000","result":326,"accuracy":0.15605532,"title":"Garlaschelli"}
{"id":4096597676,"url":"http://farm3.staticflickr.com/2425/4096597676_9662be4d5b.jpg","path":"8e5/84d/8e584dab82dfde4b47707c3f6441aa68.jpg","date":"2009-11-11","year":2009,"month":11,"lon":9.509396,"lat":46.873425,"tags":"berg,calanda,chur,coire,graub%C3%BCnden,grisons,montagne,mountain,nature,schweiz,stadt,suisse,swiss,switzerland,town,ville","S2CellId":"478fb00000000000","result":3691,"accuracy":0.118755594,"title":"Chur+from+Calenda","description":"%3Ca+href%3D%22http%3A%2F%2Fwww.talibamba.com%22+target%3D%22_blank%22+rel%3D%22nofollow%22%3Ewww.talibamba.com+%3C%2Fa%3E"}
{"id":5827570929,"url":"http://farm3.staticflickr.com/2575/5827570929_56ef313a06.jpg","path":"d63/7a0/d637a0ac52516c8f0c35b848fea4b3.jpg","date":"2011-06-12","year":2011,"month":6,"lon":11.28107,"lat":47.66475,"tags":"freilichtmuseum,glentleiten,gro%C3%9Fweil,museum","S2CellId":"0d56c00000000000","result":472,"accuracy":0.009639392,"title":"Glentleiten"}
{"id":5946674075,"url":"http://farm7.staticflickr.com/6135/5946674075_f8272eba7c.jpg","path":"d02/bdb/d02bdb1b219ce732f773328ba7138db.jpg","date":"2011-07-14","year":2011,"month":7,"lon":9.176091,"lat":45.452484,"tags":"canal,duct,europe,italia,italy,milan,milano,outdoors,vertical,water,watercourse,waterway","S2CellId":"477e700000000000","result":3455,"accuracy":0.27281666,"title":"Canal+along+Ripa+di+Porta+Ticinese","description":"Part+of+the+canal+system+in+Milano"}
{"id":7542472024,"url":"http://farm8.staticflickr.com/7251/7542472024_33622cdcd0.jpg","path":"11f/f3d/11ff3dd2aeedd26f3f962192365d1.jpg","date":"2012-07-10","year":2012,"month":7,"lon":9.187879,"lat":45.450966,"tags":"brannan,instagram+app,iphoneography,square,square+format","S2CellId":"12a4a27400000000","result":715,"accuracy":0.0055777123,"title":"Corner+%23replyxchange12"}
{"id":8134587988,"url":"http://farm9.staticflickr.com/8056/8134587988_280e1a0c68.jpg","path":"a0e/a73/a0ea737e8a7e12753a7dbdb3746432ff.jpg","date":"2012-10-29","year":2012,"month":10,"lon":9.237581,"lat":45.47612,"tags":"12+a+32,2012%2F2013,campionato,campo+crespi,fango,girone+1,lupi+di+varroto,milano,pioggia,rugby,rugby+rovato+1976,serie+b,sports,union+96","S2CellId":"4781700000000000","result":3532,"accuracy":0.20901634,"title":"Milani+studia+il+piazzamento+dei+compagni.","description":"Union+96+12+-+Rovato+32"}
{"id":10416407666,"url":"http://farm8.staticflickr.com/7430/10416407666_090b44b76a.jpg","path":"bbd/db7/bbddb7b79f5f23bdb8eac37dae46eaf8.jpg","date":"2013-10-21","year":2013,"month":10,"lon":10.219752,"lat":45.567112,"tags":"2004,620,asd,brescia,calcio,ciro,corradini,leonessa,luana,olympus,palazzani,punto,riccardo,subbuteo,tavolo,tv,veridiano3,vollero,zona","S2CellId":"0730000000000000","result":95,"accuracy":0.05303094,"title":"ASD+Leonessa+2004+on+Air%21","description":"21+ottobre+2013+-+Collegamento+in+diretta+con+la+trasmissione+%22Zona+Ciro%22+sul+canale+Brescia+Punto+TV"}
{"id":10424057505,"url":"http://farm3.staticflickr.com/2883/10424057505_590492fb03.jpg","path":"57e/469/57e4695b27f9b3ac06ab54487226cad.jpg","date":"2013-10-21","year":2013,"month":10,"lon":9.189162,"lat":45.483456,"tags":"%E2%80%9Cmallmixstaraward%E2%80%9D,1001nights,allmemorieswelcome,architettura,arte,artofimages,colorphotoaward,eventidafotografare,grattacieli,italia,italy,lefotopi%C3%B9belledelmondo,lombardia,lumixdmctz8,milano,musei,palazzi,scultore,scultura,skyscraper,theperfectphotographer,thesuperbmasterpiece","S2CellId":"60188b7000000000","result":6477,"accuracy":0.16380228,"title":"Le+torri+con+la+guglia","description":"Milano%2C+Isola%3A+Palazzo+Unicredit"}
{"id":31106260,"url":"http://farm1.staticflickr.com/21/31106260_972cdab0d0.jpg","path":"1f5/883/1f58832181d4a52f244bd463e83aee3c.jpg","date":"2005-07-22","year":2005,"month":7,"lon":9.40854,"lat":47.331436,"tags":"appenzell,switzerland","S2CellId":"47a5400000000000","result":3884,"accuracy":0.05296789,"title":"Appenzell%2CCH+%28313%290240"}
{"id":2397341757,"url":"http://farm3.staticflickr.com/2333/2397341757_3eedfc6782.jpg","path":"9ed/38d/9ed38dae101bc9cd8e3f91b80ac9481.jpg","date":"2008-04-06","year":2008,"month":4,"lon":11.37126,"lat":47.25582,"tags":"ya-city-innsbruck,ya-country-at,ya-state-austria,ya-vandal1,yellowarrow","S2CellId":"4773940000000000","result":3396,"accuracy":0.11025593,"title":"1pur","description":"%3Cb%3EBy%3C%2Fb%3E+%3Ca+href%3D%22http%3A%2F%2Fwww.flickr.com%2Fphotos%2Fyellowarrow%2Fsets%2F72157604391483852%2F%22%3Evandal1%3C%2Fa%3E%0A%3Cb%3ELocation%3A%3C%2Fb%3E+Stumpfstrasse%2C+%3Ca+href%3D%22http%3A%2F%2Fwww.flickr.com%2Fphotos%2Fyellowarrow%2Fsets%2F72157604434604697%2F%22%3EInnsbruck%3C%2Fa%3E%2C+%3Ca+href%3D%22http%3A%2F%2Fwww.flickr.com%2Fphotos%2Fyellowarrow%2Fsets%2F72157604434604653%2F%22%3EAustria%3C%2Fa%3E+%28%3Ca+href%3D%22http%3A%2F%2Fwww.flickr.com%2Fphotos%2Fyellowarrow%2Fsets%2F72157604434583013%2F%22%3EAT%3C%2Fa%3E%29%0A%0A%3Cb%3ETXT%3A%3C%2Fb%3E+horizontal+and+vertical+-+bridges+from+house+to+house"}
{"id":4019368376,"url":"http://farm3.staticflickr.com/2546/4019368376_a17f8b0510.jpg","path":"1e9/5e3/1e95e333ff172276a33a6d0f498fc43.jpg","date":"2009-10-17","year":2009,"month":10,"lon":9.129123,"lat":45.79437,"tags":"bokehlicious,d700,macro,nature,nikon,rose,sigma180mmf35apomacro","S2CellId":"0d47700000000000","result":401,"accuracy":0.015821928,"title":"Rosa"}
{"id":4103103796,"url":"http://farm3.staticflickr.com/2425/4103103796_46bedbec88.jpg","path":"d88/f89/d88f895b36d9934984fcffd93ee3a48b.jpg","date":"2009-11-07","year":2009,"month":11,"lon":11.394475,"lat":47.270718,"tags":"%C3%A4rztetagung,%C3%B6sterreich,07.11.2009,a,alpen,alps,austria,bergrettungs%C3%A4rztetagung,innsbruck,kongresszentrum,tagung,tirol","S2CellId":"89c258f100000000","result":8982,"accuracy":0.011051373,"title":"Bergrettungs%C3%A4rztetagung+7.11.2009","description":"Innenraum+eines+Skischlittens+zum+sehr+bequemen+Transport+von+Patienten."}
{"id":4205876413,"url":"http://farm5.staticflickr.com/4015/4205876413_09c90df688.jpg","path":"75e/8f4/75e8f4a1bd3c92a7276aa0724fd0b3d.jpg","date":"2009-12-22","year":2009,"month":12,"lon":9.642605,"lat":45.36044,"tags":"balls,country,hay,haystacks,snow,weird,winter","S2CellId":"4779300000000000","result":3433,"accuracy":0.02553804,"title":"weird+field"}
{"id":4250092064,"url":"http://farm3.staticflickr.com/2729/4250092064_21288269d9.jpg","path":"465/22b/46522bbe4d8872927efc395ede45d06f.jpg","date":"2010-01-01","year":2010,"month":1,"lon":9.385929,"lat":47.431686,"tags":"canon+eos+400d,colour,deer-park,digital,rotmonden,schweiz,sika,square,st.+gallen,switzerland,wildpark","S2CellId":"46524c0000000000","result":2849,"accuracy":0.02320767,"title":"*","description":"St.+Gallen%2C+01%2F2010"}
{"id":4278608085,"url":"http://farm5.staticflickr.com/4021/4278608085_2761cfcbd6.jpg","path":"b81/3c9/b813c9474598a1e92f503d9d7ce097.jpg","date":"2010-01-08","year":2010,"month":1,"lon":11.557091,"lat":47.760597,"tags":"83646,bad+t%C3%B6lz,bad+t%C3%B6lz-wolfratshausen,bavaria,bayern,br%C3%BCcke,bridge,bus,city,d,deutschland,fluss,germany,isar,oberbayern,omnibus,river,stadt,t%C3%B6l","S2CellId":"4691000000000000","result":2978,"accuracy":0.10526808,"title":"Bad+T%C3%B6lz+am+8.1.2010","description":"Beleuchteter+Omnibus+auf+der+Isarbr%C3%BCcke+%28Marktstra%C3%9Fe%29+in+Bad+T%C3%B6lz."}
{"id":4492817944,"url":"http://farm3.staticflickr.com/2696/4492817944_eccb1105db.jpg","path":"2bb/6fd/2bb6fda35359c12a7649cbec31e9e06a.jpg","date":"2010-04-04","year":2010,"month":4,"lon":9.473669,"lat":47.099022,"tags":"animal,animal+planet,cat,cat+picture,cats+katze+animals,cute,dreamshoot,eyes,gato,kissablekat,kitten,kitty,maine+coon,marcel+steger,olympus+e3,pet,pets,tabby,tiere","S2CellId":"47edc00000000000","result":4703,"accuracy":0.011190882,"title":"P4041429_b2","description":"Eine+der+sch%C3%B6nsten+%22Maine+Coone%22+Zucht+der+Schweiz.+%0A%0ADie+Zucht+von+Frau+u.+Herr+Gabathuler+%0A%0A%3Ca+href%3D%22http%3A%2F%2Fwww.mega-coons.ch%2Findex1.htm%22+rel%3D%22nofollow%22%3E%22Maine+Coons+vom+Magletsch%22%3C%2Fa%3E%0A%0ANochmals+vielen+Dank+f%C3%BCr+den+herzlichen+Empfang+und+bis+bald..."}
{"id":6001609882,"url":"http://farm7.staticflickr.com/6138/6001609882_cf25e2802f.jpg","path":"f45/935/f459355203fb396a9519ef53a18ab7.jpg","date":"2011-07-30","year":2011,"month":7,"lon":9.481673,"lat":47.650154,"tags":"bodensee,bregenz,friedrichshafen,konstanz,lindau,marienschlucht,meersburg,stein+am+rhein,wasserburg","S2CellId":"478c500000000000","result":3655,"accuracy":0.17080128,"title":"Bodensee_04_Friedrichshafen_2011_025"}
{"id":6093958317,"url":"http://farm7.staticflickr.com/6206/6093958317_e0f936dd38.jpg","path":"64a/c48/64ac48eab8d18328fcaec1432644b3a.jpg","date":"2011-08-10","year":2011,"month":8,"lon":11.011905,"lat":46.85784,"tags":"alps,edelweiss,galcier,innsbruckh,obergurgl,obergurgl+otzal+austria+alps,obergurgl+otztal+austria+alps,ramolhaus,timmelsjoc,tirol","S2CellId":"4615000000000000","result":2764,"accuracy":0.5925865,"title":"Austria-1459"}
{"id":6330195120,"url":"http://farm7.staticflickr.com/6095/6330195120_b5ce624d69.jpg","path":"246/32a/24632a151acc0b9c8503ce58b45a826.jpg","date":"2011-09-10","year":2011,"month":9,"lon":9.745109,"lat":47.50395,"tags":"2011,bregenz,junge+gr%C3%BCne,vegan,veganmania,vorarlberg","S2CellId":"89d5400000000000","result":9263,"accuracy":0.008212454,"title":"Veganmania+Bregenz+%287%29"}
{"id":6905904298,"url":"http://farm8.staticflickr.com/7075/6905904298_78b39de4fb.jpg","path":"b78/0a8/b780a81c6a7fd213f0c325e981cba.jpg","date":"2012-04-06","year":2012,"month":4,"lon":9.188184,"lat":45.46045,"tags":"milano","S2CellId":"40d4ce4000000000","result":2701,"accuracy":0.033942975,"title":"El+caval+stracch+del+Missori","description":"...in+piazza+Missori%2C+Milano+-+06%2F04%2F12"}
{"id":7932238900,"url":"http://farm9.staticflickr.com/8316/7932238900_845d9275e3.jpg","path":"163/a98/163a987f217b9e13bd8d3b11f6ba663.jpg","date":"2012-09-04","year":2012,"month":9,"lon":11.922783,"lat":45.400032,"tags":"100mm,7d,animalia,arthropoda,canon,cimice,cimici,crop,eos,insect,insecta,insectes,insectos,insects,insetti,macro,nature,nezaraviridula,ninfa,pentatomidae","S2CellId":"4873a30000000000","result":5089,"accuracy":0.021743394,"title":"Mi+ami%3F+Ma+quanto+mi+ami%3F","description":"Mi+ami%3F+Ma+quanto+mi+ami%3F"}
{"id":7991407801,"url":"http://farm9.staticflickr.com/8297/7991407801_0f5091d745.jpg","path":"45e/2cc/45e2cc65272cccb13e13148f82bbf93d.jpg","date":"2008-05-12","year":2008,"month":5,"lon":9.341166,"lat":47.599335,"tags":"switzerland,thurgau,uttwil,weakboard","S2CellId":"548ff00000000000","result":6177,"accuracy":0.105227716,"title":"17+mm+-+%C2%B9%E2%81%84%E2%82%82%E2%82%85%E2%82%80+Sek.+-+f%2F8.0","description":"080512_3s_9100.jpg+-+12.05.2008"}
{"id":7992104566,"url":"http://farm9.staticflickr.com/8318/7992104566_bd559fd892.jpg","path":"84c/537/84c537159d39dbe4808ca3aeffeb16db.jpg","date":"2008-10-18","year":2008,"month":10,"lon":9.389018,"lat":46.569675,"tags":"graub%C3%BCnden,schweiz,solis,sufers","S2CellId":"465f9d7000000000","result":2928,"accuracy":0.018918568,"title":"38+mm+-+%C2%B9%E2%81%84%E2%82%86%E2%82%80+Sek.+-+f%2F5.0","description":"081018_stoipi_5909.jpg+-+18.10.2008"}
{"id":2128124093,"url":"http://farm3.staticflickr.com/2297/2128124093_208d226086.jpg","path":"1b3/fc8/1b3fc8f12e7fafe515e039e4537237a5.jpg","date":"2007-06-02","year":2007,"month":6,"lon":9.280539,"lat":47.389217,"tags":"appenzeller,feinschmecker,msam,msm,musikschule,musikschulkonzert,musikunterricht,remu","S2CellId":"8849000000000000","result":8403,"accuracy":0.050393492,"title":"Chor-+und+Ensembletreffen","description":"REMU+Regionalverband+Musikschulen%0Ain+Herisau"}
{"id":2789579601,"url":"http://farm4.staticflickr.com/3109/2789579601_d5f0b04670.jpg","path":"8ff/d59/8ffd592f7b273d1e4735462d4de3515.jpg","date":"2008-08-19","year":2008,"month":8,"lon":11.36991,"lat":46.47892,"tags":"geba%CC%88ude,urlaub","S2CellId":"88fd000000000000","result":8754,"accuracy":0.08400429,"title":"Bozen+%26+Meran+025","description":"Bozen+und+Meran"}
{"id":3098816910,"url":"http://farm4.staticflickr.com/3113/3098816910_051a096159.jpg","path":"7dd/081/7dd081c669aedc2aa45b9e1610c29e18.jpg","date":"2008-12-09","year":2008,"month":12,"lon":10.746474,"lat":47.557213,"tags":"2008,alpsee,bavaria,bayern,bild,burg,cc,creative+commons,dezember,flickr,foto,free,high+resolution,hohenschwangau,image,neogotik,neugotik,photo,picture,schloss,schwangau,schwanstein,stockphoto,winter","S2CellId":"47c3dc0000000000","result":4234,"accuracy":0.008457013,"title":"2008-12-09+Wieskirche%2C+Steingaden%2C+Neuschwanstein+037+Hohenschwangau"}
{"id":5653703056,"url":"http://farm6.staticflickr.com/5190/5653703056_3ca192345a.jpg","path":"5d2/ee9/5d2ee927d9b5198cd473d791a21c280.jpg","date":"2011-03-25","year":2011,"month":3,"lon":9.270851,"lat":47.693356,"tags":"airship,friedrichshafen,zeppelin","S2CellId":"12acc00000000000","result":779,"accuracy":0.115910605,"title":"11_IMG_0447"}
{"id":8736617636,"url":"http://farm8.staticflickr.com/7301/8736617636_df0f03236d.jpg","path":"e4d/d2c/e4dd2cd8dcc7dd48765a248ee72ffa8d.jpg","date":"2013-05-13","year":2013,"month":5,"lon":9.140397,"lat":45.42816,"tags":"barona,cameraphone,campi,champs,ciel,cielo,fields,milano,parco+agricolo+sud,rice-field,risaia,rizi%C3%A8re,sky,zona+barona","S2CellId":"12a6f00000000000","result":767,"accuracy":0.04750127,"title":"fabcom_DSC_0616"}
{"id":9792481444,"url":"http://farm3.staticflickr.com/2809/9792481444_c462ef9745.jpg","path":"f61/be3/f61be3b2edf6dcb2347d15d6f4f0cc.jpg","date":"2013-08-27","year":2013,"month":8,"lon":11.086277,"lat":47.48902,"tags":"affrescate,case,garmisch,garmisch-partenkirchen,germania,partenkirchen","S2CellId":"47f9000000000000","result":4733,"accuracy":0.03825487,"title":"Garmisch-Partenkirchen+%5BD%5D%2C+2013.","description":"%3Cb%3EWikipedia%3A+%3Ca+href%3D%22http%3A%2F%2Fit.wikipedia.org%2Fwiki%2FGarmisch-Partenkirchen%22+rel%3D%22nofollow%22%3EGarmisch-Partenkirchen%3C%2Fa%3E.%3C%2Fb%3E"}
{"id":10641952085,"url":"http://farm6.staticflickr.com/5528/10641952085_8651100c12.jpg","path":"8bf/17d/8bf17d4af9c4bcdcd59ffd2f5b4dc3.jpg","date":"2013-11-02","year":2013,"month":11,"lon":9.176,"lat":47.663834,"tags":"allemagne,deutschland,germany,konstanz","S2CellId":"479ec00000000000","result":3862,"accuracy":0.02729846,"title":"Konstanz","description":"Konstanz"}
{"id":668576237,"url":"http://farm2.staticflickr.com/1072/668576237_016a90e47d.jpg","path":"482/6a1/4826a172f448ddcf6d269e55498697.jpg","date":"2007-06-30","year":2007,"month":6,"lon":9.599304,"lat":47.787327,"tags":"alemania,deutschland,erasmus,germany,ravensburg","S2CellId":"85d2010000000000","result":7483,"accuracy":0.05753826,"title":"tatianageburstag000_0306.jpg"}
{"id":1304451765,"url":"http://farm2.staticflickr.com/1192/1304451765_5ab1bcd20a.jpg","path":"1a3/ceb/1a3ceb9df79ee9b6e8dd9aec90b38.jpg","date":"2007-08-24","year":2007,"month":8,"lon":9.194011,"lat":45.46928,"tags":"europe,italy,milan","S2CellId":"132a56c000000000","result":1035,"accuracy":0.13392892,"title":"Milan"}
{"id":1453470345,"url":"http://farm2.staticflickr.com/1134/1453470345_274e937504.jpg","path":"440/f84/440f848df6e27d25c64f515bb52df9.jpg","date":"2007-09-05","year":2007,"month":9,"lon":9.537806,"lat":45.596954,"tags":"2007,adda,capriate,contre,crespi,gervasio,grass,italia,italy,joint,jour,landscape,lombardia,memory,milano,pineta,san,shadow,sony+cybershot+dsc-r1,sun,tree,unesco,weed","S2CellId":"94ce59f000000000","result":9723,"accuracy":0.041712213,"title":"Crespi+d%27Adda+%28Italy%29","description":"Quanti+ricordi+alla+pineta+di+Crespi..."}
{"id":2282914475,"url":"http://farm4.staticflickr.com/3134/2282914475_0e9fc27235.jpg","path":"628/cb0/628cb094cfc9f02aef2be3d1f0d5d853.jpg","date":"2008-02-18","year":2008,"month":2,"lon":11.406238,"lat":47.239376,"tags":"austria,innsbruck,tcws08,tencompetence,winterschool2008","S2CellId":"47c3c4d000000000","result":4219,"accuracy":0.04540515,"title":"DSC_8530"}
{"id":2759052295,"url":"http://farm4.staticflickr.com/3100/2759052295_6dfd5baf1b.jpg","path":"2dc/1d7/2dc1d74fb797b4f846865c402f771e4d.jpg","date":"2008-08-10","year":2008,"month":8,"lon":10.053119,"lat":47.312897,"tags":"%C3%BCntschenspitze","S2CellId":"4777c00000000000","result":3426,"accuracy":0.08032973,"title":"%C3%BCntschengrat"}
{"id":3795860154,"url":"http://farm3.staticflickr.com/2465/3795860154_ab5fee63e0.jpg","path":"efb/383/efb38364fa879b178cbfe443151fe0.jpg","date":"2009-08-06","year":2009,"month":8,"lon":9.812078,"lat":46.80229,"tags":"black%26white,davos,hotel,schwarz-weiss,schweiz,switzerland","S2CellId":"8085808d00000000","result":6945,"accuracy":0.0073014284,"title":"The+Shining"}
{"id":5005776650,"url":"http://farm5.staticflickr.com/4083/5005776650_b085e4b166.jpg","path":"e64/8c3/e648c3cb9136d372e9adb3aa22fb21.jpg","date":"2010-09-19","year":2010,"month":9,"lon":10.509797,"lat":46.261425,"tags":"adamello,adamello+bike+2010,mtb,ponte+di+legno,www.giscover.com","S2CellId":"12c9100000000000","result":838,"accuracy":0.08943444,"title":"IMG_0448"}
{"id":5022442722,"url":"http://farm5.staticflickr.com/4132/5022442722_d449a56cc3.jpg","path":"6ac/e86/6ace868966861dafa1df55c34245f473.jpg","date":"2010-09-21","year":2010,"month":9,"lon":9.186814,"lat":45.466133,"tags":"%23smwmln,bto,bto+educational,marco+monty+montemagno,milano,smw,social+media+week,toscana+lab","S2CellId":"132efb5000000000","result":1067,"accuracy":0.045974463,"title":"SMW+Milan+-+Tango+e+Milonga+21_Sept_2K10_17","description":"Tango%2C+il+social+network+dell%27abbraccio.+Milonga+per+la+Social+Media+Week.%0A%0AMarted%C3%AC+21+settembre+alle+ore+21.00%0A%0ALe+Banque%0ABassano+Porrone%2C+6%0AMilano%0A%0AMa+che+mi+parli+a+fare+su+Facebook+se+non+balli+mai+un+tango+con+me%3F%0A%0ANella+Rete+del+Tango.+Il+social+network+planetario+dell%27abbraccio.+Che+a+volte%2C+ti+cambia+la+vita.%0A%0AChe+cosa+c%27%C3%A8+di+pi%C3%B9+socializzante+del+tango%2C+e+del+ballo+di+coppia+in+generale%3F+Che+caratteristiche+hanno+le+relazioni+che+nascono+e+si+sviluppano+nelle+milonghe+di+tutto+il+mondo%3F+Perch%C3%A9%2C+e+come%2C+si+finisce+nella+rete+del+Tango%3F%0A%0ADi+questi+temi%2C+e+di+come+il+tango+oggi%2C+per+molti%2C+sia+una+inaspettata+quanto+piacevole+dipendenza%2C+se+ne+%C3%A8+parlato%2C+ballando%2C+al+primo+AperitivoTango+della+stagione+2010-2011+di+Le+Banque%2C+che+ha+ospitato+uno+degli+oltre+novanta+eventi+cittadini+nati+spontaneamente+per+il+%22Social+Media+Week%22+di+Milano%2C+il+festival+della+Rete+fatto+di+aperitivi%2C+incontri%2C+convegni%2C+seminari%2C+dibattiti%2C+game+experience+e+scambi+di+idee+che+hanno+coinvolto+la+citt%C3%A0+dal+20+al+24+Settembre.%0A%0AMa+che+c%27entra+il+tango%2C+tatto%2C+passione+e+comp%C3%A0s%2C+con+Internet%2C+bit+e+virtualit%C3%A0%3F+Anche+se+ha+pi%C3%B9+di+cento+anni%2C+il+tango+%C3%A8+sempre+stato+un+modello+ante+litteram+di+%22social+network%22.+In+una+serata+milonguera+e+con+l%E2%80%99aiuto+di+coach+professionisti+marted%C3%AC+21+settembre%2C+a+Le+banque%2C+ci+si+interrogher%C3%A0+sul+senso+del+tango+nelle+nostre+vite.+Durante+la+serata+chi+vorr%C3%A0+potr%C3%A0+sperimentare+una+%22tanda%22+ad+occhi+chiusi%2C+bendati.+Prima+l%27uomo%2C+poi+la+donna.+Infine+entrambi%2C+senza+la+bussola+della+vista.+Per+provare+a+descrivere+le+sensazioni+che+si+trasformano%2C+dal+tatto+al+contatto%2C+in+una+situazione+di+fiducia+totale+e+di+abbandono+nei+confronti+del+partner.+In+una+comunit%C3%A0+chiusa+e+aperta+al+tempo+stesso%2C+che+racchiude+in+s%C3%A8+tradizione+e+modernit%C3%A0%2C+voglia+di+mettersi+in+gioco+e+seduzione%2C+sfida+con+se+stessi+e+confronto+continuo+con+gli+altri.%0A%0AOspiti+speciali%3A%0AIrene+Morrione%2C+personal+and+business+coach%2C+Amc+services%0AMonica+Fabris%2C+presidente+di+Gpf%0AHost+Organization%3A+MilanoTango%2C+Gpf%2C+Amc+services%2C+Milano+Cultura%26arte."}
{"id":5352597505,"url":"http://farm6.staticflickr.com/5005/5352597505_2a68ae6e44.jpg","path":"8ec/f23/8ecf23285fc59b57ed0d983b860afad.jpg","date":"2011-01-12","year":2011,"month":1,"lon":9.338421,"lat":46.15427,"tags":"domaso","S2CellId":"4889b00000000000","result":5760,"accuracy":0.024047665,"title":"Linz+Domaso"}
{"id":7335510488,"url":"http://farm9.staticflickr.com/8003/7335510488_d9d0157866.jpg","path":"237/0ac/2370acbf5580dbd74e8f3feede3bb9c9.jpg","date":"2012-06-04","year":2012,"month":6,"lon":10.960833,"lat":47.572666,"tags":"iphoto+original","S2CellId":"479c400000000000","result":3812,"accuracy":0.47018462,"title":"Germany+112"}
{"id":8204555026,"url":"http://farm9.staticflickr.com/8070/8204555026_5ba875a979.jpg","path":"8e1/3be/8e13bed2ba66ab43f8f43b4e62f5952d.jpg","date":"2012-11-18","year":2012,"month":11,"lon":9.077541,"lat":45.51933,"tags":"beautiful,eicma,girls,hostess,italia,lombardia,ragazze,rho,sexy","S2CellId":"6022840000000000","result":6562,"accuracy":0.15165548,"title":"EICMA+GIRLS+-+2012"}
{"id":9654087554,"url":"http://farm3.staticflickr.com/2877/9654087554_5cc972029b.jpg","path":"d1d/311/d1d311568d815c7e6484bc055584e84.jpg","date":"2013-08-03","year":2013,"month":8,"lon":10.514333,"lat":47.141,"tags":"austria,grins,landeck,tirol","S2CellId":"4778300000000000","result":3428,"accuracy":0.09530919,"title":"Grins","description":"Grins"}
{"id":10069053266,"url":"http://farm3.staticflickr.com/2826/10069053266_5954af7f07.jpg","path":"f6f/332/f6f332bd926ca7c7aa5be5568276ee.jpg","date":"2013-08-24","year":2013,"month":8,"lon":11.316208,"lat":47.58435,"tags":"16%3A9,2013,bavaria,bayern+%2F+bavaria,flickr,germany,hiking,kochel,luxtonnerre,outdoors,summer,wallpaper","S2CellId":"5353000000000000","result":6037,"accuracy":0.01735573,"title":"_MG_4319_Walchensee_DE_20130824.jpg"}
{"id":146289379,"url":"http://farm1.staticflickr.com/49/146289379_aaaf15657b.jpg","path":"f35/a13/f35a13d218fdb6760dfc8df9d45fcf8.jpg","date":"2005-09-24","year":2005,"month":9,"lon":11.061687,"lat":47.504215,"tags":"alpen,alps,bavaria,bayern,germany,zugspitze","S2CellId":"54866c0000000000","result":6114,"accuracy":0.25651672,"title":"DSC02029"}
{"id":427217394,"url":"http://farm1.staticflickr.com/184/427217394_04b32685ec.jpg","path":"1d0/2a3/1d02a37e8c1a7b59b42c4319b6bb7.jpg","date":"2007-03-18","year":2007,"month":3,"lon":9.672271,"lat":45.666897,"tags":"bergamo,party","S2CellId":"4781500000000000","result":3531,"accuracy":0.014338886,"title":"Zero+18-03-2007+2.02.29"}
{"id":458964720,"url":"http://farm1.staticflickr.com/197/458964720_6c76159e32.jpg","path":"2e2/5fd/2e25fdffe4a2431d96e2a702c248841.jpg","date":"2007-04-10","year":2007,"month":4,"lon":10.712743,"lat":45.455105,"tags":"amusement+park,garda+lake,gardaland,italia,italy,lago+di+garda,lake+garda,parco+divertimenti,parco+giochi,theme+park,veneto,verona","S2CellId":"54866c0000000000","result":6114,"accuracy":0.12070795,"title":"Gardaland"}
{"id":712911510,"url":"http://farm2.staticflickr.com/1352/712911510_4436f532d6.jpg","path":"a4c/4bb/a4c4bbfea24fd9fc53e542f991cffba2.jpg","date":"2007-07-04","year":2007,"month":7,"lon":11.65717,"lat":46.715965,"tags":"brixen,europe,italy,sud+tirol","S2CellId":"12aebd0000000000","result":789,"accuracy":0.037841283,"title":"Saint+Stephen","description":"Saint+Stephen+is+the+Protomartyr%2C+or+first+martyr%2C+of+Christianity+and+is+venerated+as+a+saint+of+the+Roman+Catholic+Church+."}
{"id":2573290454,"url":"http://farm4.staticflickr.com/3139/2573290454_154e4cbc60.jpg","path":"2d2/55c/2d255c90d3e6d25cfdc02f5e2365e82.jpg","date":"2008-06-12","year":2008,"month":6,"lon":9.085371,"lat":45.80566,"tags":"eco,estate,fiori,flora,flowers,io,natura,summer","S2CellId":"89c6fc0000000000","result":9178,"accuracy":0.012662034,"title":"colori++d%27estate"}
{"id":2593122800,"url":"http://farm4.staticflickr.com/3161/2593122800_a3f0ec54c8.jpg","path":"18d/3cf/18d3cf9e9bd52d6a779f55d5326e3082.jpg","date":"2007-10-15","year":2007,"month":10,"lon":9.032306,"lat":45.858643,"tags":"mendrisiotto,morbio,oratorio+di+s.martino,svizzera,switzerland,ticini,valle+di+muggio","S2CellId":"12c9100000000000","result":838,"accuracy":0.03243217,"title":"Campanile+di+S.Martino","description":"Campanile+interessante+per+il+Ticino+%21"}
{"id":3226361670,"url":"http://farm4.staticflickr.com/3479/3226361670_73257374f9.jpg","path":"a85/d9d/a85d9dcf468330d821f4541ce4e323ca.jpg","date":"2009-01-25","year":2009,"month":1,"lon":9.5848,"lat":47.283276,"tags":"austria,rankweil,vorarlberg","S2CellId":"5485d40000000000","result":6107,"accuracy":0.09088769,"title":"Rankweil+-+Austria","description":"HDR+Bild"}
{"id":3366783428,"url":"http://farm4.staticflickr.com/3578/3366783428_44f6a96e15.jpg","path":"111/62f/11162fcabab5854d8933e714d26f4.jpg","date":"2009-03-13","year":2009,"month":3,"lon":9.15364,"lat":45.441875,"tags":"biko,canadian+songwriter,concert,folk,italy,live,milan,music,sarah+noni+metzer,sarah+noni+metzner,toronto","S2CellId":"8640b90000000000","result":7546,"accuracy":0.015732827,"title":"Sarah+Noni+Metzner%40Biko"}
{"id":3397871169,"url":"http://farm4.staticflickr.com/3606/3397871169_ec4be339ab.jpg","path":"dcb/e95/dcbe951efdc816fedaa2534e680809d.jpg","date":"2008-10-08","year":2008,"month":10,"lon":10.962982,"lat":47.06369,"tags":"%C3%B6tztal,2008,austria,d70,nikon,osterreich,tirol,tyrol,valle,weiko","S2CellId":"4776f00000000000","result":3424,"accuracy":0.21058072,"title":"Valle+de+%C3%96tztal"}
{"id":5556183334,"url":"http://farm6.staticflickr.com/5133/5556183334_f075082d71.jpg","path":"3eb/54e/3eb54ec937528362c1accd87509328fd.jpg","date":"2011-02-10","year":2011,"month":2,"lon":11.821136,"lat":45.786808,"tags":"7d,canon+eos+7d,christian,cinematic,eyes,italy,liedolo,occhi,portrait,ritratto,san+zenone+degli+ezzelini,smile,sorriso,treviso","S2CellId":"48d674d000000000","result":5807,"accuracy":0.051067214,"title":"%40punky+reggae+pub+-+chirstian"}
{"id":6991795064,"url":"http://farm8.staticflickr.com/7210/6991795064_e2a5ba9fff.jpg","path":"4bb/1a7/4bb1a7a16af7dba1f42be3d3b47d57.jpg","date":"2012-04-28","year":2012,"month":4,"lon":9.509575,"lat":47.678265,"tags":"beetle,bodensee,boxter,breitreifen,bulli,car,corvette,fn,friedrichshafen,gepard,gtr,hummer,isetta,italy,jaguar,julia,k%C3%A4fer,leopard,lorenz,lotus,mercedes,messe,mustang,opel+gt,plymouth,polo,porsche,power,prowler,ps,rankl,romeo,sound,spyder,style,trabbi,tuning,tuning+world,viper,vw,vw-porsche","S2CellId":"47f4d00000000000","result":4716,"accuracy":0.114432774,"title":"What%3F+My+papers%3F","description":"I+do+have+an+identity+card+from+marble."}
{"id":7138967331,"url":"http://farm9.staticflickr.com/8015/7138967331_08614de9e0.jpg","path":"2ff/e5c/2ffe5c9c99473f5c5feef21f63ecee5.jpg","date":"2012-04-29","year":2012,"month":4,"lon":11.111726,"lat":47.493618,"tags":"bavaria,bayern,christ,christus,cross,garmisch-partenkirchen,inri,jesus,kreuz,partenkirchen,zugspitzland","S2CellId":"478d400000000000","result":3670,"accuracy":0.59360266,"title":"Jesus+Christus","description":"Kreuz+neben+der+Pfarrkirche+Partenkirchen+in+der+Ludwigstra%C3%9Fe."}
{"id":7152105925,"url":"http://farm9.staticflickr.com/8164/7152105925_4a54630c78.jpg","path":"14b/4a7/14b4a73b591ea56892781eb9bf58ba6.jpg","date":"2012-04-28","year":2012,"month":4,"lon":10.936996,"lat":45.515038,"tags":"faire,giulia,lorenzi-wirt,mantovani,photography,savoir,stube","S2CellId":"8644b5a700000000","result":7586,"accuracy":0.037752923,"title":"DSC_0030o%CC%80o%CC%80lk"}
{"id":12118455483,"url":"http://farm4.staticflickr.com/3673/12118455483_2b0b6c1846.jpg","path":"a72/786/a72786ac568914152fb6c7dcffe63065.jpg","date":"2014-01-24","year":2014,"month":1,"lon":9.829436,"lat":46.79889,"tags":"am2014,annual+meeting,che,congress+center,davos,embracing+disruptive+innovation,graub%C3%BCnden,s079,switzerland,wef,world+economic+forum","S2CellId":"4784b00000000000","result":3561,"accuracy":0.7480541,"title":"IdeasLab%3A+Life-enhancing+Technologies+with+Imperial+College+London%3A+Barbara+Sahakian","description":"DAVOS%2FSWITZERLAND%2C+23JAN14+-+Barbara+Sahakian+%28R%29%2C+Professor+of+Clinical+Neuropsychology%2C+Department+of+Psychiatry+and+London+Imperial+Affiliated+Professor%2C+University+of+Cambridge%2C+United+Kingdom+makes+a+point+during+the+session+%27IdeasLab%3A+Life-enhancing+Technologies+with+Imperial+College+London%27+at+the+Annual+Meeting+2014+of+the+World+Economic+Forum+at+the+congress+centre+in+Davos%2C+January+23%2C+2014.+%0A%0AWORLD+ECONOMIC+FORUM%2Fswiss-image.ch%2FPhoto+Moritz+Hager"}
{"id":241526979,"url":"http://farm1.staticflickr.com/87/241526979_53689ba1f9.jpg","path":"2cb/49f/2cb49f916173532e18b67273df5144.jpg","date":"2006-09-05","year":2006,"month":9,"lon":10.737934,"lat":46.90325,"tags":"austria,bergretreat,icel,ifgi,kaunertal,tirol","S2CellId":"a9d5c00000000000","result":9945,"accuracy":0.16107851,"title":"IMG_3936"}
{"id":524663252,"url":"http://farm1.staticflickr.com/219/524663252_558c8bea0b.jpg","path":"e5b/6d8/e5b6d8cf1584c6a4873dfc2beb7f3f87.jpg","date":"2006-07-24","year":2006,"month":7,"lon":10.95824,"lat":47.570156,"tags":"schloss+linderhof","S2CellId":"4771400000000000","result":3386,"accuracy":0.08228019,"title":"dscf0590"}
{"id":1830905448,"url":"http://farm3.staticflickr.com/2288/1830905448_0ded6e9451.jpg","path":"78c/844/78c844ee26c359571551da23736850.jpg","date":"2007-08-27","year":2007,"month":8,"lon":11.890382,"lat":46.786453,"tags":"val+pusteria","S2CellId":"4778300000000000","result":3428,"accuracy":0.10447546,"title":"Val+Pusteria-1000.jpg"}
{"id":2647055963,"url":"http://farm4.staticflickr.com/3066/2647055963_e87434251c.jpg","path":"e07/2ed/e072ed3789d8385fbea261fdc5b9abed.jpg","date":"2008-07-03","year":2008,"month":7,"lon":9.292888,"lat":45.474216,"tags":"itali%C3%AB,vacation","S2CellId":"87c0ef0000000000","result":7973,"accuracy":0.035851676,"title":"2008+Vacation%2C+Itali%C3%AB"}
{"id":3979832594,"url":"http://farm4.staticflickr.com/3049/3979832594_efdb307c19.jpg","path":"539/f88/539f8850b9e084612d0f4dada40793d.jpg","date":"2009-09-27","year":2009,"month":9,"lon":9.488479,"lat":45.93134,"tags":"autunno,casette,hdr,moggio,montagna,prato,valsassina","S2CellId":"4783c00000000000","result":3552,"accuracy":0.045118466,"title":"Autunno+alle+porte+-+HDR","description":"Moggio+-+Valsassina+%28LC%29."}
