{"id":7632778802,"url":"http://farm9.staticflickr.com/8158/7632778802_0810486da9.jpg","path":"7bf/58f/7bf58f61a75141503beb73c5664c471.jpg","date":"2012-07-11","year":2012,"month":7,"lon":-21.188335,"lat":63.999523,"tags":"iceland","S2CellId":"48d6c00000000000","result":5813,"accuracy":0.63359606,"title":"Iceland+2012"}
{"id":31290251,"url":"http://farm1.staticflickr.com/21/31290251_8ec8f07246.jpg","path":"cf3/3cb/cf33cb1c1ac8da1565a95662d4ec.jpg","date":"2005-08-03","year":2005,"month":8,"lon":-21.063538,"lat":63.83446,"tags":"beach,blue,bright,clouds,ocean,reflection,shadow,sign,sky","S2CellId":"47d8d90000000000","result":4460,"accuracy":0.03257892,"title":"4206"}
{"id":382275792,"url":"http://farm1.staticflickr.com/126/382275792_da68a1e94c.jpg","path":"3b1/8d3/3b18d3f3102082e912c3fb79ad09aa4.jpg","date":"2005-08-03","year":2005,"month":8,"lon":-21.06903,"lat":63.84006,"tags":"eldar,kajak,kajaking,stokkseyri","S2CellId":"6b12900000000000","result":6669,"accuracy":0.019027943,"title":"IMG+4150"}
{"id":8399299386,"url":"http://farm9.staticflickr.com/8184/8399299386_223bee19a7.jpg","path":"7d2/e15/7d2e15c0382cbf5e4d247e9569f9267a.jpg","date":"2012-07-02","year":2012,"month":7,"lon":-21.798851,"lat":63.870007,"tags":"bicycle,europe,iceland,reykjanes","S2CellId":"48d1000000000000","result":5787,"accuracy":0.24668224,"title":"20120702-DSC_7884"}
{"id":11332696386,"url":"http://farm3.staticflickr.com/2871/11332696386_6694b8e819.jpg","path":"a55/993/a5599322434aa7f8bce39fb9de7d1fa.jpg","date":"2013-11-09","year":2013,"month":11,"lon":-21.225208,"lat":63.878742,"tags":"%C3%BEorl%C3%A1ksh%C3%B6fn,iceland,isl","S2CellId":"45c4000000000000","result":2753,"accuracy":0.065963246,"title":"Northern+Lights"}
{"id":7668548694,"url":"http://farm8.staticflickr.com/7259/7668548694_37c3d2dbf9.jpg","path":"b4b/b47/b4bb47bd6c31712290db8f6adcd5591b.jpg","date":"2012-07-21","year":2012,"month":7,"lon":-21.705877,"lat":63.98511,"tags":"europe,iceland,places,smc+pentax-da*+16-50mm+f2.8+ed+al+%5Bif%5D+sdm,thrihnukagigur","S2CellId":"8c02c00000000000","result":9403,"accuracy":0.029830294,"title":"The+Elevator"}
