{"id":8589431386,"url":"http://farm9.staticflickr.com/8102/8589431386_202312a9a8.jpg","path":"5b3/7a7/5b37a722d7f4be74b7b6c6a765bad61b.jpg","date":"2013-03-25","year":2013,"month":3,"lon":50.15664,"lat":53.202824,"tags":"instagram+app,iphoneography,square,square+format,x-pro+ii","S2CellId":"46b5370000000000","result":3055,"accuracy":0.097699374,"title":"%D0%97%D0%B0%D1%88%D0%BB%D0%B8+%D0%B2+%D0%B3%D0%BE%D1%81%D1%82%D0%B8"}
{"id":8924020589,"url":"http://farm8.staticflickr.com/7303/8924020589_51877c153d.jpg","path":"13d/4c7/13d4c7a26e51721c76f7d6482a975b7b.jpg","date":"2013-06-02","year":2013,"month":6,"lon":50.109577,"lat":53.201557,"tags":"instagram+app,iphoneography,square,square+format,x-pro+ii","S2CellId":"46b5350000000000","result":3054,"accuracy":0.047566213,"title":"%D0%9C%D0%B0%D0%BC%D0%B0+%D0%BE%D1%82%D0%B6%D0%B0%D0%BB%D0%B0+%D0%B2%D0%B5%D0%BB%D0%B8%D0%BA"}
{"id":5114860643,"url":"http://farm2.staticflickr.com/1133/5114860643_85bea51579.jpg","path":"d25/861/d25861560a1673632c32370fd10b0.jpg","date":"2010-10-25","year":2010,"month":10,"lon":50.11543,"lat":53.20729,"tags":"autumn,fog,haze,moon,samara","S2CellId":"89e8300000000000","result":9392,"accuracy":0.0038499353,"title":"Hazy+moon+over+Samara"}
{"id":6775353403,"url":"http://farm8.staticflickr.com/7030/6775353403_71ae39d2c1.jpg","path":"6d9/45c/6d945cd6180bb20e2e5dbe850cdd5b.jpg","date":"2012-01-28","year":2012,"month":1,"lon":50.102165,"lat":53.19533,"tags":"samara","S2CellId":"89c2f44000000000","result":9105,"accuracy":0.076127484,"title":"%D0%9D%D0%B5%D0%B7%D0%B0%D0%BA%D0%BE%D0%BD%D0%BD%D0%B0%D1%8F+%D0%BF%D0%B0%D1%80%D0%BA%D0%BE%D0%B2%D0%B0+%D0%BD%D0%B0+%D0%9F%D0%BB%D0%BE%D1%89%D0%B0%D0%B4%D0%B8+%D0%9A%D1%83%D0%B9%D0%B1%D1%8B%D1%88%D0%B5%D0%B2%D0%B0"}
{"id":2575092098,"url":"http://farm4.staticflickr.com/3261/2575092098_63a4e3fedf.jpg","path":"411/2e8/4112e8b992b81cba4d1160d18960fccb.jpg","date":"2008-06-12","year":2008,"month":6,"lon":50.087185,"lat":53.185158,"tags":"bar,girl,podval,rock","S2CellId":"808f7e1c00000000","result":7025,"accuracy":0.0077455877,"title":"Yanka"}
{"id":6985402574,"url":"http://farm9.staticflickr.com/8149/6985402574_10e6a72c5c.jpg","path":"f6b/6ce/f6b6ce88ce58ee98fc611facf9c1936.jpg","date":"2012-04-28","year":2012,"month":4,"lon":50.190834,"lat":53.279667,"tags":"parcsis","S2CellId":"52b7000000000000","result":5997,"accuracy":0.16699347,"title":"Parcsis+party+%40BarasaHouse"}
{"id":7936960066,"url":"http://farm9.staticflickr.com/8305/7936960066_31761a7273.jpg","path":"ed1/78c/ed178cf98f15d923bd7269aa555e64.jpg","date":"2012-09-05","year":2012,"month":9,"lon":50.174957,"lat":53.19081,"tags":"amaro,instagram+app,iphoneography,square,square+format","S2CellId":"88dd7ef000000000","result":8627,"accuracy":0.0051541077,"title":"%D0%91%D1%83%D0%B4%D1%83+%D1%80%D0%B0%D1%81%D1%81%D0%BA%D0%B0%D0%B7%D1%8B%D0%B2%D0%B0%D1%82%D1%8C+%D0%BF%D1%80%D0%BE+%23404fest+91%2C5fm"}
{"id":10100757914,"url":"http://farm4.staticflickr.com/3706/10100757914_24648007e4.jpg","path":"f19/f41/f19f4113cf5f5dec21adf3a19c941f5.jpg","date":"2013-10-05","year":2013,"month":10,"lon":50.08757,"lat":53.18554,"tags":"amaro,instagram+app,iphoneography,square,square+format","S2CellId":"46b54bc000000000","result":3068,"accuracy":0.012106235,"title":"%D0%9F%D1%91%D1%82%D1%80+%D0%BA%D0%B0%D1%82%D0%B0%D0%B5%D1%82+%D1%82%D1%80%D0%B0%D0%BA%D1%82%D0%BE%D1%80+%D0%BD%D0%B0+%D1%82%D1%80%D0%B0%D0%BC%D0%B2%D0%B0%D0%B5"}
{"id":2593199361,"url":"http://farm4.staticflickr.com/3100/2593199361_92b170d7e7.jpg","path":"ee6/9a9/ee69a9427f7cb7664b2cbdea69fe1218.jpg","date":"2005-07-25","year":2005,"month":7,"lon":50.14435,"lat":53.21282,"tags":"russia,volga","S2CellId":"3bbfc00000000000","result":2562,"accuracy":0.053176537,"title":"DSC00603"}
{"id":2593266889,"url":"http://farm4.staticflickr.com/3225/2593266889_f2f104bcef.jpg","path":"33b/607/33b6073614e614d4664decbb9ee9fde.jpg","date":"2005-08-06","year":2005,"month":8,"lon":50.14435,"lat":53.21282,"tags":"isas+2005,samara","S2CellId":"88e77e4000000000","result":8673,"accuracy":0.002288302,"title":"IMG_2540"}
