{"id":8323014830,"url":"http://farm9.staticflickr.com/8362/8323014830_34fdc0ed29.jpg","path":"48b/653/48b6539a4c3eef8635adf59c8443e2cb.jpg","date":"2012-12-29","year":2012,"month":12,"lon":-1.676673,"lat":48.11157,"tags":"rennes","S2CellId":"47f9000000000000","result":4733,"accuracy":0.011281275,"title":"Goutti%C3%A8re+rennaise"}
{"id":6842312182,"url":"http://farm8.staticflickr.com/7067/6842312182_1847db5dcf.jpg","path":"118/501/118501ba1e3a744eb67841c145846e3.jpg","date":"2012-03-04","year":2012,"month":3,"lon":-1.674492,"lat":48.105137,"tags":"le+grand+soufflet,les+champs+libres,rennes","S2CellId":"48761ca550000000","result":5339,"accuracy":0.01640891,"title":"Carlon%C3%A9on","description":"Accord%C3%A9on+%C3%A0+l%27honneur+aux+Champs+Libres+pour+le+%C2%AB+Premier+dimanche+%C2%BB+de+mars+%3A+le+Grand+Soufflet"}
{"id":5137326614,"url":"http://farm5.staticflickr.com/4021/5137326614_e55ecffa77.jpg","path":"eb8/fdb/eb8fdb83b631613119531bea2a46c5c9.jpg","date":"2010-10-26","year":2010,"month":10,"lon":-1.683139,"lat":48.11114,"tags":"buildings+streets,rennes","S2CellId":"47e0c00000000000","result":4528,"accuracy":0.21692613,"title":"P1000887","description":"Stryd+yn+Rennes%2C+Llydaw"}
{"id":6803581803,"url":"http://farm8.staticflickr.com/7023/6803581803_d834527cc1.jpg","path":"9d1/cbe/9d1cbede8fd42b050f06de1cadbf1d1.jpg","date":"2012-01-12","year":2012,"month":1,"lon":-1.511306,"lat":48.63484,"tags":"beauty,blonde,blue+eyes,cheeks,curly,lips,look,marini%C3%A8re,mirada,portrait,regard,russian,stripe,striped,stripes","S2CellId":"0c46240000000000","result":140,"accuracy":0.008122129,"title":"Smiling+Eug%C3%A9nie"}
{"id":5128652734,"url":"http://farm2.staticflickr.com/1225/5128652734_ab8ed6fcbf.jpg","path":"aa9/4f4/aa94f4afa4526745fc77367438314c6.jpg","date":"2010-10-30","year":2010,"month":10,"lon":-1.992452,"lat":48.662098,"tags":"50d,85mm,canon,digue,ef,malo,panorama,rochebonne,saint","S2CellId":"47e0400000000000","result":4527,"accuracy":0.037886284,"title":"Saint-Malo%2C+la+digue+de+Rochebonne","description":"Un+matin+l%C3%A9g%C3%A8rement+brumeux%2C+sur+la+digue+de+Rochebonne%2C+%C3%A0+Saint-Malo.%0A%0APanorama+%3A+2+photos.%0A%0A%3Ca+href%3D%22http%3A%2F%2Floc.alize.us%2F%23%2Fflickr%3A5128652734%22+rel%3D%22nofollow%22%3ESee+where+this+picture+was+taken.%3C%2Fa%3E+%3Ca+href%3D%22http%3A%2F%2Fwww.flickr.com%2Fgroups%2Fgeotagging%2Fdiscuss%2F72157594165549916%2F%22%3E%5B%3F%5D%3C%2Fa%3E"}
{"id":5274793669,"url":"http://farm6.staticflickr.com/5210/5274793669_098a78e470.jpg","path":"a11/b76/a11b76b12bcbf86fcbd3890f054d57c.jpg","date":"2010-11-09","year":2010,"month":11,"lon":-1.473541,"lat":48.61884,"tags":"%23%D0%BA%D0%B0%D1%80%D1%82%D0%B8%D0%BD%D0%BA%D0%B8,%C3%A6%C3%A8%C3%A2%C3%AE%C3%B2%C3%AD%C3%BB%C3%A5,%C3%AF%C3%A5%C3%A9%C3%A7%C3%A0%C3%A6,%C3%B1%C3%A5%C3%AB%C3%BC%C3%B1%C3%AA%C3%AE%C3%A5+%C3%B5%C3%AE%C3%A7%C3%BF%C3%A9%C3%B1%C3%B2%C3%A2%C3%AE,%D0%B6%D0%B8%D0%B2%D0%BE%D1%82%D0%BD%D1%8B%D0%B5,%D0%BF%D0%B5%D0%B9%D0%B7%D0%B0%D0%B6,%D1%81%D0%B5%D0%BB%D1%8C%D1%81%D0%BA%D0%BE%D0%B5+%D1%85%D0%BE%D0%B7%D1%8F%D0%B9%D1%81%D1%82%D0%B2%D0%BE,%D1%84%D1%80%D0%B0%D0%BD%D1%86%D0%B8%D1%8F,hdr","S2CellId":"4873e40000000000","result":5096,"accuracy":0.014567592,"title":"DSC04923-Edit"}
{"id":4591607967,"url":"http://farm5.staticflickr.com/4002/4591607967_266a651d57.jpg","path":"ff4/9b6/ff49b62034969b2ec4538961baaa2c1.jpg","date":"2010-05-09","year":2010,"month":5,"lon":-1.511821,"lat":48.636765,"tags":"2nd+ww,albertoconcejal,bayeux,breta%C3%B1a,bretagne,caen,cancale,cementerios,d300,daily+life,fotograf%C3%ADa+de+viajes,fotoperiodismo,france,francia,freelance,le+mont+saint+michel,magazin,magazine,mantequilla,mermelada,nikon,normandia,normandie,photos,pictures,rennes,revistas,saint+malo,segunda+guerra+mundial,st+michel,travel,trip,vacas,vache,viajes","S2CellId":"56c8c00000000000","result":6320,"accuracy":0.079147145,"title":"Le+Mont-Saint-Michel.+France.","description":"A+doccumentary+approach+to+Northern+France+including+Bretagne+and+Normandie.+Una+aproximaci%C3%B3n+documental+al+norte+de+Francia%2C+incluyendo+Breta%C3%B1a+y+Normand%C3%ADa."}
{"id":3625576029,"url":"http://farm4.staticflickr.com/3634/3625576029_472e1fbafc.jpg","path":"c64/69b/c6469b4060f282ae4f74495976e6c71a.jpg","date":"2009-05-08","year":2009,"month":5,"lon":-1.978397,"lat":48.359642,"tags":"campagne,nature,orge,vert","S2CellId":"89fb400000000000","result":9399,"accuracy":0.009756314,"title":"Orge+dans+le+vent","description":"Evran+%28France%2C+22%29"}
{"id":5274667731,"url":"http://farm6.staticflickr.com/5201/5274667731_07137e0491.jpg","path":"b58/761/b587617ba3fb1c22f516ee3ac312866.jpg","date":"2010-12-19","year":2010,"month":12,"lon":-1.680103,"lat":48.111477,"tags":"illuminations,noel,rennes","S2CellId":"47f4eac000000000","result":4720,"accuracy":0.3540823,"title":"Rennes+-+No%C3%ABl+2010"}
{"id":4898754919,"url":"http://farm5.staticflickr.com/4121/4898754919_c70d37ea04.jpg","path":"598/c64/598c642bdd48d9f48b8a4ba23ae010c5.jpg","date":"2009-05-30","year":2009,"month":5,"lon":-1.263685,"lat":48.42063,"tags":"bretagne,brittany,france,french+garden,garden,jardin+de+france","S2CellId":"6001094000000000","result":6403,"accuracy":0.023977403,"title":"F23+Parc+floral+de+Hte.+Bretagne"}
{"id":5128044231,"url":"http://farm2.staticflickr.com/1341/5128044231_6db026f905.jpg","path":"594/d80/594d80bf8892a54e3ae6d24f6379697c.jpg","date":"2010-04-16","year":2010,"month":4,"lon":-1.992452,"lat":48.662098,"tags":"50d,85mm,canon,couchant,ef,malo,saint,soleil","S2CellId":"480e900000000000","result":4781,"accuracy":0.51407075,"title":"Saint-Malo%2C+la+digue+de+Rochebonne","description":"%3Cb%3E85mm+%7C+1%2F125s+%7C+f5.6+%7C+ISO+400%3C%2Fb%3E%0A%0ALa+digue+de+Rochebonne+au+soleil+couchant.%0A%0A%3Ca+href%3D%22http%3A%2F%2Floc.alize.us%2F%23%2Fflickr%3A5128044231%22+rel%3D%22nofollow%22%3ESee+where+this+picture+was+taken.%3C%2Fa%3E+%3Ca+href%3D%22http%3A%2F%2Fwww.flickr.com%2Fgroups%2Fgeotagging%2Fdiscuss%2F72157594165549916%2F%22%3E%5B%3F%5D%3C%2Fa%3E"}
{"id":5400605911,"url":"http://farm6.staticflickr.com/5220/5400605911_5f182c1be3.jpg","path":"868/5d6/8685d6d6241d13fb782c5611617c926.jpg","date":"2010-01-28","year":2010,"month":1,"lon":-1.861174,"lat":48.48151,"tags":"180mm-f%2F2.8,bretagne,brittany,d50,forest,foret,la+roche+aux+fees","S2CellId":"47a9c00000000000","result":3953,"accuracy":0.00946332,"title":"winter+sunrise"}
{"id":6306700439,"url":"http://farm7.staticflickr.com/6091/6306700439_33420412b1.jpg","path":"ecc/2d3/ecc2d357576fb851624140c070a6cce8.jpg","date":"2011-11-02","year":2011,"month":11,"lon":-1.680843,"lat":48.113255,"tags":"fa%C3%A7ade,femme,france,fronton,pierre,rennes,sculpture,visage","S2CellId":"0d42288500000000","result":372,"accuracy":0.024457494,"title":"DSCF0325"}
{"id":2360134179,"url":"http://farm4.staticflickr.com/3269/2360134179_765f9f92af.jpg","path":"a48/961/a489613a25186d92c7386518bc32e7.jpg","date":"2008-03-25","year":2008,"month":3,"lon":-1.673226,"lat":48.108376,"tags":"2008,alter1fo,alter1fo.com,band,bb,brass,gras,is,kahn,king,mardi,rennes,shrines,ubu,what","S2CellId":"12a0400000000000","result":674,"accuracy":0.08351515,"title":"Mardi+Gras+Brass+Band+-+UBU+2008+%2812%29"}
{"id":10858646734,"url":"http://farm3.staticflickr.com/2834/10858646734_8c595d37fb.jpg","path":"f5a/bf0/f5abf0a4772f50b45e84a652fa3069d.jpg","date":"2013-09-15","year":2013,"month":9,"lon":-1.511803,"lat":48.636112,"tags":"%28%D8%AC%D8%B2%DB%8C%D8%B1%D9%87%29,%D0%BB%D0%B5-%D0%BC%D0%BE%D0%BD-%D1%81%D0%B5%D0%BD-%D0%BC%D1%96%D1%88%D0%B5%D0%BB%D1%8C,%D0%BC%D0%BE%D0%BD-%D1%81%D0%B5%D0%BD-%D0%BC%D0%B8%D1%88%D0%B5%D0%BB%D1%8C,%D7%9E%D7%95%D7%9F-%D7%A1%D7%9F-%D7%9E%D7%99%D7%A9%D7%9C,%D8%A7%D9%84%D9%82%D8%AF%D9%8A%D8%B3,%D8%AC%D8%A8%D9%84,%D8%B3%D9%86,%D9%85%D8%A7%DB%8C%DA%A9%D9%84,%D9%85%D9%88%D9%86%D8%AA,%D9%85%D9%8A%D8%B4%D9%8A%D9%84,%E1%83%9B%E1%83%9D%E1%83%9C-%E1%83%A1%E1%83%94%E1%83%9C-%E1%83%9B%E1%83%98%E1%83%A8%E1%83%94%E1%83%9A%E1%83%98,%E3%83%A2%E3%83%B3%E3%83%BB%E3%82%B5%E3%83%B3%EF%BC%9D%E3%83%9F%E3%82%B7%E3%82%A7%E3%83%AB,%E8%81%96%E7%B1%B3%E6%AD%87%E7%88%BE%E5%B1%B1,%EB%AA%BD%EC%83%9D%EB%AF%B8%EC%85%B8,%EC%84%AC,2,2013,5,5d,autumn,bortes,bortescristian,canon,cristian,cristianbortes,d,digital,eos,fr%C3%A0nkrich,france,francia,franta,franz%C3%B6sisches,ii,le,mark,mark2,michel,mk,mk2,mkii,mont,mont-saint-michel,normandie,normandy,saint,sankt-mi%C5%9Fel,september,septembrie,slr,toamna","S2CellId":"0d3d000000000000","result":329,"accuracy":0.0074486323,"title":"Mont+Saint-Michel","description":"France+-+September+2013"}
{"id":7807806548,"url":"http://farm8.staticflickr.com/7279/7807806548_815a25e6ab.jpg","path":"5a3/185/5a3185f6c6961ee7c075368514f5663.jpg","date":"2012-08-12","year":2012,"month":8,"lon":-1.924839,"lat":48.568542,"tags":"chromatics,concert,festival,route+du+rock,saint+malo","S2CellId":"47c2500000000000","result":4156,"accuracy":0.02376671,"title":"Chromatics+01"}
{"id":3872572428,"url":"http://farm4.staticflickr.com/3451/3872572428_b47c4a4056.jpg","path":"762/29f/76229fbe43424e2332f47538ba98801a.jpg","date":"2009-08-28","year":2009,"month":8,"lon":-1.873941,"lat":48.050316,"tags":"2009,arthur,br%C3%A8al,breal,debout+sur+le+zinc,du,elmer+food+beat,festival,festival+du+roi+arthur+2009,les+hurlements+de+l%C3%A9o,roi","S2CellId":"809f000000000000","result":7130,"accuracy":0.058830176,"title":"Festival+du+Roi+Arthur+2009","description":"%3Ca+href%3D%22http%3A%2F%2Falter1fo.com%2Fle-retour-du-roi-arthur-de-breal%22+rel%3D%22nofollow%22%3Ealter1fo.com%2Fle-retour-du-roi-arthur-de-breal%3C%2Fa%3E"}
{"id":2735819387,"url":"http://farm4.staticflickr.com/3065/2735819387_c4ea2aaa50.jpg","path":"b6c/9af/b6c9afa3a55cd5f7e7f9eb8cd4c9932.jpg","date":"2008-08-06","year":2008,"month":8,"lon":-1.68249,"lat":48.111095,"tags":"rennes","S2CellId":"48774d0000000000","result":5422,"accuracy":0.025950547,"title":"img_0792.jpg"}
{"id":287545396,"url":"http://farm1.staticflickr.com/103/287545396_4094819b31.jpg","path":"8c3/f4a/8c3f4a64d4e849c02fbc82c8bbb134a.jpg","date":"2006-04-23","year":2006,"month":4,"lon":-1.681938,"lat":48.12233,"tags":"bretagne,brittany,france,rennes,resnn,roazhon","S2CellId":"80dd317000000000","result":7376,"accuracy":0.005343366,"title":"SANY4296"}
{"id":3500685954,"url":"http://farm4.staticflickr.com/3574/3500685954_f0bfc8ab3a.jpg","path":"5eb/ca1/5ebca164ec632eaca931f5798a4bb48.jpg","date":"2009-05-02","year":2009,"month":5,"lon":-1.716614,"lat":48.84574,"tags":"granville,mer,port,visite","S2CellId":"489f000000000000","result":5781,"accuracy":0.16013631,"title":"IMG_2228"}
{"id":12392817844,"url":"http://farm8.staticflickr.com/7365/12392817844_b5119c0112.jpg","path":"2e2/cf5/2e2cf598452c5ec944253cad2fcf7b.jpg","date":"2014-02-08","year":2014,"month":2,"lon":-1.680072,"lat":48.105656,"tags":"35mm,archi,architecture,rennes,urban,x100","S2CellId":"47a8900000000000","result":3948,"accuracy":0.18444389,"title":"Rennes+-+Place+du+Colombier+%234"}
{"id":12171231353,"url":"http://farm6.staticflickr.com/5481/12171231353_858e8b37e2.jpg","path":"576/13b/57613b5f80331068fd389d92f6737e9.jpg","date":"2014-01-25","year":2014,"month":1,"lon":-1.981605,"lat":48.67452,"tags":"55-300%2Ff4.0-5.8,bretagne,green,ille+et+vilaine,mer,pentax,saint-malo,sea,smcpda55300mmf458ed,vagues,vert,wave","S2CellId":"48d7400000000000","result":5814,"accuracy":0.120569006,"title":"Waves+II","description":"Saint+Malo.+La+c%C3%B4te+d%E2%80%99%C3%89meraude+porte+bien+son+nom."}
{"id":5404300673,"url":"http://farm6.staticflickr.com/5260/5404300673_1906c39f31.jpg","path":"547/f5d/547f5de6d9d8b1953095f988ba6c7672.jpg","date":"2011-01-29","year":2011,"month":1,"lon":-1.848621,"lat":48.703197,"tags":"35,bretagne,france,gr34,ille+et+vilaine,mer,ouest,plage+du+verger,pointe+du+groin,purezza,sea","S2CellId":"486b300000000000","result":4923,"accuracy":0.12373375,"title":"DSC_0010"}
{"id":5870840980,"url":"http://farm7.staticflickr.com/6052/5870840980_28c2799fde.jpg","path":"f57/021/f570217a3aa125a34151f94af247ad51.jpg","date":"2011-06-25","year":2011,"month":6,"lon":-1.458349,"lat":48.195644,"tags":"chevr%C3%A9,etang,golden+hour,la+bou%C3%ABxi%C3%A8re","S2CellId":"4810100000000000","result":4787,"accuracy":0.008074675,"title":"Etang+du+Chevr%C3%A9-069.jpg"}
{"id":3582151975,"url":"http://farm4.staticflickr.com/3297/3582151975_97e06be071.jpg","path":"225/927/225927e5813ffaa1e267e26bbc8fb114.jpg","date":"2009-05-31","year":2009,"month":5,"lon":-1.52498,"lat":48.13159,"tags":"2008,mai,pentec%C3%B4te","S2CellId":"464cc00000000000","result":2821,"accuracy":0.022444252,"title":"Dragonfly"}
{"id":160113805,"url":"http://farm1.staticflickr.com/58/160113805_79e5cf0d7e.jpg","path":"657/8ee/6578ee6369563a3c5d3540cb959826.jpg","date":"2006-06-01","year":2006,"month":6,"lon":-1.635718,"lat":48.120884,"tags":"hdds","S2CellId":"808fcc9000000000","result":7071,"accuracy":0.029813942,"title":"HDDs","description":"Above%2C+400GB%0ABelow%2C+40GB"}
{"id":7822454710,"url":"http://farm9.staticflickr.com/8443/7822454710_ff82493543.jpg","path":"686/db0/686db0e7afda7428e5940f964acf55.jpg","date":"2012-08-19","year":2012,"month":8,"lon":-1.639827,"lat":48.18138,"tags":"2012,201208,betton,chanson,clair,concert,couvert,exterieur,matin,midi,ovs,photo,pleinair","S2CellId":"47c3d1d000000000","result":4229,"accuracy":0.06367054,"title":"La+Petite+Semaine+%2306"}
{"id":3504558075,"url":"http://farm4.staticflickr.com/3547/3504558075_8d55eeebcc.jpg","path":"952/940/95294045ff74168e613385e94080825d.jpg","date":"2009-05-01","year":2009,"month":5,"lon":-1.51165,"lat":48.636425,"tags":"2009,50116,basse-normandie,herbe,manche,mont+saint+michel,vache","S2CellId":"480eb00000000000","result":4782,"accuracy":0.99225485,"title":"Visite+du+Mont+Saint+Michel","description":"Photo+du+Mont+Saint+Michel+prise+en+voiture."}
{"id":3540654754,"url":"http://farm3.staticflickr.com/2141/3540654754_97b44aa758.jpg","path":"368/beb/368bebe999a749921753bb634cfdaa0.jpg","date":"2009-05-18","year":2009,"month":5,"lon":-1.600377,"lat":48.11852,"tags":"carr%C3%A9+s%C3%A9vign%C3%A9,embellies+de+printemps,emily+loizeau,lonely+drifter+karen,louis+aguilar,rennes","S2CellId":"478df00000000000","result":3674,"accuracy":0.041395605,"title":"Lonely+Drifter+Karen","description":"%3Ca+href%3D%22http%3A%2F%2Falter1fo.com%2Fembellies-au-pays-sauvage-demily-loizeau-hier-soir-au-carre-sevigne-6588%22%3Ealter1fo.com%2Fembellies-au-pays-sauvage-demily-loizeau-hie...%3C%2Fa%3E"}
{"id":3936931524,"url":"http://farm3.staticflickr.com/2567/3936931524_bb1587d1dc.jpg","path":"989/e3e/989e3eb8291e629173f6787fa726bc.jpg","date":"2009-09-13","year":2009,"month":9,"lon":-1.982517,"lat":48.672626,"tags":"beach,france,saint+malo,sand,sea,water","S2CellId":"0c60500000000000","result":148,"accuracy":0.041880935,"title":"C100-4156_dxo_wsxga"}
{"id":6065369705,"url":"http://farm7.staticflickr.com/6209/6065369705_501bf893d1.jpg","path":"adb/f7c/adbf7ca9c762399463732ca1bc6eed47.jpg","date":"2011-06-23","year":2011,"month":6,"lon":-1.511263,"lat":48.636395,"tags":"cfe+cgc","S2CellId":"07f0000000000000","result":124,"accuracy":0.169619,"title":"IMG_3852"}
{"id":2962737742,"url":"http://farm4.staticflickr.com/3026/2962737742_5c48de311c.jpg","path":"48a/898/48a898ef9c4bc7f16ba22fa8c85a1.jpg","date":"2008-10-21","year":2008,"month":10,"lon":-1.673226,"lat":48.108376,"tags":"2008,alter1fo,canada,ced,club,dj,indie,inrock,islands,lug,lug-na,na,octobre,pop,rennes,rock,ubu","S2CellId":"47ebc00000000000","result":4699,"accuracy":0.21293081,"title":"Islands+UBU+2008+Alter1fo.com+%2814%29"}
{"id":3834209246,"url":"http://farm3.staticflickr.com/2508/3834209246_6740b23897.jpg","path":"cee/0c3/cee0c338d8ce787e04bbaf9a58f1b2.jpg","date":"2009-07-11","year":2009,"month":7,"lon":-1.856861,"lat":48.671238,"tags":"cancale,france,francja,gaetanku","S2CellId":"480e900000000000","result":4781,"accuracy":0.053830903,"title":"090711-0015","description":"Plage%0ACancale%0AHDR2-v2"}
{"id":2713439035,"url":"http://farm4.staticflickr.com/3152/2713439035_884bb5866c.jpg","path":"3d3/dc4/3d3dc46c52c7bef7859a8120db798f9.jpg","date":"2010-10-16","year":2010,"month":10,"lon":-1.513366,"lat":48.63631,"tags":"bretagna,bretagne,britanny,france,francia","S2CellId":"480eb00000000000","result":4782,"accuracy":0.9971782,"title":"le+mont+saint+michel"}
{"id":6106026407,"url":"http://farm7.staticflickr.com/6204/6106026407_2d00ded787.jpg","path":"c51/a24/c51a244c376758e3568434126b649f5.jpg","date":"2011-04-18","year":2011,"month":4,"lon":-1.511993,"lat":48.63629,"tags":"a.+ponte,antonio+ponte,europa,europe,fran%C3%A7a,france,francia,frankrijk,merveille,michael,miguel,mont,mont-saint-michel,monte,normandie,ponte,ponte+antonio,saigneurdeguerre,saint-michel,unesco","S2CellId":"480eb00000000000","result":4782,"accuracy":0.61860746,"title":"France+-+Normandie+-+Mont-Saint-Michel","description":"Europe+Europa%0AFrance+Frankrijk+Fran%C3%A7a+Francia+%0ANormandie%0A%0AMont-Saint-Michel%0A%0A%0ALundi%2C+18+avril+2011.%0A%0A%0A%3Ca+href%3D%22http%3A%2F%2Fwww.ot-montsaintmichel.com%2Faccueil.htm%22+rel%3D%22nofollow%22%3Ewww.ot-montsaintmichel.com%2Faccueil.htm%3C%2Fa%3E%0A%0A%3Ca+href%3D%22http%3A%2F%2Ffr.wikipedia.org%2Fwiki%2FLe_Mont-Saint-Michel%22+rel%3D%22nofollow%22%3Efr.wikipedia.org%2Fwiki%2FLe_Mont-Saint-Michel%3C%2Fa%3E"}
{"id":6942383822,"url":"http://farm8.staticflickr.com/7119/6942383822_70eb45667b.jpg","path":"cd1/7db/cd17db9f984da5e9420d758b88e5d6.jpg","date":"2011-09-11","year":2011,"month":9,"lon":-1.830339,"lat":48.872337,"tags":"chausey,france,la+manche","S2CellId":"4815000000000000","result":4797,"accuracy":0.1360127,"title":"Chausey"}
{"id":9339305254,"url":"http://farm6.staticflickr.com/5460/9339305254_77d0eddcc8.jpg","path":"ca7/67c/ca767ce561d12e2dd689183f72f96291.jpg","date":"2013-07-10","year":2013,"month":7,"lon":-1.835001,"lat":48.329166,"tags":"betton,brittany,canal+d%27ille+et+rance,dinan,evran,fenners1984,le+boat,messac,pont+rean,rennes,tint%C3%A9niac,vilaine","S2CellId":"48651c0000000000","result":4873,"accuracy":0.0075049424,"title":"Tint%C3%A9niac"}
{"id":199526279,"url":"http://farm1.staticflickr.com/73/199526279_5f74f6c0b9.jpg","path":"90c/25d/90c25d1b0442798f694ff9a62eb2416.jpg","date":"2004-08-28","year":2004,"month":8,"lon":-1.482124,"lat":48.649242,"tags":"abstract,blue,bretagne,france,mont+saint+michel,normandie,purple,sand,sea,sky,sunset","S2CellId":"487b450000000000","result":5565,"accuracy":0.027702086,"title":"Abstract+Horizon+%2F+3","description":"Sand%2C+water%2C+sky+near+Mont+St.+Michel"}
{"id":2932188898,"url":"http://farm4.staticflickr.com/3013/2932188898_c24ea4a11b.jpg","path":"f39/510/f395104b472dde9876a5f5017a182c.jpg","date":"2008-08-19","year":2008,"month":8,"lon":-1.771545,"lat":48.603855,"tags":"bibble,bibblepro,buitenland,canon,canon40d,canoneos40d,eec,eeg,europa,europe,fdw,foreign,france,frankrijk,fransdewit,holiday,le+mont+saint+michel,le+mont+st+michel,mont+saint+michel,mont+st+michel,reis,reizen,saint+michel,servon,st+michel,travel,vacation,vakantie,voyage","S2CellId":"480eb00000000000","result":4782,"accuracy":0.43340638,"title":"Base+Servon+%28near+Mont+Saint+Michel%29"}
{"id":6306684531,"url":"http://farm7.staticflickr.com/6056/6306684531_91d9085784.jpg","path":"74b/36e/74b36eb86830b14a79d731c59a224ba4.jpg","date":"2011-11-02","year":2011,"month":11,"lon":-1.674524,"lat":48.11097,"tags":"%C3%A9coin%C3%A7on,arc,bleu,fa%C3%A7ade,france,rennes","S2CellId":"47e671fc00000000","result":4666,"accuracy":0.053109482,"title":"DSCF0310"}
{"id":1989627490,"url":"http://farm3.staticflickr.com/2102/1989627490_36ec3eb172.jpg","path":"d22/398/d223985183c65318565f472b73655622.jpg","date":"2007-11-12","year":2007,"month":11,"lon":-1.707773,"lat":48.10233,"tags":"2007,andrew,antipode,bird,chanson,d%27automne,dear,embellies,festival,guillaume,lonely,michelet,rennes","S2CellId":"478df00000000000","result":3674,"accuracy":0.05594474,"title":"Lonely+dear+%2801%29","description":"Lonely+dear+%40+L%27Antipode%2C+Rennes+%28France%29"}
{"id":3936148975,"url":"http://farm4.staticflickr.com/3495/3936148975_a8e28e8a38.jpg","path":"9a7/f25/9a7f256f374f0b853b21843dd1a4129.jpg","date":"2009-09-13","year":2009,"month":9,"lon":-1.982517,"lat":48.672626,"tags":"beach,france,saint+malo,sand,sea,water","S2CellId":"480e900000000000","result":4781,"accuracy":0.016135046,"title":"C100-4070_dxo_wsxga"}
{"id":4777487711,"url":"http://farm5.staticflickr.com/4100/4777487711_cddc60335e.jpg","path":"9d1/84c/9d184c34b978dbc799c73c054d18eb4.jpg","date":"2010-07-08","year":2010,"month":7,"lon":-1.669471,"lat":48.114136,"tags":"la+quermesse+de+menetreux++les+tomb%C3%A9es+la+nuit++2010,les+nuits+du+thabor,rennes,spectaculaire,thabor","S2CellId":"478df00000000000","result":3674,"accuracy":0.13411938,"title":"Les+Nuits+Du+Thabor+%40+Tomb%C3%A9es+de+la+nuit+2010+-+Bomber+www.alter1fo+%2820%29"}
{"id":4923213226,"url":"http://farm5.staticflickr.com/4138/4923213226_f7f44284b4.jpg","path":"fb8/8cf/fb88cfd56efa767c4b9521695143f62.jpg","date":"2010-08-15","year":2010,"month":8,"lon":-1.477661,"lat":48.682137,"tags":"paris","S2CellId":"2dd23d0000000000","result":1544,"accuracy":0.06675511,"title":"Mont+Saint-Michel"}
{"id":7690353994,"url":"http://farm9.staticflickr.com/8149/7690353994_27a598b390.jpg","path":"bfc/25a/bfc25a4177b8c9cf1b4c644dc429f912.jpg","date":"2012-07-28","year":2012,"month":7,"lon":-1.836327,"lat":48.32963,"tags":"%C3%A2%C2%A9+benoit+david,%C3%A3%C2%A9claircies,2012,201207,b%26w,black+and+white,blues,bretagne,clair,concert,exterieur,fran%C3%A7e,france,ille+et+vilaine,noir+et+blanc,ovs,rythm%27n%27blues,rythnnblues,samssoul,soir,soleil,soul,tint%C3%A9+art+rue,tint%C3%A9niac","S2CellId":"89c8049000000000","result":9190,"accuracy":0.16234134,"title":"Sam%27s+Soul+%2339"}
{"id":5133453863,"url":"http://farm2.staticflickr.com/1314/5133453863_47bde92aa6.jpg","path":"a39/7c1/a397c1329c627871eab66c55941e9f.jpg","date":"2010-10-24","year":2010,"month":10,"lon":-1.51165,"lat":48.63688,"tags":"france","S2CellId":"480eb00000000000","result":4782,"accuracy":0.03974694,"title":"Cloister+Ceiling+of+Mont-Saint-Michel"}
{"id":4167376842,"url":"http://farm3.staticflickr.com/2756/4167376842_174dabd4d2.jpg","path":"82d/4e6/82d4e6585296d4de8c2ef3bd149b7c.jpg","date":"2009-12-07","year":2009,"month":12,"lon":-1.733951,"lat":48.05743,"tags":"2009,concert,festival,live,rennes,transmusicales","S2CellId":"0d51a55c00000000","result":444,"accuracy":0.04863054,"title":"The+Politics+%28Transmusicales+2009%29"}
{"id":70535627,"url":"http://farm1.staticflickr.com/35/70535627_7816081489.jpg","path":"6a8/22d/6a822da46f43652ce971c646d54dfc1.jpg","date":"2005-12-05","year":2005,"month":12,"lon":-1.68978,"lat":48.111965,"tags":"france,horizons,rennes","S2CellId":"60185c4000000000","result":6452,"accuracy":0.082104854,"title":"166-6680_IMG","description":"Les+Horizons+encore"}
{"id":4163133124,"url":"http://farm3.staticflickr.com/2552/4163133124_7aba24bbeb.jpg","path":"d55/f59/d55f59c6c968f2ba7f228eeb235c25ad.jpg","date":"2009-12-06","year":2009,"month":12,"lon":-1.733951,"lat":48.05743,"tags":"2009,concert,festival,jean+louis+brossard,live,musique,rennes,trans,transmusicales,transmusicales+de+rennes","S2CellId":"0d51a54c00000000","result":442,"accuracy":0.10543216,"title":"Tery+Lynn+%28Transmusicales+2009%29"}
{"id":4849604986,"url":"http://farm5.staticflickr.com/4095/4849604986_400f7a4278.jpg","path":"973/bcb/973bcb8f4db32472fefee365ff60587.jpg","date":"2010-07-21","year":2010,"month":7,"lon":-1.51083,"lat":48.63608,"tags":"%E6%B3%95%E5%9C%8B,france,mont,st-michel","S2CellId":"12acc00000000000","result":779,"accuracy":0.15056826,"title":"IMG_3890","description":"Mont+ST-Michel+%0A%E8%A1%97%E9%81%93"}
{"id":6039602127,"url":"http://farm7.staticflickr.com/6088/6039602127_7bd4af1853.jpg","path":"9c3/da7/9c3da7655a76eb43ba8a9dd61e89150.jpg","date":"2009-05-24","year":2009,"month":5,"lon":-1.51278,"lat":48.63685,"tags":"france,mont,mont+saint-michel,saint-michel","S2CellId":"88fe740000000000","result":8760,"accuracy":0.09143219,"title":"P5244435"}
{"id":8089929466,"url":"http://farm9.staticflickr.com/8476/8089929466_39be68a546.jpg","path":"231/183/2311834733f36517b153ab08894b34a.jpg","date":"2012-09-28","year":2012,"month":9,"lon":-1.511981,"lat":48.636086,"tags":"%E8%81%96%E7%B1%B3%E6%AD%87%E7%88%BE%E5%B1%B1,mont+st.michel","S2CellId":"480eb00000000000","result":4782,"accuracy":0.59405136,"title":"YKP_1838"}
{"id":5239294644,"url":"http://farm6.staticflickr.com/5004/5239294644_9d65ebb353.jpg","path":"849/391/849391dfdcee6c2374a757de1efe1f.jpg","date":"2010-12-01","year":2010,"month":12,"lon":-1.645486,"lat":48.10885,"tags":"bretagne,c35ef,camion,france,kodachrome,konica,rennes,slide,truck","S2CellId":"548ff00000000000","result":6177,"accuracy":0.010923216,"description":"November+2010%2C+Rennes%2C+France%0AKonica+C35EF+%2B+kodachrome+64"}
{"id":3477254890,"url":"http://farm4.staticflickr.com/3617/3477254890_6d340b6a26.jpg","path":"f6d/585/f6d585234794b41df565d2ba7b40b5d8.jpg","date":"2007-09-23","year":2007,"month":9,"lon":-1.726226,"lat":48.069763,"tags":"a%C3%A9rien,airshow,antoine,avion,grobigou,meeting,rennes,soubigou","S2CellId":"88d0a631cabb5071","result":8563,"accuracy":0.013515028,"title":"PICT0063"}
{"id":5590424374,"url":"http://farm6.staticflickr.com/5069/5590424374_4750f10a3e.jpg","path":"6d8/0cd/6d80cdf6398ad7b2a6575f7b8dc775d2.jpg","date":"2011-03-26","year":2011,"month":3,"lon":-1.674857,"lat":48.105095,"tags":"champs+libres,escaliers,rennes","S2CellId":"12a4a2f500000000","result":730,"accuracy":0.07670544,"title":"Spirale","description":"Que+fait-on+dans+les+escaliers+%3F+On+monte+tout+en+haut+et+on+les+prend+en+photo."}
{"id":8739910406,"url":"http://farm8.staticflickr.com/7281/8739910406_4fa043cc4e.jpg","path":"348/f7f/348f7fcd702277b076cc6ebffda44.jpg","date":"2013-05-14","year":2013,"month":5,"lon":-1.677823,"lat":48.112125,"tags":"art+urbain,installation,place+du+parlement,r%C3%A9cup%C3%A9ration,recyclage,rennes,sculpture,simon+augade,street+art,wyz","S2CellId":"47e66e1d00000000","result":4590,"accuracy":0.077437334,"title":"Installation+de+Simon+Augade+pour+le+festival+d%27Oodaaq+%2309","description":"15+mai+2013%2C+place+du+Parlement%2C+Rennes.+%0A%0ACr%C3%A9ation+de+%3Ca+href%3D%22http%3A%2F%2Fmulti-prises.fr%2Fperso%2Fsimon%2F%22+rel%3D%22nofollow%22%3ESimon+Augade%3C%2Fa%3E%0A%0ASite+du+%3Ca+href%3D%22http%3A%2F%2Fwww.loeildoodaaq.fr%2Ffestival.php%22+rel%3D%22nofollow%22%3Efestival+d%27Oodaaq%3C%2Fa%3E"}
{"id":3062584336,"url":"http://farm4.staticflickr.com/3006/3062584336_560d01233b.jpg","path":"a3a/0b4/a3a0b4b8cbfea8a0e8f7816dc3951e4.jpg","date":"2007-08-03","year":2007,"month":8,"lon":-1.511735,"lat":48.636765,"tags":"2007,abbey,abtei,benedict,benediktiner,benediktinerkloster,bild,bretagne,brittany,cap,capital,cc,chapiteau,church,churches,couesnon,creative+commons,eglise,flickr,foto,france,frankreich,franz%C3%B6sisch,free,french,gew%C3%B6lbe,gothic,gotik,gotische,gotischer,high+resolution,image,jakobsweg,juli,kapitell,kirche,kirchen,kloster,michael,michel,mont,mont+st.+michel,normandie,photo,picture,saint,sommer,st,stockphoto,unesco,weltkulturerbe","S2CellId":"480eb00000000000","result":4782,"accuracy":0.20256656,"title":"2007-07-28+08-04+Paris%2C+Normandie+0855+Mont+St.+Michel%2C+Crypte+des+Gros+Piliers"}
{"id":508393400,"url":"http://farm1.staticflickr.com/194/508393400_1de837b7b3.jpg","path":"f76/3b9/f763b9d01e3bb99ebb2769901d73125.jpg","date":"2007-05-17","year":2007,"month":5,"lon":-1.510534,"lat":48.63688,"tags":"roof,stone,windows","S2CellId":"47e0400000000000","result":4527,"accuracy":0.058744,"title":"TOITS","description":"Mont+Saint+Michel"}
{"id":3480608420,"url":"http://farm4.staticflickr.com/3310/3480608420_a851492e60.jpg","path":"84b/6e1/84b6e1b67cc9bdddee4d8eb5268083e1.jpg","date":"2007-06-24","year":2007,"month":6,"lon":-1.758327,"lat":48.040333,"tags":"antoine,eleven,fune,funk,funkeleven,grobigou,soubigou","S2CellId":"47c3900000000000","result":4194,"accuracy":0.04506193,"title":"PICT0027"}
{"id":7566707090,"url":"http://farm8.staticflickr.com/7121/7566707090_0db49869cf.jpg","path":"2f3/bb9/2f3bb9326e9e4f2c9c6dc35d2ed3caa3.jpg","date":"2012-07-08","year":2012,"month":7,"lon":-1.639827,"lat":48.18138,"tags":"2012,201207,_activite,betton,bretagne,concert,concertpleinair,couvert,exterieur,france,ille+et+vilaine,marchebetton,marches,matin,midi,ovs,pleinair,swingmanouche,triolaid","S2CellId":"357bc00000000000","result":2299,"accuracy":0.13505141,"title":"Trio+Laid+%2320"}
{"id":423261337,"url":"http://farm1.staticflickr.com/162/423261337_99c9cf89d8.jpg","path":"b08/6a8/b086a8245dea63653a473ac2e7f1be0.jpg","date":"2006-08-11","year":2006,"month":8,"lon":-1.998138,"lat":48.523483,"tags":"bretagna,bretagne,dinard","S2CellId":"4810c00000000000","result":4791,"accuracy":0.2954253,"title":"fabcom_IMGP4067zzc","description":"Bretagne%2C+la+Rance+%28Dinard+-+Dinan%29"}
{"id":9339296724,"url":"http://farm4.staticflickr.com/3806/9339296724_63766455cd.jpg","path":"ba9/19b/ba919bc6b82a64f4d1e01a125df71d79.jpg","date":"2013-07-10","year":2013,"month":7,"lon":-1.814723,"lat":48.32111,"tags":"betton,brittany,canal+d%27ille+et+rance,dinan,evran,fenners1984,le+boat,messac,pont+rean,rennes,vilaine","S2CellId":"48776c0000000000","result":5433,"accuracy":0.121749125,"title":"Brittany"}
{"id":9947181394,"url":"http://farm8.staticflickr.com/7441/9947181394_80169228d2.jpg","path":"683/0e2/6830e2455b21eb5d80b3b3c9f8d5d910.jpg","date":"2013-09-26","year":2013,"month":9,"lon":-1.561248,"lat":48.975758,"tags":"vebr13","S2CellId":"487930c000000000","result":5467,"accuracy":0.1305328,"title":"%23VEBR13+all+at+30+mile+mark+and+first+water+stop"}
{"id":4467894762,"url":"http://farm5.staticflickr.com/4036/4467894762_3e2c543c11.jpg","path":"5e9/bc8/5e9bc8aeb8bc50ec2a568f5ee259695.jpg","date":"2010-03-27","year":2010,"month":3,"lon":-1.673752,"lat":48.108837,"tags":"2010,d%C3%A9bat,forum+lib%C3%A9ration,rennes,tnb","S2CellId":"5f0b2c0000000000","result":6349,"accuracy":0.02318097,"title":"forum+lib%C3%A9+%2827%29"}
{"id":3166381762,"url":"http://farm2.staticflickr.com/1151/3166381762_4a643d72dd.jpg","path":"cfb/de3/cfbde31621685872f2f221c23c43abc6.jpg","date":"2009-01-02","year":2009,"month":1,"lon":-1.511478,"lat":48.636253,"tags":"bretagne,brittany,d700,france,michel,mont,mont+saint+michel,saint","S2CellId":"8e41000000000000","result":9464,"accuracy":0.0036549058,"title":"Sledge"}
{"id":7724531606,"url":"http://farm9.staticflickr.com/8431/7724531606_9b70152e11.jpg","path":"c9c/9d6/c9c9d695b0351fdbf4be1d883ff53164.jpg","date":"2012-08-05","year":2012,"month":8,"lon":-1.639827,"lat":48.18138,"tags":"...+silence,2012,201208,_villes,accord%C3%A9on,banjo,bass,basse,batterie,betton,bretagne,cabaret+du+march%C3%A9,chanson,chant,concert,couvert,dimanche,drums,exterieur,fran%C3%A7e,guitar,guitare,ille+et+vilaine,march%C3%A9,midi,ovs,poprock,rock,singer","S2CellId":"54906ab300000000","result":6212,"accuracy":0.030325038,"title":"...Silence+%2302"}
{"id":8174730336,"url":"http://farm9.staticflickr.com/8066/8174730336_1e16a8b42b.jpg","path":"f62/b7e/f62b7ede778df89ce79199b4664cd5b5.jpg","date":"2012-11-01","year":2012,"month":11,"lon":-1.674212,"lat":48.109997,"tags":"bretagne,fra,france,rennes","S2CellId":"4805ef0000000000","result":4761,"accuracy":0.075648084,"title":"Sur+la+Vilaine","description":"R%C3%A9flexions"}
{"id":2360133811,"url":"http://farm4.staticflickr.com/3161/2360133811_f22ba7c6ee.jpg","path":"e38/33d/e3833da0f0681171c3f39d5ee67ff1e.jpg","date":"2008-03-25","year":2008,"month":3,"lon":-1.673226,"lat":48.108376,"tags":"2008,alter1fo,alter1fo.com,band,bb,brass,gras,is,kahn,king,mardi,rennes,shrines,ubu,what","S2CellId":"00a6990000000000","result":54,"accuracy":0.026202064,"title":"KingKahn+-+UBU+2008+%2819%29"}
{"id":5756604752,"url":"http://farm3.staticflickr.com/2405/5756604752_021180c1aa.jpg","path":"26b/af4/26baf426b7a27542d5d73ca202ff822.jpg","date":"2011-05-19","year":2011,"month":5,"lon":-1.504611,"lat":48.585804,"tags":"amapola,breta%C3%B1a,bretagne,flor,normandia,normandie,saint-michel","S2CellId":"47c3d30000000000","result":4231,"accuracy":0.052773155,"title":"Amapolas+junto+al+Mont+Saint-Michel"}
{"id":7404717204,"url":"http://farm8.staticflickr.com/7087/7404717204_af8db38eb1.jpg","path":"864/9de/8649deda8ab58fe6f1689159c85c7b48.jpg","date":"2012-06-19","year":2012,"month":6,"lon":-1.703835,"lat":48.11217,"tags":"duchamp,hommage,marcel+duchamp,rennes,roue,street+art,velo,wyz","S2CellId":"47769c0000000000","result":3421,"accuracy":0.013439281,"title":"Roue+de+bicyclette%2C+version+2012","description":"Juin+2012%2C+Rennes"}
{"id":2131315556,"url":"http://farm3.staticflickr.com/2113/2131315556_c47f41c43f.jpg","path":"69e/262/69e262d93f1d11542666d92ef139b4.jpg","date":"2007-12-23","year":2007,"month":12,"lon":-1.582031,"lat":48.17307,"tags":"for%C3%AAt,for%C3%AAt+de+rennes,forest,france,rennes","S2CellId":"4705000000000000","result":3127,"accuracy":0.013349554,"title":"Promenade+en+For%C3%AAt","description":"For%C3%AAt+de+Rennes"}
{"id":3774780378,"url":"http://farm3.staticflickr.com/2668/3774780378_4a5bce4c45.jpg","path":"7d8/cf3/7d8cf35e4523a5033c64ef9b26db353.jpg","date":"2009-06-21","year":2009,"month":6,"lon":-1.953549,"lat":48.1353,"tags":"bretagne,brittany,broceliande,europe,haute+bretagne,lake,montfort,montfort+sur+meu,nature,office+de+tourisme,park,paysdemontfort,tourisme,water","S2CellId":"487604d900000000","result":5252,"accuracy":0.045291778,"title":"Confluence+%C3%A0+Montfort-sur-Meu","description":"Vue+sur+la+confluence+entre+les+rivi%C3%A8res+du+Meu+et+du+Garun%2C+au+coeur+de+Montfort-sur-Meu%2C+en+pays+de+Montfort+en+Broc%C3%A9liande+%28c%29+%3A+Emeline+MAIRY%0A%3Ca+href%3D%22http%3A%2F%2Fwww.paysdemontfort.com%22+rel%3D%22nofollow%22%3Ewww.paysdemontfort.com%3C%2Fa%3E"}
{"id":215432542,"url":"http://farm1.staticflickr.com/59/215432542_3463e36faf.jpg","path":"8cb/780/8cb7808d5cdbb9f37342235e85531fd.jpg","date":"2006-08-14","year":2006,"month":8,"lon":-1.752319,"lat":48.555138,"tags":"2006,bretagne,camping,de,dol,du,le,rock,route","S2CellId":"47e66df000000000","result":4584,"accuracy":0.004756816,"title":"Route+du+Rock+2006"}
{"id":5255124851,"url":"http://farm6.staticflickr.com/5163/5255124851_18bc713df7.jpg","path":"a38/1a0/a381a075ae8395683570368bd91640f4.jpg","date":"2010-12-10","year":2010,"month":12,"lon":-1.733629,"lat":48.05733,"tags":"2010,crew,expo,parc,transmusicales,vendredi%40,witty","S2CellId":"89e3775000000000","result":9330,"accuracy":0.06986611,"title":"Witty+Crew+Transmusicales+2010+vendredi%40+parc+expo++%2832%29"}
{"id":3644734739,"url":"http://farm3.staticflickr.com/2471/3644734739_a0e39fd552.jpg","path":"d47/76b/d4776bf3f484582e2aea6624f91505a.jpg","date":"2009-05-15","year":2009,"month":5,"lon":-1.558926,"lat":48.972187,"tags":"chien,dog,france,golden,golden+retriever,iphone,lomyx,retriever,wubitt","S2CellId":"5486704000000000","result":6115,"accuracy":0.023108885,"title":"Un+jour+-+une+photo+%28vacances+mai+2009%29","description":"Vendredi+15+mai+2009+14%3A00+-+Pr%C3%AAt+pour+la+balade+sur+la+plage...+%C3%87a+ne+va+pas+%C3%AAtre+une+partie+de+rigolade%2C+il+vente+%C3%A0+d%C3%A9corner+les+b%C5%93ufs."}
{"id":7297997534,"url":"http://farm8.staticflickr.com/7229/7297997534_57883745aa.jpg","path":"a6f/139/a6f1394e970701bf5afd8bda4b82c89.jpg","date":"2012-05-29","year":2012,"month":5,"lon":-1.69993,"lat":48.097874,"tags":"alexandre+gloria,alexandre+gloria+rennes,krieg+rennes,urban+exploring,www.age-photos.fr","S2CellId":"8824d40000000000","result":8229,"accuracy":0.013482029,"title":"Initiation+photos+bases+Urbex+%2B+Nuit+%40+la+courrouze","description":"Diaphragme%2C+vitesse%2C+sensibilit%C3%A9%2C+mise+au+point%2C+focales%2C+placements..."}
{"id":7988459533,"url":"http://farm9.staticflickr.com/8314/7988459533_811a4861b9.jpg","path":"e01/ae2/e01ae2b15caea3c5a37682e688815c.jpg","date":"2012-09-14","year":2012,"month":9,"lon":-1.634666,"lat":48.096355,"tags":"alexandre+gloria,alexandre+gloria+rennes,fight%27ness+rennes,fitness,gkicks,ju+jitsu,kick+boxing,krieg+rennes,lutte,mma,musculation,www.age-photos.fr,yovan+delourme","S2CellId":"5490130000000000","result":6181,"accuracy":0.14796564,"title":"GKICKS+-+FIGHT%27NESS+Club+%2F+Fitness+%26+Mixed+Martial+Arts","description":"FIGHT%27NESS+Club+%2F+Fitness+%26+Mixed+Martial+Arts+%2F+Musculation%2C+kick+boxing%2C+lutte%2C+ju+jitsu%2C+fitness%2C+mma+-+4+rue+du+Breil%2C+35000+Rennes++++02+99+41+94+78%0A%0AGKICKS+ORIGINALS%0A%3Ca+href%3D%22http%3A%2F%2Fwww.gkicksoriginals.com%22+rel%3D%22nofollow%22%3Ewww.gkicksoriginals.com%3C%2Fa%3E%0A++++++++++++06+85+47+38+29+++++++%0A%3Ca+href%3D%22http%3A%2F%2Fwww.facebook.com%2Fpages%2FGkicks-Originals%2F306597632736946%22+rel%3D%22nofollow%22%3Ewww.facebook.com%2Fpages%2FGkicks-Originals%2F306597632736946%3C%2Fa%3E%0APOINTS+DE+VENTE%3A%0AProject+Store+%28Rennes%29%0AMacadam+Basket+%28Rennes%29%0AWestcoastshop+Nantes+%28Nantes%29%0ACash+ville+%28Lorient%29+%0AEkirok+%28Paris%29%0A%3Ca+href%3D%22http%3A%2F%2Fwww.facebook.com%2Fwestcoastshop.nantes%22+rel%3D%22nofollow%22%3Ewww.facebook.com%2Fwestcoastshop.nantes%3C%2Fa%3E%0A%3Ca+href%3D%22http%3A%2F%2Fwww.facebook.com%2Fstaff.ekirok%3Ffref%3Dts%22+rel%3D%22nofollow%22%3Ewww.facebook.com%2Fstaff.ekirok%3Ffref%3Dts%3C%2Fa%3E%0A%3Ca+href%3D%22http%3A%2F%2Fwww.facebook.com%2Fprofile.php%3Fid%3D100002874300925%26fref%3Dts%22+rel%3D%22nofollow%22%3Ewww.facebook.com%2Fprofile.php%3Fid%3D100002874300925%26fref%3Dts%3C%2Fa%3E%0AEkirok+Paris+-+61+rue+st+denis+75001+paris+%3Ca+href%3D%22http%3A%2F%2Fwww.ekirok.com%22+rel%3D%22nofollow%22%3Ewww.ekirok.com%3C%2Fa%3E+SITE+DE+VENTE+EN+LIGNE"}
{"id":3270967472,"url":"http://farm4.staticflickr.com/3474/3270967472_edf93604db.jpg","path":"5cc/0dd/5cc0dde9f63a4cadf143f9571d28550.jpg","date":"2006-08-15","year":2006,"month":8,"lon":-1.85008,"lat":48.702744,"tags":"breta%C3%B1a,bretagne,viajes","S2CellId":"2bfc000000000000","result":1527,"accuracy":0.010595159,"title":"%C2%A1Ostras%21","description":"Y+no+os+pod%C3%A9is+imaginar%3A%0A%0Aa%29+Lo+ricas+que+est%C3%A1ban%2C+y%0Ab%29+Lo+baratas+que+son+all%C3%AD"}
{"id":5912730573,"url":"http://farm6.staticflickr.com/5112/5912730573_be155f9ca3.jpg","path":"108/121/1081212ae9c82f9af70155119c66d4.jpg","date":"2011-07-07","year":2011,"month":7,"lon":-1.370544,"lat":48.686428,"tags":"stage6,tdf","S2CellId":"480fc00000000000","result":4786,"accuracy":0.20718314,"title":"Thunderstorm+in+Avranches"}
{"id":13870503275,"url":"http://farm6.staticflickr.com/5570/13870503275_7fdac6fc41.jpg","path":"a2f/a3e/a2fa3eac1e1b755c1691554cf50da89.jpg","date":"2014-04-15","year":2014,"month":4,"lon":-1.681841,"lat":48.115124,"tags":"centre,chantier,congr%C3%A8s,couvent,foreuse,jacobins,rennes","S2CellId":"6d318a3000000000","result":6816,"accuracy":0.7832766,"title":"Chantier+Centre+de+congr%C3%A8s+Rennes"}
{"id":2749639934,"url":"http://farm4.staticflickr.com/3019/2749639934_0eb6e857ef.jpg","path":"a4a/a6d/a4aa6d76333faed3d8825b41df4a8a3.jpg","date":"2008-08-08","year":2008,"month":8,"lon":-1.511389,"lat":48.600834,"tags":"brittany,eye,france,lizard","S2CellId":"89c8037000000000","result":9187,"accuracy":0.04287464,"title":"Eye","description":"Alligator+Bay%2C+near+Mont+St+Michel."}
{"id":4787714926,"url":"http://farm5.staticflickr.com/4119/4787714926_c6d4d4a5c2.jpg","path":"806/562/806562b1d74bdad66999f7fa93abdf80.jpg","date":"2010-07-09","year":2010,"month":7,"lon":-1.669471,"lat":48.114136,"tags":"la+quermesse+de+menetreux++les+tomb%C3%A9es+la+nuit++2010,les+nuits+du+thabor,rennes,spectaculaire,thabor","S2CellId":"600108d000000000","result":6401,"accuracy":0.12126345,"title":"Les+Nuits+Du+Thabor+%40+Tomb%C3%A9es+de+la+nuit+2010+-+bomber-www.alter1fo+%2817%29"}
{"id":6811405638,"url":"http://farm8.staticflickr.com/7063/6811405638_4c89af5c98.jpg","path":"95d/fc5/95dfc5ddedbb66546416bc2bd80cb62.jpg","date":"2012-01-27","year":2012,"month":1,"lon":-1.509042,"lat":48.6271,"tags":"abbaye,abbey,bay,causeway,france,l%E2%80%99abbaye+du+mont-saint-michel,l%E2%80%99abbaye+du+mont-st-michel,le+mont+saint-michel,le+mont+st.+michel,mont,mont+saint-michel,mont+st.+michel,mont-saint-michel+and+its+bay,norman,normandy,unesco+world+heritage+site,water,world+heritage+site","S2CellId":"480eb00000000000","result":4782,"accuracy":0.99613744,"title":"Mont+Saint-Michel"}
{"id":5050609034,"url":"http://farm5.staticflickr.com/4147/5050609034_916391bbd5.jpg","path":"362/25a/36225af8efdd9358bba2dc481a94ec.jpg","date":"2010-09-21","year":2010,"month":9,"lon":-1.511467,"lat":48.6361,"tags":"2010_europe_highlights,mont+st.+michel","S2CellId":"89c2589300000000","result":8971,"accuracy":0.11268196,"title":"Mont+St.+Michel","description":"Mont+St.+Michel+may+be+amazingly+touristy%2C+but+it+is+still+pretty+amazingly+cool.++%0A%0AWould+probably+be+pretty+crazy+if+you+were+to+visit+DURING+tourist+season%2C+though."}
{"id":3165513615,"url":"http://farm2.staticflickr.com/1104/3165513615_8f01470e11.jpg","path":"ef2/392/ef2392a72b11e05a565b48f6a885d3.jpg","date":"2009-01-02","year":2009,"month":1,"lon":-1.511478,"lat":48.636253,"tags":"bretagne,brittany,d700,france,michel,mont,mont+saint+michel,saint","S2CellId":"1317000000000000","result":977,"accuracy":0.011481106,"title":"Blue+sky"}
{"id":4122273606,"url":"http://farm3.staticflickr.com/2767/4122273606_3bd8e30ba3.jpg","path":"fb1/9ae/fb19ae862f8d6c583364d439dc03cf8.jpg","date":"2009-10-24","year":2009,"month":10,"lon":-1.51083,"lat":48.63608,"tags":"2009,bretagne,cancale+mont+saint+michel+normandie+bretagne+octobre+2009+weeken,cancale+mont+saint+michel+normandie+bretagne+octobre+2009+weekend+anniversaire,michel,mont,normandie,octobre,saint","S2CellId":"489f000000000000","result":5781,"accuracy":0.022997793,"title":"Clones","description":"Mont+Saint+Michel%2C+France"}
{"id":6113273159,"url":"http://farm7.staticflickr.com/6205/6113273159_4b21ddc9f3.jpg","path":"6ca/b74/6cab7497ec1f88bb21366dc7ffe429c1.jpg","date":"2011-09-03","year":2011,"month":9,"lon":-1.200942,"lat":48.355907,"tags":"castle,chateau,city,fougeres,gardens,sunbathing","S2CellId":"12ab400000000000","result":776,"accuracy":0.28327817,"title":"City+View","description":"I+love+the+girl+sunbathing+in+the+gardens+in+this+shot+%28and+a+couple+of+others%21%29+I+didn%27t+know+she+was+there+at+the+time+but+spotted+her+while+editing%21"}
{"id":7351020408,"url":"http://farm8.staticflickr.com/7098/7351020408_7543932b67.jpg","path":"c29/3b8/c293b885148e579aa5745c81f1ba79c.jpg","date":"2012-06-03","year":2012,"month":6,"lon":-1.510667,"lat":48.6365,"tags":"photo+stream","S2CellId":"480eb00000000000","result":4782,"accuracy":0.2399961,"title":"stepping+out"}
{"id":6146222361,"url":"http://farm7.staticflickr.com/6195/6146222361_45f2a8c366.jpg","path":"c14/074/c140747b3cd52553981bd5e9fec81e5a.jpg","date":"2011-09-14","year":2011,"month":9,"lon":-1.705813,"lat":48.121803,"tags":"instagram+app,iphoneography,nashville,square,square+format","S2CellId":"0d47100000000000","result":398,"accuracy":0.00972192,"title":"Soleil+sur+%23rennes+aujourd%27hui"}
{"id":5247676231,"url":"http://farm6.staticflickr.com/5121/5247676231_5c341a6558.jpg","path":"548/dfa/548dfa885cdee453142cee13cacd85c.jpg","date":"2010-12-09","year":2010,"month":12,"lon":-1.733629,"lat":48.05733,"tags":"2010,expo,jeudi,nemo,old,parc,school,transmusicales","S2CellId":"478df00000000000","result":3674,"accuracy":0.046484124,"title":"Old+School+Nemo+Transmusicales+2010+jeudi+%40+parc+expo+%2822%29"}
{"id":5101467849,"url":"http://farm2.staticflickr.com/1398/5101467849_8db187633b.jpg","path":"a59/978/a5997850cba01b637a2b26d2869cb2.jpg","date":"2007-12-14","year":2007,"month":12,"lon":-1.511805,"lat":48.636017,"tags":"35mm,biogon,leica,m6,mont,saint-michel","S2CellId":"480eb00000000000","result":4782,"accuracy":0.15902597,"title":"mont+saint-michel","description":"Leica+M6+%2F+Carl+Zeiss+Biogon+T+*+2%2F35+ZM%0A%0A%3Ca+href%3D%22http%3A%2F%2Fwww.fluidr.com%2Fphotos%2Fosamukaneko%22+rel%3D%22nofollow%22%3EFluidr%3C%2Fa%3E+%3A%29"}
{"id":3372746913,"url":"http://farm4.staticflickr.com/3595/3372746913_a53e64aa50.jpg","path":"3e5/8fa/3e58fa9bbc6c16b6bafbf57e878903c.jpg","date":"2009-03-21","year":2009,"month":3,"lon":-1.614046,"lat":48.83416,"tags":"400mm,80mm,air,bird,bleu,blue,ciel,fiente,fly,mm,mouette,oiseau,shit,sky,vol","S2CellId":"88d0a631cabb5071","result":8563,"accuracy":0.033635117,"title":"Sooo+Glamour","description":"Et+crotte.+%5E_%5E"}
{"id":4032465673,"url":"http://farm3.staticflickr.com/2534/4032465673_05a997a3b3.jpg","path":"fd7/11f/fd711f3877c3625e60535870adbffed4.jpg","date":"2009-10-16","year":2009,"month":10,"lon":-1.51225,"lat":48.636967,"tags":"montsaintmichel","S2CellId":"486d140000000000","result":4945,"accuracy":0.025771301,"title":"mont+saint+michel"}
{"id":3999263321,"url":"http://farm3.staticflickr.com/2558/3999263321_fd7f6ddb44.jpg","path":"a8e/5f1/a8e5f129f3f562f7f62db9ecb3f23e.jpg","date":"2007-10-13","year":2007,"month":10,"lon":-1.511993,"lat":48.636967,"tags":"church,france,mont+saint-michel,unesco+world+heritage+site","S2CellId":"480eb00000000000","result":4782,"accuracy":0.21244775,"title":"Mont+Saint-Michel","description":"Abbaye+du+Mont+Saint-Michel%0A%28Mont+Saint-Michel+Abbey%29%0A11th+-+16th+century%0A%0AArchitect%3A+William+de+Volpiano+%28962-1031%29%0A%0AUNESCO+World+Heritage+Site%0AMont-Saint-Michel+and+its+Bay%0A%3Ca+href%3D%22http%3A%2F%2Fwhc.unesco.org%2Fen%2Flist%2F80%22+rel%3D%22nofollow%22%3Ewhc.unesco.org%2Fen%2Flist%2F80%3C%2Fa%3E"}
{"id":5355097450,"url":"http://farm6.staticflickr.com/5042/5355097450_df7f7835d3.jpg","path":"611/4b1/6114b1344e53447b33eef51293a2e66.jpg","date":"2010-05-02","year":2010,"month":5,"lon":-1.851196,"lat":48.70097,"tags":"brittany,coast","S2CellId":"47d8d90000000000","result":4460,"accuracy":0.0851938,"title":"IMG_8753"}
{"id":7567805140,"url":"http://farm9.staticflickr.com/8007/7567805140_6132132008.jpg","path":"eca/b56/ecab5694fe30d1b982a0b739929c4c9.jpg","date":"2012-05-31","year":2012,"month":5,"lon":-1.653099,"lat":48.18596,"tags":"2012,201205,bretagne,clair,fisheye,france,ille+et+vilaine,paysages,soir,soleil","S2CellId":"132e400000000000","result":1056,"accuracy":0.008843964,"title":"Dans+L+Herbe+%2301"}
{"id":480285449,"url":"http://farm1.staticflickr.com/223/480285449_036832bd1d.jpg","path":"931/c44/931c44e62dc37788a5e8d89c6146710.jpg","date":"2007-05-01","year":2007,"month":5,"lon":-1.592373,"lat":48.122356,"tags":"cesson,triathlon","S2CellId":"2e69400000000000","result":1565,"accuracy":0.04537702,"title":"P5013053.JPG","description":"Triathlon+Cesson+S%C3%A9vign%C3%A9+2007-05-01"}
{"id":8730502679,"url":"http://farm8.staticflickr.com/7315/8730502679_afeb32d569.jpg","path":"ee9/b57/ee9b5722ddf0a253f7866f54643df55.jpg","date":"2013-05-10","year":2013,"month":5,"lon":-1.687259,"lat":48.109722,"tags":"alexandre+gloria,artisticemotion,canon+5d+mark+2,rennes,smoke,snoot,tamron+24-70mm+f%2F2.8+sp+di+vc+usd+canon+yongnuo+digiatl.+speedlite+yn460-ii","S2CellId":"132ee40000000000","result":1060,"accuracy":0.00495222,"title":"%22Are+you+trying+to+tell+me+something+%3F%22","description":"%3Ca+href%3D%22https%3A%2F%2Fwww.facebook.com%2Fpages%2FAG-Photostream%2F494682610580680%22+rel%3D%22nofollow%22%3Ewww.facebook.com%2Fpages%2FAG-Photostream%2F494682610580680%3C%2Fa%3E"}
{"id":2613466688,"url":"http://farm4.staticflickr.com/3275/2613466688_52e9fdd605.jpg","path":"6cc/5a1/6cc5a11374d49548c26b4e5c9381154.jpg","date":"2007-06-18","year":2007,"month":6,"lon":-1.508817,"lat":48.63078,"tags":"europe,travel","S2CellId":"480eb00000000000","result":4782,"accuracy":0.98863924,"title":"Mont+St+Michel%2C+Normandy"}
{"id":8086521503,"url":"http://farm9.staticflickr.com/8052/8086521503_8b231ef14a.jpg","path":"dbd/371/dbd371a44f90981de5a85937e9df17da.jpg","date":"2012-10-14","year":2012,"month":10,"lon":-1.676487,"lat":48.10594,"tags":"2012,alexandre+gloria+rennes,centre+colombia,comit%C3%A9+f%C3%A9minin+d%27ille+et+vilaine+pour+le+d%C3%A9pistage+des+cancers,tout+rennes+court+feminin+14%2F10%2F12,www.age-photos.fr","S2CellId":"47df1c0000000000","result":4514,"accuracy":0.07043718,"title":"Tout+Rennes+Court+feminin+14%2F10%2F12"}
{"id":3476429673,"url":"http://farm4.staticflickr.com/3545/3476429673_f9cf136eb4.jpg","path":"c0f/788/c0f78896c840159844618465d792ed40.jpg","date":"2007-09-23","year":2007,"month":9,"lon":-1.726226,"lat":48.069763,"tags":"a%C3%A9rien,airshow,antoine,avion,grobigou,meeting,rennes,soubigou","S2CellId":"86d5000000000000","result":7692,"accuracy":0.3250735,"title":"PICT0043"}
{"id":4967199607,"url":"http://farm5.staticflickr.com/4144/4967199607_1a20ef7339.jpg","path":"35a/13e/35a13e4611646d0ba462145edaf89c.jpg","date":"2010-09-07","year":2010,"month":9,"lon":-1.673752,"lat":48.108837,"tags":"07,2010,cfdt,cgt,fidl,manifestation,organisation,rennes,septembre,syndicale,unsa","S2CellId":"4805ef0000000000","result":4761,"accuracy":0.16874394,"title":"Manif+07+septembre+2010+retraites+%2831%29"}
{"id":9284302042,"url":"http://farm3.staticflickr.com/2816/9284302042_9f0e6c3e1a.jpg","path":"e21/508/e215086b61374f26b1e41ee29e63a11.jpg","date":"2013-07-13","year":2013,"month":7,"lon":-1.697537,"lat":48.096878,"tags":"2013,courrouze,rennes,tomb%C3%A9es+de+la+nuit","S2CellId":"4888300000000000","result":5730,"accuracy":0.103036076,"title":"Scubabianchi+en+route","description":"La+Scubabianchi+de+Tristan+Kruithof+d%C3%A9ambule+dans+les+all%C3%A9es+de+la+Courrouze."}
{"id":10228605744,"url":"http://farm8.staticflickr.com/7375/10228605744_7e2954d1a8.jpg","path":"16c/814/16c814e7f94c65cbeb6963cc6d1f9c.jpg","date":"2013-05-07","year":2013,"month":5,"lon":-1.982066,"lat":48.673122,"tags":"mer,plage,saint-malo","S2CellId":"47c4500000000000","result":4265,"accuracy":0.017712995,"title":"Saint-Malo"}
{"id":3437228143,"url":"http://farm4.staticflickr.com/3339/3437228143_48b2392791.jpg","path":"e2a/ba3/e2aba36fb6dceb154688ba901eb942.jpg","date":"2009-04-11","year":2009,"month":4,"lon":-1.675801,"lat":48.111286,"tags":"rennes","S2CellId":"12aebd0000000000","result":789,"accuracy":0.02942768,"title":"Rennes"}
{"id":4660729273,"url":"http://farm2.staticflickr.com/1280/4660729273_d31a4bfd42.jpg","path":"f69/c99/f69c9987a1b835976862f4d1437b5b2e.jpg","date":"2010-05-28","year":2010,"month":5,"lon":-1.676498,"lat":48.105015,"tags":"4+bis,bluespleen,concert,musiiklap,musiiklap4,rennes,siiklap","S2CellId":"478df00000000000","result":3674,"accuracy":0.18943559,"title":"IMGP0176.jpg","description":"BlueSpleeN+en+concert+au+4+bis+le+28+mai+2010.%0A%28Concert+Musiiklap+4+organis%C3%A9+par+l%27association+Siiklap%29%0A%0A%3Ca+href%3D%22http%3A%2F%2Fwww.myspace.com%2Fbluespleenminded%22+rel%3D%22nofollow%22%3Ewww.myspace.com%2Fbluespleenminded%3C%2Fa%3E%0A%3Ca+href%3D%22http%3A%2F%2Fwww.myspace.com%2Fmusiiklap%22+rel%3D%22nofollow%22%3Ewww.myspace.com%2Fmusiiklap%3C%2Fa%3E"}
{"id":5261073098,"url":"http://farm6.staticflickr.com/5005/5261073098_4400b5bd54.jpg","path":"e0e/16e/e0e16e5e65a2fa9b6f0323da7a49081.jpg","date":"2010-12-10","year":2010,"month":12,"lon":-1.733629,"lat":48.05733,"tags":"2010,bomber,concert,janelle+monae,musique,parc+expo,photos,rencontre,rennes,transmusicales","S2CellId":"47c3b00000000000","result":4195,"accuracy":0.05020337,"title":"Janelle+MonaeTransmusicales+2010+vendredi%40+parc+expo++%2818%29"}
{"id":3061704507,"url":"http://farm4.staticflickr.com/3231/3061704507_87a9963c25.jpg","path":"cad/32a/cad32ab110d7b2a7f1bcedd06a23cd1f.jpg","date":"2007-08-03","year":2007,"month":8,"lon":-1.512122,"lat":48.636143,"tags":"2007,abbey,abtei,benedict,benediktiner,benediktinerkloster,bild,blumen,bretagne,brittany,cap,capital,cc,chapiteau,church,churches,cloitre,couesnon,creative+commons,eglise,flickr,floral,flower,foto,france,frankreich,franz%C3%B6sisch,free,french,gothic,gotik,gotische,gotischer,high+resolution,image,jakobsweg,juli,kapitell,kirche,kirchen,kloster,kreuzgang,michael,michel,mont,mont+st.+michel,normandie,photo,picture,saint,sommer,st,stockphoto,unesco,weltkulturerbe","S2CellId":"4872240000000000","result":5076,"accuracy":0.02333776,"title":"2007-07-28+08-04+Paris%2C+Normandie+0813+Mont+St.+Michel"}
{"id":44724519,"url":"http://farm1.staticflickr.com/32/44724519_842574e427.jpg","path":"f81/903/f81903155d4fc82a28990afacca4513.jpg","date":"2005-11-14","year":2005,"month":11,"lon":-1.512594,"lat":48.63597,"tags":"abroad,bleu,blue,ciel,clouds,dehors,europe,france,montstmichel,normandie,normandy,nuages,ombres,outdoors,rigoles,rivulets,shadows,sky","S2CellId":"480eb00000000000","result":4782,"accuracy":0.07526896,"title":"view+from+mont+st.+michel","description":"The+tide+was+out%2C+leaving+little+streams+behind.+The+blue+sky+made+them+stand+out%2C+and+the+clouds+added+some+great+shadows+on+the+ground."}
{"id":9510205288,"url":"http://farm4.staticflickr.com/3765/9510205288_e3b15189ec.jpg","path":"718/813/718813b2867f951a43f1b2387675e5.jpg","date":"2013-08-06","year":2013,"month":8,"lon":-1.367872,"lat":48.832718,"tags":"508d,abandoned,beauchamps,mercedes,pickup,rouill%C3%A9,rusty","S2CellId":"6d6b000000000000","result":6849,"accuracy":0.03368064,"title":"Manche+August+2013+263"}
{"id":468427906,"url":"http://farm1.staticflickr.com/224/468427906_80d5b3b27e.jpg","path":"e34/432/e344329377a2e3ae2ab9b374f03e59.jpg","date":"2007-04-20","year":2007,"month":4,"lon":-1.703975,"lat":48.120583,"tags":"court+m%C3%A9trage,festival,rennes+2,tubas,tubas+d%27or+2007,uhb","S2CellId":"12c9100000000000","result":838,"accuracy":0.28521198,"title":"Un+jury+d%C3%A9tendu","description":"%3Ca+href%3D%22http%3A%2F%2Ftubasdor.usetic.org%22%3Etubasdor.usetic.org%3C%2Fa%3E"}
{"id":2768562528,"url":"http://farm4.staticflickr.com/3106/2768562528_b4d92396df.jpg","path":"f34/63a/f3463ae3c1bbbec767e3870254f47c.jpg","date":"2008-08-01","year":2008,"month":8,"lon":-1.9281,"lat":48.56235,"tags":"aperitif,bretagne,brick+ad,brittany,chateauneuf,ghost+sign,ille+et+villaine,publicit%C3%A9+murale,suze","S2CellId":"480e900000000000","result":4781,"accuracy":0.18104614,"title":"Suze%2C+Chateauneuf+d%27Ille+et+Villaine","description":"Suze+is+a+gentian-based+aperitif."}
{"id":3113016417,"url":"http://farm4.staticflickr.com/3205/3113016417_2f84279034.jpg","path":"73a/4ef/73a4efa6acc69cb2765154ce42f3f8e.jpg","date":"2006-09-03","year":2006,"month":9,"lon":-1.569843,"lat":48.79467,"tags":"animal,dog","S2CellId":"486f700000000000","result":4980,"accuracy":0.016235705,"title":"IMG_8165"}
{"id":8017127443,"url":"http://farm9.staticflickr.com/8029/8017127443_9d5c6c4bf8.jpg","path":"6ce/469/6ce469dc7b5aeb5b9d42a6b37e1c24.jpg","date":"2012-08-17","year":2012,"month":8,"lon":-1.509768,"lat":48.633175,"tags":"bus,france,mont+saint+michel,normandie,normandy,shuttle","S2CellId":"480eb00000000000","result":4782,"accuracy":0.9726415,"title":"Mont+Saint+Michel","description":"With+a+new+shuttle+bus+to+the+parking."}
{"id":8489381309,"url":"http://farm9.staticflickr.com/8225/8489381309_8e70a46599.jpg","path":"fb3/e11/fb3e111e8da94070b8b1c070110dcd4.jpg","date":"2013-02-11","year":2013,"month":2,"lon":-1.511042,"lat":48.636078,"tags":"architecture,basse-normandie,bretagne,city+urban,europe,france,hdr,landscape,le+mont-saint-michel,mont+saint-michel,paysage,urbain","S2CellId":"480eb00000000000","result":4782,"accuracy":0.78666437,"title":"Salle+des+Chevaliers","description":"Mont-Saint-Michel."}
{"id":4615813621,"url":"http://farm4.staticflickr.com/3403/4615813621_3fe848118c.jpg","path":"71a/fdb/71afdb3406c3d3c4c75575dc77f1340.jpg","date":"2010-05-14","year":2010,"month":5,"lon":-1.933667,"lat":48.677334,"tags":"cmt","S2CellId":"480e900000000000","result":4781,"accuracy":0.9206648,"title":"De+Cancale+%C3%A0+Saint+Malo"}
{"id":8017143067,"url":"http://farm9.staticflickr.com/8455/8017143067_cddcb546de.jpg","path":"a66/b31/a66b31be7535563aa45bd539b6f3f11.jpg","date":"2012-08-17","year":2012,"month":8,"lon":-1.51061,"lat":48.63513,"tags":"france,mont+saint+michel,normandie,normandy,shop,sign","S2CellId":"80dcd7d100000000","result":7349,"accuracy":0.07392195,"title":"Mont+Saint+Michel"}
{"id":1525738848,"url":"http://farm3.staticflickr.com/2038/1525738848_268a82c9a2.jpg","path":"551/5b4/5515b48b9b9b0a373cd3941e4e791.jpg","date":"2007-09-04","year":2007,"month":9,"lon":-1.505988,"lat":48.63071,"tags":"flitterwochen+bretagne,mont+saint+michel","S2CellId":"480eb00000000000","result":4782,"accuracy":0.9925178,"title":"20070904-DSC_2011"}
{"id":8724515862,"url":"http://farm8.staticflickr.com/7444/8724515862_cd1f5bdb03.jpg","path":"199/2ce/1992ceda8ea8622abd7fadee5526137b.jpg","date":"2011-12-29","year":2011,"month":12,"lon":-1.509364,"lat":48.632454,"tags":"%C3%AElot,abbaye,abby,basse-normandie,france,frankreich,island,manche,mont+saint-michel,normandie,normandy,rocher,rock","S2CellId":"480eb00000000000","result":4782,"accuracy":0.89257526,"title":"DSC_2617"}
{"id":3585549878,"url":"http://farm4.staticflickr.com/3342/3585549878_e71bc178f3.jpg","path":"82c/626/82c62648a5ff2a27711ed4e8443611f2.jpg","date":"2008-05-31","year":2008,"month":5,"lon":-1.689834,"lat":48.16208,"tags":"100,2009,alpha,animaux,bretagne,campagne,campaign,ch%C3%A8vre,chameau,cirque,france,ille+et+vilaine,rennes,sony","S2CellId":"1835000000000000","result":1425,"accuracy":0.048736706,"title":"Ah+l%27amour+%21%21%21","description":"C%27est+au+d%C3%A9tours+d%27un+rond+point+au+nord+de+Rennes+que+je+croise+des+animaux+du+cirque+Zabatta%21%21%21"}
{"id":7675522886,"url":"http://farm8.staticflickr.com/7126/7675522886_cbe06a5fc3.jpg","path":"102/c33/102c33bcb5d54cf46c94ffed628cd45.jpg","date":"2012-07-27","year":2012,"month":7,"lon":-1.955334,"lat":48.137665,"tags":"bretagne,brittany,broceliande,ecomusee,medieval,montfort,montfortsurmeu,moyenage,officedetourisme,paysdemontfort,tourisme","S2CellId":"89b1111000000000","result":8803,"accuracy":0.03992105,"title":"Tournoi+m%C3%A9di%C3%A9val+de+l%27%C3%A9comus%C3%A9e+du+pays+de+Broc%C3%A9liande","description":"L%27%C3%A9comus%C3%A9e+du+pays+de+Broc%C3%A9liande+propose+de+nombreuses+activit%C3%A9s+pour+les+enfants+pendant+les+vacances+scolaires.+Atelier+calligraphie%2C+enluminure%2C+vitrail+ou+blason+mais+aussi+des+visites+guid%C3%A9es+insolites+de+Montfort+sur+Meu%2C+ou+encore+le+fameux+tournoi+m%C3%A9di%C3%A9val+qui+a+visiblement+beaucoup+de+succ%C3%A8s.%0A%3Ca+href%3D%22http%3A%2F%2Fwww.paysdemontfort.com%22+rel%3D%22nofollow%22%3Ewww.paysdemontfort.com%3C%2Fa%3E"}
{"id":9461766754,"url":"http://farm3.staticflickr.com/2867/9461766754_7fd9a9e978.jpg","path":"e84/8a8/e848a815d466daa3ad84cadc214cffe1.jpg","date":"2013-08-07","year":2013,"month":8,"lon":-1.58876,"lat":48.839157,"tags":"instagram+app,iphoneography,square,square+format","S2CellId":"5490144000000000","result":6182,"accuracy":0.0046503064,"title":"Ce+soir+on+se+fait+les+dents+de+la+mer+en+plein+air+%23jaws+%23cinema+bord+de+mer."}
{"id":3092534872,"url":"http://farm4.staticflickr.com/3109/3092534872_c5b909fff3.jpg","path":"877/f94/877f94fa489fcb038c3b6ea739391f.jpg","date":"2008-12-07","year":2008,"month":12,"lon":-1.509075,"lat":48.628483,"tags":"afternoon,cathedral,church,dusk,france,mont,st+michel,travel,winter","S2CellId":"5494c00000000000","result":6235,"accuracy":0.29340768,"title":"Mont+St.+Michel+in+winter"}
{"id":518337017,"url":"http://farm1.staticflickr.com/221/518337017_6b80e1cb6a.jpg","path":"642/ee1/642ee1c476de6ffcb8cf3ad64867fc.jpg","date":"2007-02-07","year":2007,"month":2,"lon":-1.68197,"lat":48.11451,"tags":"bretagne,couple,fun,game,house,raquette,rennes,sport,squash,sueur,vitre","S2CellId":"88f8b00000000000","result":8737,"accuracy":0.01817219,"title":"Squash+game"}
{"id":3264398472,"url":"http://farm1.staticflickr.com/194/3264398472_cab7417c94.jpg","path":"839/978/8399786a86fe8bae95e97b68662d7492.jpg","date":"2009-02-07","year":2009,"month":2,"lon":-1.677861,"lat":48.10925,"tags":"ouest-france,rennes","S2CellId":"47e66e2b00000000","result":4611,"accuracy":0.12154167,"title":"Lois+Lane+et+Clark+Kent","description":"devant+le+Daily+Planet%2C+ou+bien+Ouest-France"}
{"id":2239253025,"url":"http://farm3.staticflickr.com/2234/2239253025_53fa64071e.jpg","path":"732/f42/732f42bd2349bd4cd4ce7238713ace54.jpg","date":"2007-01-21","year":2007,"month":1,"lon":-1.5121,"lat":48.63688,"tags":"boofalo,boofaloblues,photo,pierrick,pierrick+vabre,vabre","S2CellId":"4816900000000000","result":4799,"accuracy":0.27770427,"title":"DSC_9462"}
{"id":2987410364,"url":"http://farm4.staticflickr.com/3150/2987410364_38e7c48dc9.jpg","path":"ba5/dae/ba5daeafb58eac1917e6b93294508c3a.jpg","date":"2008-10-16","year":2008,"month":10,"lon":-1.668999,"lat":48.114193,"tags":"october,rennes,rtns","S2CellId":"47e0c00000000000","result":4528,"accuracy":0.31255904,"title":"Rennes"}
{"id":9345796964,"url":"http://farm8.staticflickr.com/7422/9345796964_4d1d1b51fb.jpg","path":"aaf/fb9/aaffb9c4b57d765fe8d83c6a16e9deb.jpg","date":"2013-07-22","year":2013,"month":7,"lon":-1.724725,"lat":48.000267,"tags":"hipstamatic,melodie+lens,no+flash,robusta+film","S2CellId":"4860400000000000","result":4839,"accuracy":0.006050635,"title":"Poutchi+cute"}
{"id":2810455218,"url":"http://farm4.staticflickr.com/3252/2810455218_a5fcd1a33c.jpg","path":"3f3/4b5/3f34b5f03ec917e7c4f679e09ab2f3.jpg","date":"2008-06-02","year":2008,"month":6,"lon":-1.451605,"lat":48.622692,"tags":"%E6%B3%95%E5%9C%8B,%E8%81%96%E7%B1%B3%E6%AD%87%E7%88%BE%E5%B1%B1,%E8%AB%BE%E6%9B%BC%E5%9C%B0,1.79+km+to+courtils+in+basse-normandie+france,basse-normandie,courtils,france,mont+st.+michel","S2CellId":"1835000000000000","result":1425,"accuracy":0.120213464,"title":"midway+for+mont+st.+michel","description":"Taken+at+Latitude%2FLongitude%3A48.622692%2F-1.451605+Near+Courtils+Basse-Normandie+France+%3Ca+href%3D%22http%3A%2F%2Fwww.geonames.org%2Fmaps%2Fgoogle_48.622692_-1.451605.html%22%3E+%28Map+link%29%3C%2Fa%3E"}
{"id":2637387496,"url":"http://farm4.staticflickr.com/3261/2637387496_a0a49100a7.jpg","path":"432/9af/4329afb2387d36f07d46a8c7b2cf45.jpg","date":"2008-07-02","year":2008,"month":7,"lon":-1.632655,"lat":48.095245,"tags":"%C3%A9dition,betancourt,chantepie,impression,ingrid,journal,ouest-france,pqr,quotidien,rennes,rotatives","S2CellId":"47a850c000000000","result":3919,"accuracy":0.0072155464,"title":"Sortie+d%27une+rotative+de+Ouest-France","description":"Impression+des+premi%C3%A8res+%C3%A9ditions+le+soir+de+la+lib%C3%A9ration+d%27Ingrid+Betancourt."}
{"id":6357938411,"url":"http://farm7.staticflickr.com/6236/6357938411_6c81d621e5.jpg","path":"716/dfb/716dfb100d05fdcdcb74c9c9406484.jpg","date":"2011-09-17","year":2011,"month":9,"lon":-1.511478,"lat":48.637333,"tags":"bretagne,mont+saint+michel,normandie,st+michel","S2CellId":"89b0c00000000000","result":8799,"accuracy":0.016933167,"title":"Mas+que+gotas+cubazos","description":"Mont+Saint+Michel%2C+Septiembre+2011"}
{"id":8017117985,"url":"http://farm9.staticflickr.com/8439/8017117985_8ee384b9aa.jpg","path":"6e4/693/6e4693bfbefb9396ed5556a4bd8f6.jpg","date":"2012-08-17","year":2012,"month":8,"lon":-1.51061,"lat":48.63513,"tags":"architecture,building,detail,france,mont+saint+michel,normandie,normandy","S2CellId":"480eb00000000000","result":4782,"accuracy":0.20779859,"title":"Mont+Saint+Michel"}
{"id":4660728843,"url":"http://farm5.staticflickr.com/4052/4660728843_fff15dae9c.jpg","path":"e85/4c7/e854c7f7ca3dc3a235516afdc129b80.jpg","date":"2010-05-28","year":2010,"month":5,"lon":-1.676498,"lat":48.105015,"tags":"4+bis,bluespleen,concert,musiiklap,musiiklap4,rennes,siiklap","S2CellId":"478df00000000000","result":3674,"accuracy":0.04648583,"title":"IMGP0153_v3.jpg","description":"BlueSpleeN+en+concert+au+4+bis+le+28+mai+2010.%0A%28Concert+Musiiklap+4+organis%C3%A9+par+l%27association+Siiklap%29%0A%0A%3Ca+href%3D%22http%3A%2F%2Fwww.myspace.com%2Fbluespleenminded%22+rel%3D%22nofollow%22%3Ewww.myspace.com%2Fbluespleenminded%3C%2Fa%3E%0A%3Ca+href%3D%22http%3A%2F%2Fwww.myspace.com%2Fmusiiklap%22+rel%3D%22nofollow%22%3Ewww.myspace.com%2Fmusiiklap%3C%2Fa%3E"}
{"id":4032488947,"url":"http://farm3.staticflickr.com/2426/4032488947_11ed905261.jpg","path":"2b6/211/2b6211e872bd5aeaaccd91064d2c8f.jpg","date":"2009-10-17","year":2009,"month":10,"lon":-1.51225,"lat":48.636967,"tags":"montsaintmichel","S2CellId":"480eb00000000000","result":4782,"accuracy":0.13113186,"title":"mont+saint+michel"}
{"id":4833731703,"url":"http://farm5.staticflickr.com/4104/4833731703_5502b0c3b2.jpg","path":"941/e1f/941e1ff0e2da3cb7df95719de7a3efa3.jpg","date":"2010-07-08","year":2010,"month":7,"lon":-1.322307,"lat":48.834442,"tags":"champrepus,zoo","S2CellId":"88d0a631cabb5071","result":8563,"accuracy":0.04870234,"title":"CRW_3186"}
{"id":7152145667,"url":"http://farm8.staticflickr.com/7250/7152145667_4dc6a2190d.jpg","path":"763/76f/76376f7490509ca7cd49f220cf73bb88.jpg","date":"2012-05-06","year":2012,"month":5,"lon":-1.650116,"lat":48.139057,"tags":"06%2F05%2F2012,2012,201205,animaux,apresmidi,balade,bretagne,couvert,des,exterieur,france,gayeulles,ille+et+vilaine,parc,parcdesgayeulles,pleinair","S2CellId":"487bab0000000000","result":5578,"accuracy":0.05287112,"title":"Parc+des+Gayeulles+%2F06%2F05%2F2012"}
{"id":4433071770,"url":"http://farm3.staticflickr.com/2736/4433071770_35abdd13bb.jpg","path":"de7/391/de73914055e68c7f2f49172bc82c076.jpg","date":"2010-03-14","year":2010,"month":3,"lon":-1.509333,"lat":48.613834,"tags":"eye-fi,france,march2010,mphoto,paris","S2CellId":"47dcd00000000000","result":4497,"accuracy":0.024424149,"title":"IMG_0580.JPG"}
{"id":4923210990,"url":"http://farm5.staticflickr.com/4140/4923210990_8a3bfba1ca.jpg","path":"b46/6e0/b466e081c89165da154667ecbd2b986.jpg","date":"2010-08-15","year":2010,"month":8,"lon":-1.477661,"lat":48.682137,"tags":"paris","S2CellId":"480e900000000000","result":4781,"accuracy":0.20231716,"title":"Mont+Saint-Michel"}
{"id":8693048781,"url":"http://farm9.staticflickr.com/8396/8693048781_c2310bebf1.jpg","path":"43b/152/43b15207a527196189ec2484d87fac6.jpg","date":"2013-04-27","year":2013,"month":4,"lon":-1.767346,"lat":48.139297,"tags":"48,636,bobber,burn,burnout,cora,davidson,eight,forty,forty-eight,harley,harley-davidson,hd,kawasaki,martinez,moto,mtz,pac%C3%A9,simon,stoppie,stunt,wheeling","S2CellId":"480ef00000000000","result":4784,"accuracy":0.777197,"title":"Simon+Martinez"}
{"id":13045422775,"url":"http://farm3.staticflickr.com/2336/13045422775_3b3aeae9f8.jpg","path":"196/f3c/196f3cceb22df69aabdc7251b85521c.jpg","date":"2014-03-09","year":2014,"month":3,"lon":-1.220865,"lat":48.15571,"tags":"35,600,akapovic,d90,honda,hornet,hornet+600,moto,nikon,sortie,taillis","S2CellId":"48772c0000000000","result":5416,"accuracy":0.024343915,"title":"Honda+Hornet+600","description":"Follow+me+on+%3Ca+href%3D%22http%3A%2F%2Fwww.facebook.com%2FJeanJacquesPhotos%22+rel%3D%22nofollow%22%3EFacebook%3C%2Fa%3E+%21"}
{"id":13912574116,"url":"http://farm4.staticflickr.com/3773/13912574116_489d84cfa3.jpg","path":"0fe/a0e/0fea0e96bbbbd48b36e3cf76365e0.jpg","date":"2014-04-19","year":2014,"month":4,"lon":-1.4874,"lat":48.34214,"tags":"650,650s,all+types+of+transport,bike,d90,japanese,japonaise,moto,motorbike,motorcycle,motos,nikon,suzuki,sv,sv650,sv650s,svs","S2CellId":"46ed000000000000","result":3093,"accuracy":0.60039324,"title":"Suzuki+SV+650","description":"Follow+me+on+%3Ca+href%3D%22http%3A%2F%2Fwww.facebook.com%2FJeanJacquesPhotos%22+rel%3D%22nofollow%22%3EFacebook%3C%2Fa%3E+%21%0A%0ASuivez+ma+page+sur+%3Ca+href%3D%22http%3A%2F%2Fwww.facebook.com%2FJeanJacquesPhotos%22+rel%3D%22nofollow%22%3EFacebook%3C%2Fa%3E+%21"}
{"id":4706130521,"url":"http://farm5.staticflickr.com/4024/4706130521_88522523a2.jpg","path":"63a/3c3/63a3c3d1a3dc4667dc322f8a3c286a8.jpg","date":"2010-06-16","year":2010,"month":6,"lon":-1.922264,"lat":48.692207,"tags":"bird,bretagne,brittany,c%C3%B4te,groin,ille+et+vilaine,landscape,lassac,mer,mikkouz,mouette,oiseau,paysage,plage,playa,pointe+du+groin,saint-coulomb,saint-malo,vague,wave,wild,worldland","S2CellId":"9630000000000000","result":9869,"accuracy":0.061317,"title":"vague"}
{"id":4077998835,"url":"http://farm3.staticflickr.com/2675/4077998835_4014c6e6ea.jpg","path":"9e7/613/9e76133122f16bbf67119170edb5f0e1.jpg","date":"2009-08-14","year":2009,"month":8,"lon":-1.822582,"lat":48.87091,"tags":"fleurs,flowers,france,gx20,manche,nature,samsung,tamron,tamronaf18250mmf3563diiildasphericalifmacro","S2CellId":"5490d00000000000","result":6226,"accuracy":0.025328798,"title":"Pavot+de+Californie","description":"Tapis+de+Pavot+de+Californie+%28Eschscholtzia+californica%29+et++d%27Alysse+odorante+%28Alyssum+maritimum%29+-+Iles+Chausey+%28Normandie+-+France%29%0AMode+priorit%C3%A9+ouverture%2C+main+lev%C3%A9e%0ASamsung+GX20%0ATamron+AF+18-250mm+F%2F3.5-6.3+IF+LD+macro"}
{"id":2438437349,"url":"http://farm4.staticflickr.com/3163/2438437349_de0f3f28df.jpg","path":"c81/ddc/c81ddce4444655b73bbb3b2ef5556fd.jpg","date":"2008-03-30","year":2008,"month":3,"lon":-1.509504,"lat":48.635773,"tags":"baie,bay,landscape,mont+st+michel,nature,normandie,normandy,ombre,paysage,sable,sand,shade,shadow","S2CellId":"487b450000000000","result":5565,"accuracy":0.111563265,"title":"Shades+of+Mont+St+Michel"}
{"id":13109040684,"url":"http://farm4.staticflickr.com/3778/13109040684_365393e119.jpg","path":"b86/a20/b86a20c682e4d9bcd70d44a6f5fcfbd.jpg","date":"2014-03-02","year":2014,"month":3,"lon":-1.68447,"lat":48.10751,"tags":"34,apign%C3%A9,coup%C3%A9,d90,etangs,ford,ford+34,hot,hot+rod,nikon,papa35,rassemblement,redcars,rennes,rod,type,type+34,v8,worldcars","S2CellId":"883b3c0000000000","result":8351,"accuracy":0.15944369,"title":"Ford+34+Coup%C3%A9","description":"Follow+me+on+%3Ca+href%3D%22http%3A%2F%2Fwww.facebook.com%2FJeanJacquesPhotos%22+rel%3D%22nofollow%22%3EFacebook%3C%2Fa%3E+%21"}
{"id":11174491973,"url":"http://farm3.staticflickr.com/2856/11174491973_4970ecfc27.jpg","path":"2c5/4a7/2c54a7f9fac7b511fa534a94f272b54.jpg","date":"2013-12-01","year":2013,"month":12,"lon":-1.852278,"lat":48.67707,"tags":"bretagne,cancale,fra,france","S2CellId":"80dc070000000000","result":7326,"accuracy":0.11846544,"title":"2013_12_01_12_33_47"}
{"id":1857833399,"url":"http://farm3.staticflickr.com/2359/1857833399_f78d8813f2.jpg","path":"c4a/8ef/c4a8ef81a13464e4cfffbadc77191ef8.jpg","date":"2007-11-04","year":2007,"month":11,"lon":-1.604062,"lat":48.1194,"tags":"arbres,automnes,autumn,cesson-s%C3%A9vign%C3%A9,feuilles,france,leaves,trees","S2CellId":"48738c0000000000","result":5085,"accuracy":0.031925585,"title":"Couleurs+d%27Automne"}
{"id":2465705097,"url":"http://farm4.staticflickr.com/3046/2465705097_7830fb5822.jpg","path":"5af/6cc/5af6cc8bc65f7b1da074e9cc32b7f3e7.jpg","date":"2008-05-04","year":2008,"month":5,"lon":-1.511306,"lat":48.636654,"tags":"abbey,france,mont+saint-michel,mount+saint+michael","S2CellId":"47ec400000000000","result":4700,"accuracy":0.023582831}
{"id":5850147088,"url":"http://farm3.staticflickr.com/2514/5850147088_c6e77b5b5a.jpg","path":"888/b2a/888b2a3fca2f902f87691ec52b396268.jpg","date":"2011-06-18","year":2011,"month":6,"lon":-1.864671,"lat":48.665527,"tags":"bretagne,c%C3%B4te,stage","S2CellId":"487e640000000000","result":5635,"accuracy":0.0116784265,"title":"Stage+photo-025.jpg"}
{"id":10245844015,"url":"http://farm3.staticflickr.com/2883/10245844015_314551dbe2.jpg","path":"879/d3e/879d3e48d1a75d34b4964c4776d7411.jpg","date":"2013-10-13","year":2013,"month":10,"lon":-1.512036,"lat":48.636093,"tags":"35mm,analogue,color,epson+v330,film,iso200,landscape,paradies,praktica+ltl,slr","S2CellId":"480eb00000000000","result":4782,"accuracy":0.43778223,"title":".","description":"from+le+mont-saint-michel%0Aseptember+%2713"}
{"id":25934317,"url":"http://farm1.staticflickr.com/22/25934317_09ea21dc47.jpg","path":"c96/997/c969972ba38060af9baa5e8ec1759f3b.jpg","date":"2005-07-01","year":2005,"month":7,"lon":-1.51107,"lat":48.635483,"tags":"france,holiday,july+2005,mont+st.+michel,vacation","S2CellId":"480eb00000000000","result":4782,"accuracy":0.55848014,"title":"Baie+du+Mont+St.+Michel"}
{"id":13081321614,"url":"http://farm4.staticflickr.com/3777/13081321614_7fa4405033.jpg","path":"af3/2b7/af32b7677811b4b85acd642cd5c4aae.jpg","date":"2014-03-11","year":2014,"month":3,"lon":-1.681841,"lat":48.115124,"tags":"centre,chantier,congr%C3%A8s,couvent,jacobins,rennes","S2CellId":"4876f00000000000","result":5401,"accuracy":0.07479262,"title":"Chantier+Centre+de+congr%C3%A8s+Rennes"}
{"id":8017177113,"url":"http://farm9.staticflickr.com/8040/8017177113_a98cc06575.jpg","path":"d6c/91d/d6c91dc6ce241e9beaf96d861fb3309f.jpg","date":"2012-08-17","year":2012,"month":8,"lon":-1.511768,"lat":48.63641,"tags":"france,mont+saint+michel,normandie,normandy,river,sand,sea,tide,water","S2CellId":"480eb00000000000","result":4782,"accuracy":0.4061223,"title":"Mont+Saint+Michel"}
{"id":7471678854,"url":"http://farm9.staticflickr.com/8005/7471678854_ed1c95b920.jpg","path":"67b/718/67b7185673afb85df7ad5dbb9490db.jpg","date":"2012-06-21","year":2012,"month":6,"lon":-1.679159,"lat":48.108116,"tags":"%C3%A9claircies,2012,201206,bluesmiles,bluesrock,bretagne,comptoiredeshalles,concert,couvert,crepuscule,france,ille+et+vilaine,nuit,soir","S2CellId":"80dcd7df00000000","result":7356,"accuracy":0.015522677,"title":"Bluesmiles+%2304","description":"Bluesmiles+%C3%A0+la+f%C3%AAte+de+la+musique+%C3%A0+Rennes+le+21%2F06%2F2012+%2F+Comptoir+des+Halles"}
{"id":45052666,"url":"http://farm1.staticflickr.com/31/45052666_67fdb540bc.jpg","path":"a7b/a34/a7ba3489926b807ca1873690609b88.jpg","date":"2005-07-27","year":2005,"month":7,"lon":-1.678676,"lat":48.084385,"tags":"%C3%A9clairs,%C3%A9lectricite,ciel,clouds,electric,elements,lightening,nuages,orage,sky,storm,temp%C3%AAte,thunder,weather","S2CellId":"809f000000000000","result":7130,"accuracy":0.009908697,"title":"Storm+and+colors"}
{"id":2852297321,"url":"http://farm4.staticflickr.com/3191/2852297321_c49aa62b14.jpg","path":"bd5/41e/bd541ee161c93c208143c44ba3ccb43f.jpg","date":"2008-09-13","year":2008,"month":9,"lon":-1.56435,"lat":48.75189,"tags":"bleach,depnic,herve,homard.net,present,shirt","S2CellId":"3135ad0000000000","result":1749,"accuracy":0.004527173,"title":"Bleach+present","description":"Arriv%C3%A9+ce+matin+dans+ma+boite+aux+lettres%2C+Merci+Herv%C3%A9."}
{"id":3281491783,"url":"http://farm4.staticflickr.com/3590/3281491783_0e453eeaec.jpg","path":"18c/c22/18cc223507a98c66172bd209edf74dc.jpg","date":"2009-02-15","year":2009,"month":2,"lon":-1.530318,"lat":48.136463,"tags":"drops,water","S2CellId":"88d0a631cabb5071","result":8563,"accuracy":0.0047625173,"title":"Milk+drop"}
{"id":7184944153,"url":"http://farm8.staticflickr.com/7086/7184944153_d09dbb8a37.jpg","path":"ed6/e46/ed6e4635b891907997a8367e44d77e4.jpg","date":"2012-06-09","year":2012,"month":6,"lon":-1.511746,"lat":48.636276,"tags":"brittany,france,holiday,mont+st+michel","S2CellId":"4876440000000000","result":5361,"accuracy":0.030880848,"title":"Mont+St+Michel+Cloisters+1"}
{"id":3936930614,"url":"http://farm3.staticflickr.com/2510/3936930614_c87a5f0a53.jpg","path":"373/692/37369272d3188c26665b3d96de1217.jpg","date":"2009-09-13","year":2009,"month":9,"lon":-1.982517,"lat":48.672626,"tags":"beach,france,saint+malo,sand,sea,sea+gulls,water","S2CellId":"4887100000000000","result":5691,"accuracy":0.04171285,"title":"C100-4112_dxo_wsxga"}
{"id":7007563828,"url":"http://farm8.staticflickr.com/7241/7007563828_31ebafeeba.jpg","path":"2f1/b64/2f1b64297262d66622976ee2b325e13.jpg","date":"2012-04-19","year":2012,"month":4,"lon":-1.510276,"lat":48.635742,"tags":"%C3%AEle,%C3%AElot,baie,littoral,mar%C3%A9e+basse,mer,mont-saint-michel,sable,tombelaine","S2CellId":"480eb00000000000","result":4782,"accuracy":0.70969015,"title":"baie+du+Mont-Saint-Michel","description":"Au+milieu+de+la+baie%2C+l%27%C3%AElot++de+Tombelaine"}
{"id":8389937023,"url":"http://farm9.staticflickr.com/8218/8389937023_91e8dca380.jpg","path":"32b/773/32b7736594687a35868ea4602b3017.jpg","date":"2012-08-08","year":2012,"month":8,"lon":-1.511349,"lat":48.638184,"tags":"%C3%A9t%C3%A9,2012,bretagne,toulon,vacances,vend%C3%A9e","S2CellId":"480eb00000000000","result":4782,"accuracy":0.67965156,"title":"Escapade+estivale","description":"Le+Mont+Saint-Michel+%3A+coucher+de+soleil+sur+la+baie+1"}
{"id":13087481734,"url":"http://farm4.staticflickr.com/3071/13087481734_feace8c193.jpg","path":"bd4/66f/bd466f86c4a95e49a1c479299adefcf.jpg","date":"2014-03-02","year":2014,"month":3,"lon":-1.68447,"lat":48.10751,"tags":"apign%C3%A9,d90,etangs,g60,golf,golf+2,golf+gti,gti,gti+g60,mk2,nikon,papa35,rassemblement,rennes,volkswagen,vw,worldcars","S2CellId":"1502d00000000000","result":1353,"accuracy":0.0763977,"title":"Volkswagen+Golf+2+GTI+G60","description":"Follow+me+on+%3Ca+href%3D%22http%3A%2F%2Fwww.facebook.com%2FJeanJacquesPhotos%22+rel%3D%22nofollow%22%3EFacebook%3C%2Fa%3E+%21"}
{"id":13870510573,"url":"http://farm8.staticflickr.com/7038/13870510573_f6e089355b.jpg","path":"f2e/25c/f2e25c85f3987fbdb77b39276bf2f8a.jpg","date":"2014-04-15","year":2014,"month":4,"lon":-1.681841,"lat":48.115124,"tags":"centre,chantier,congr%C3%A8s,couvent,foreuse,jacobins,rennes","S2CellId":"6d318a3000000000","result":6816,"accuracy":0.17821278,"title":"Chantier+Centre+de+congr%C3%A8s+Rennes"}
{"id":2229693898,"url":"http://farm3.staticflickr.com/2019/2229693898_e97e8041b1.jpg","path":"a67/183/a67183191e1e933a58bcb8f9a2ef55a9.jpg","date":"2006-04-20","year":2006,"month":4,"lon":-1.510823,"lat":48.637753,"tags":"boofalo,boofaloblues,photo,pierrick,pierrick+vabre,vabre","S2CellId":"480eb00000000000","result":4782,"accuracy":0.86700004,"title":"Flow"}
{"id":5912910242,"url":"http://farm7.staticflickr.com/6009/5912910242_c2f5b6f968.jpg","path":"27d/89d/27d89ddf786397e3fdd91fda7465306.jpg","date":"2011-07-01","year":2011,"month":7,"lon":-1.973268,"lat":48.569534,"tags":"bretagne,brittany,europe,france","S2CellId":"480fc00000000000","result":4786,"accuracy":0.06624143,"title":"St+Suliac%2C+France"}
{"id":208939074,"url":"http://farm1.staticflickr.com/84/208939074_e5372106d3.jpg","path":"e77/871/e77871e1136e2edaa27af549f6a15c60.jpg","date":"2006-07-31","year":2006,"month":7,"lon":-1.850509,"lat":48.693226,"tags":"beach,concale,france,k750i,panoramic,sony+ericsson,yha,youth+hostel","S2CellId":"6d318a3000000000","result":6816,"accuracy":0.4639482,"title":"Concale+Youth+Hostel","description":"One+of+the+greatest+things+about+the+K750i+camera+is+that+the+camera+software+is+capable+of+stitching+together+a+series+of+panoramic+images+%22on-the-fly%22%2C+without+the+requirement+for+extra+software+when+you+download+the+pictures+from+the+phone.++%0D%0A%0D%0AThis+picture+was+taken+on+the+last+day+of+my+holiday+in+france+and+shows+the+Conale+Youth+Hostel%2C+which+is+the+only+building+on+the+shore+front+of+the+bay."}
{"id":2799704597,"url":"http://farm4.staticflickr.com/3098/2799704597_f1f72aec68.jpg","path":"59b/19b/59b19bc441b74359f571cdf156e354b2.jpg","date":"2008-08-22","year":2008,"month":8,"lon":-1.51165,"lat":48.636185,"tags":"mont+saint+michel,normandie","S2CellId":"480eb00000000000","result":4782,"accuracy":0.27628848,"title":"Cloi%CC%82tre+du+mont+saint+Michel","description":"Coucher+de+soleil+vu+du+cloi%CC%82tre"}
{"id":2836335436,"url":"http://farm4.staticflickr.com/3216/2836335436_f07a9ed561.jpg","path":"531/bd8/531bd8b59f89b9649b3f9b39fab494a.jpg","date":"2008-08-26","year":2008,"month":8,"lon":-1.510791,"lat":48.635345,"tags":"france,normandy","S2CellId":"480eb00000000000","result":4782,"accuracy":0.8219618,"title":"normandy_20080826_102926"}
{"id":5275416370,"url":"http://farm6.staticflickr.com/5166/5275416370_c2f4b077e4.jpg","path":"d2c/9a4/d2c9a4b4fdb2b37ba76589edda77ca.jpg","date":"2010-11-09","year":2010,"month":11,"lon":-1.473541,"lat":48.61884,"tags":"%23%D0%BA%D0%B0%D1%80%D1%82%D0%B8%D0%BD%D0%BA%D0%B8,%C3%A6%C3%A8%C3%A2%C3%AE%C3%B2%C3%AD%C3%BB%C3%A5,%C3%AF%C3%A5%C3%A9%C3%A7%C3%A0%C3%A6,%C3%B1%C3%A5%C3%AB%C3%BC%C3%B1%C3%AA%C3%AE%C3%A5+%C3%B5%C3%AE%C3%A7%C3%BF%C3%A9%C3%B1%C3%B2%C3%A2%C3%AE,%D0%B6%D0%B8%D0%B2%D0%BE%D1%82%D0%BD%D1%8B%D0%B5,%D0%BF%D0%B5%D0%B9%D0%B7%D0%B0%D0%B6,%D1%81%D0%B5%D0%BB%D1%8C%D1%81%D0%BA%D0%BE%D0%B5+%D1%85%D0%BE%D0%B7%D1%8F%D0%B9%D1%81%D1%82%D0%B2%D0%BE,%D1%84%D1%80%D0%B0%D0%BD%D1%86%D0%B8%D1%8F,hdr","S2CellId":"1835000000000000","result":1425,"accuracy":0.13436635,"title":"DSC04952-Edit"}
{"id":7810978240,"url":"http://farm8.staticflickr.com/7268/7810978240_8175eb7c6a.jpg","path":"3b3/7d5/3b37d568ce177a843f23736615fd27b.jpg","date":"2012-07-15","year":2012,"month":7,"lon":-1.511392,"lat":48.63579,"tags":"basse-normandie,bridgette,france,le+mont-saint-michel,michel,mont","S2CellId":"480eb00000000000","result":4782,"accuracy":0.83777463,"title":"Mont+Saint-Michel"}
{"id":3626401194,"url":"http://farm4.staticflickr.com/3613/3626401194_5efa4ecba5.jpg","path":"67a/640/67a6409ebd2d4153f872994ff0901657.jpg","date":"2009-05-09","year":2009,"month":5,"lon":-1.511392,"lat":48.636425,"tags":"arches,cloitre,colonnes,mont","S2CellId":"4872240000000000","result":5076,"accuracy":0.15533642,"title":"Crois%C3%A9es","description":"Mont+Saint+Michel+%28France%2C+50%29"}
{"id":4611019375,"url":"http://farm2.staticflickr.com/1180/4611019375_20518680be.jpg","path":"49e/586/49e586f8ac96499c3f6e361b2118168.jpg","date":"2010-05-12","year":2010,"month":5,"lon":-1.51165,"lat":48.63835,"tags":"2010,france,honfleur","S2CellId":"480eb00000000000","result":4782,"accuracy":0.5174917,"title":"Le+Mont+St+Michel"}
{"id":6703133443,"url":"http://farm8.staticflickr.com/7019/6703133443_cb007b07fb.jpg","path":"3d6/7d7/3d67d72bb2edefbaa83f0f9a0d5afe4.jpg","date":"2009-06-21","year":2009,"month":6,"lon":-1.855087,"lat":48.67203,"tags":"cancale,mer,voilier","S2CellId":"8810c00000000000","result":8173,"accuracy":0.0885409,"title":"Baie+de+Cancale"}
{"id":7807792356,"url":"http://farm9.staticflickr.com/8294/7807792356_db62fe49bc.jpg","path":"62b/4e5/62b4e5e29e1be1288b3a8c167e324a52.jpg","date":"2012-08-12","year":2012,"month":8,"lon":-1.924839,"lat":48.568542,"tags":"festival,route+du+rock,saint+malo,target","S2CellId":"4859000000000000","result":4820,"accuracy":0.13182707,"title":"Route+du+Rock"}
