{"id":3442927272,"url":"http://farm4.staticflickr.com/3594/3442927272_72b3187b05.jpg","path":"853/4ed/8534edd1fd81ed8253da77951c4cbfe.jpg","date":"2008-09-04","year":2008,"month":9,"lon":8.60753,"lat":63.72217,"tags":"angeln,dragsnes,fishing,hydra,norway,norwegen","S2CellId":"4613000000000000","result":2763,"accuracy":0.2450038,"title":"fishing-norway-hydra-dragsnes-2008-08-30"}
{"id":1234179708,"url":"http://farm2.staticflickr.com/1276/1234179708_fc0e7050e4.jpg","path":"dc9/e2b/dc9e2b841834958d8149cb465d4c74e2.jpg","date":"2007-08-03","year":2007,"month":8,"lon":8.303947,"lat":63.668785,"tags":"dusk,fr%C3%B8ya,grey,gull,norway,photoshopped,sky,titran,vacation","S2CellId":"45df000000000000","result":2759,"accuracy":0.15620477,"title":"Lined+up+for+the+night"}
{"id":1491679325,"url":"http://farm3.staticflickr.com/2102/1491679325_5227ec813a.jpg","path":"8a8/28c/8a828c2e84c24584e23924e9bbf2bd8d.jpg","date":"2007-09-15","year":2007,"month":9,"lon":8.464922,"lat":63.8438,"tags":"sula","S2CellId":"4b70000000000000","result":5827,"accuracy":0.063339256,"title":"DSC_6837.jpg"}
{"id":108202928,"url":"http://farm1.staticflickr.com/28/108202928_7f7a74b29e.jpg","path":"995/2ae/9952aedddbd6b317ef44ddebf83aee7.jpg","date":"2006-02-25","year":2006,"month":2,"lon":8.841419,"lat":63.650867,"tags":"crossaster,diving,dykking,hitra,nature,norge,norway,papposus,scuba,sea,solstjerne,star,sun,undervann,underwater","S2CellId":"6019900000000000","result":6547,"accuracy":0.04854962,"title":"Common+Sun+Star+%2F+R%C3%B8d+solstjerne","description":"%28Crossaster+papposus%29%0D%0AHitra%2C+Norway"}
{"id":1234918080,"url":"http://farm2.staticflickr.com/1278/1234918080_f5d711beb0.jpg","path":"fb9/d59/fb9d59da6356841cd831b0e61fa38316.jpg","date":"2007-08-07","year":2007,"month":8,"lon":8.667504,"lat":63.868202,"tags":"harbour,mausund,mausund+gjestegiveri+sj%C3%B8blomsten,mausundv%C3%A6r,norway,photoshopped,restaurant,vacation","S2CellId":"4645c00000000000","result":2810,"accuracy":0.48131984,"title":"Two+points+of+view"}
