{"id":3762315021,"url":"http://farm4.staticflickr.com/3426/3762315021_17a90801f2.jpg","path":"b82/2e9/b822e9c2ea8ccdc9a4ce758a7cd62dc.jpg","date":"2009-05-14","year":2009,"month":5,"lon":-4.736824,"lat":58.56861,"tags":"%C3%A9cosse,durness,scotland,smoo+cave","S2CellId":"486bc00000000000","result":4929,"accuracy":0.36434177,"title":"IMGP0581","description":"Au-dessus+de+Smoo+cave%2C+pr%C3%A8s+de+Durness."}
{"id":2766904913,"url":"http://farm4.staticflickr.com/3287/2766904913_36fba7ef0a.jpg","path":"31e/d49/31ed4930dabe2d9ebe8bcc3dbd44febe.jpg","date":"2008-07-23","year":2008,"month":7,"lon":-4.435172,"lat":58.475864,"tags":"2008+ecosse,ch%C3%A2teau,ecosse,tongue","S2CellId":"488c400000000000","result":5764,"accuracy":0.11720599,"title":"Varrich+Castle%2C+pr%C3%A8s+de+Tongue","description":"Varrich+Castle%2C+pr%C3%A8s+de+Tongue"}
{"id":2275288876,"url":"http://farm3.staticflickr.com/2058/2275288876_c85863b4ea.jpg","path":"e43/b65/e43b65d71668a44e5a13e9522be8f662.jpg","date":"2007-07-18","year":2007,"month":7,"lon":-4.27569,"lat":58.2467,"tags":"%D0%BD%D0%BE%D1%81,burn,camping,hiking,neus,nez,nose,scotland,sr%C3%B2n,sron,sutherland,uk,walking","S2CellId":"4889300000000000","result":5756,"accuracy":0.06288743,"title":"Allt+na+Sroine%2C+the+Nose+Burn"}
{"id":1347832980,"url":"http://farm2.staticflickr.com/1101/1347832980_4f0c70e752.jpg","path":"473/dcb/473dcb16da52a82cd7395dbbfac2e064.jpg","date":"2007-09-07","year":2007,"month":9,"lon":-4.765834,"lat":58.58096,"tags":"balnakeil,scotland","S2CellId":"486e900000000000","result":4974,"accuracy":0.08814371}
{"id":7139512997,"url":"http://farm8.staticflickr.com/7103/7139512997_3ea7481b94.jpg","path":"867/732/867732783aa57bd1842f02d4f464a5a.jpg","date":"2012-05-03","year":2012,"month":5,"lon":-4.000482,"lat":58.569862,"tags":"scotland,strathy+bay,surf,surfing","S2CellId":"0d51d00000000000","result":451,"accuracy":0.18302839,"title":"Peak+in+the+middle"}
{"id":4252619164,"url":"http://farm5.staticflickr.com/4057/4252619164_bf6a491d6c.jpg","path":"c8d/f3d/c8df3d79ef56b6def32d81ff759384.jpg","date":"2009-12-29","year":2009,"month":12,"lon":-4.002628,"lat":58.539772,"tags":"britain,christmas,cold,england,fence,freeze,freezing,frost,hedge,northern+scotland,scotland,snow,strathy,sutherland,uk,winter,xmas","S2CellId":"487a240000000000","result":5514,"accuracy":0.036441334,"title":"Strathy_Scotland_143"}
{"id":511059988,"url":"http://farm1.staticflickr.com/210/511059988_b39db43946.jpg","path":"c58/312/c583128a68c121f6bb934fcaa9d9e.jpg","date":"2007-05-15","year":2007,"month":5,"lon":-4.997663,"lat":58.62393,"tags":"cape+wrath,lighthouse,scotland,sunset,sutherland","S2CellId":"0d2e7c4000000000","result":286,"accuracy":0.08856477,"title":"Sunset","description":"%3Ca+href%3D%22http%3A%2F%2Floc.alize.us%2F%23%2Fflickr%3A511059988%22%3ESee+where+this+picture+was+taken.%3C%2Fa%3E+%3Ca+href%3D%22http%3A%2F%2Fwww.flickr.com%2Fgroups%2Fgeotagging%2Fdiscuss%2F72157594165549916%2F%22%3E%5B%3F%5D%3C%2Fa%3E"}
{"id":2701553441,"url":"http://farm4.staticflickr.com/3147/2701553441_f624f872ee.jpg","path":"3cf/0a9/3cf0a97ce25a68fe3b694fbf968f420.jpg","date":"2008-07-06","year":2008,"month":7,"lon":-4.74399,"lat":58.56993,"tags":"bland,bleak,camping,cape,durness,empty,expanse,graphic,nothing,scotland,sea,shape,window,wrath","S2CellId":"0b00000000000000","result":126,"accuracy":0.011911084,"title":"."}
{"id":5034505854,"url":"http://farm5.staticflickr.com/4112/5034505854_a90b9caaa4.jpg","path":"647/495/64749561de89bea8c49351af4e336587.jpg","date":"2010-09-28","year":2010,"month":9,"lon":-4.382514,"lat":58.50625,"tags":"cycling,end2end,lejog","S2CellId":"4b70000000000000","result":5827,"accuracy":0.07390679,"title":"Final+day","description":"Happy+it%27s+the+last+day%2C+unfortunately+it+started+raining+heavily+about+2+minutes+later."}
{"id":508405119,"url":"http://farm1.staticflickr.com/190/508405119_2f443a93d7.jpg","path":"b11/9c0/b119c0ee87208daf15f9842e8ffbc4.jpg","date":"2007-05-13","year":2007,"month":5,"lon":-4.618893,"lat":58.499794,"tags":"cattle,cow,highland+cow,moo,mooooooooooooooo,road,scotland","S2CellId":"488e400000000000","result":5768,"accuracy":0.33468124,"title":"Temporary+Road+Closure","description":"It%27s+a+bit+disconcerting+cycling+past+cattle+like+this.%0A%0A%3Ca+target%3D%22_blank%22+href%3D%22http%3A%2F%2Floc.alize.us%2F%23%2Fflickr%3A508405119%22%3ESee+where+this+picture+was+taken.%3C%2Fa%3E+%3Ca+href%3D%22http%3A%2F%2Fwww.flickr.com%2Fgroups%2Fgeotagging%2Fdiscuss%2F72157594165549916%2F%22%3E%5B%3F%5D%3C%2Fa%3E"}
{"id":7932696530,"url":"http://farm9.staticflickr.com/8437/7932696530_2353ea6f02.jpg","path":"ee6/31c/ee631ce078eeb76fd4f51cdd4cd257.jpg","date":"2012-09-02","year":2012,"month":9,"lon":-4.705956,"lat":58.556427,"tags":"2012,highlands,scotland","S2CellId":"4860400000000000","result":4839,"accuracy":0.11788973,"title":"Highland+Tour+September+2012+95","description":"on+tour+with+Philip"}
{"id":3333379279,"url":"http://farm4.staticflickr.com/3350/3333379279_db46859ebb.jpg","path":"41f/0fc/41f0fc7a7a0103f8f7a8d67263cd32a.jpg","date":"2009-03-06","year":2009,"month":3,"lon":-4.363762,"lat":58.383297,"tags":"2009,bigmomma,boat+house,game+winner,herowinner,highlands,landscapes,loch,march,melness,pre+game+winner,public,scenery,scotland,scottish,talmine,the+challenge+factory,tongue,water,winner,yourock1st","S2CellId":"48d6c00000000000","result":5813,"accuracy":0.058108672,"title":"Highland+Boat+House","description":"%3Cu%3E%3Ca+href%3D%22http%3A%2F%2Fwww.robogeo.com%2FFlickr2Map%2F%3Ftype%3Dmap%26view%3Dsatellite%22+target%3D%22_blank%22+rel%3D%22nofollow%22%3ESee+in+Google+Maps+where+this+photo+was+taken%3C%2Fa%3E%3C%2Fu%3E%0A%C2%A0"}
{"id":8183046697,"url":"http://farm9.staticflickr.com/8207/8183046697_6eae057e0e.jpg","path":"c75/f26/c75f265e2a616d750b2f95f1c5f448d.jpg","date":"2012-09-11","year":2012,"month":9,"lon":-4.735679,"lat":58.568253,"tags":"alba,bay,beach,durness,ecosse,sango,schottland,scotland,sutherland","S2CellId":"0d49c00000000000","result":409,"accuracy":0.24238773,"title":"Sango+Beach"}
{"id":7109731369,"url":"http://farm8.staticflickr.com/7243/7109731369_3c2155c2fd.jpg","path":"923/3b5/9233b553b48ec6b7c15f437716a1db9d.jpg","date":"2012-04-23","year":2012,"month":4,"lon":-4.715216,"lat":58.56888,"tags":"caithness+and+sutherland,north+coast,scotland","S2CellId":"4816f00000000000","result":4802,"accuracy":0.22660194,"title":"view+from+the+cliffs"}
{"id":2704268806,"url":"http://farm4.staticflickr.com/3193/2704268806_9e61347312.jpg","path":"78c/5a6/78c5a68af4e78923454f79389776816.jpg","date":"2008-07-07","year":2008,"month":7,"lon":-4.74399,"lat":58.56993,"tags":"2008,c,camping,durness,holiday,scotland,village,wilderness,wimms","S2CellId":"489b000000000000","result":5779,"accuracy":0.05574661,"title":".","description":"I%27m+not+really+sure+what+this+is+for%2C+it+was+clearly+modelled+on+the+house+it+was+outside+of"}
{"id":6004605509,"url":"http://farm7.staticflickr.com/6004/6004605509_022b71f238.jpg","path":"40c/593/40c593dd45c2d9674902920a67d17a4.jpg","date":"2011-07-12","year":2011,"month":7,"lon":-4.793558,"lat":58.60073,"tags":"bird,scotland","S2CellId":"4869400000000000","result":4915,"accuracy":0.12319756,"title":"Gull"}
{"id":2274512663,"url":"http://farm3.staticflickr.com/2036/2274512663_3ebc6edaef.jpg","path":"67f/f23/67ff23b85f6c9dbdc027e18f992292de.jpg","date":"2007-07-18","year":2007,"month":7,"lon":-4.193799,"lat":58.249207,"tags":"camping,hiking,scotland,sutherland,uk,walking","S2CellId":"5740000000000000","result":6329,"accuracy":0.060239855,"title":"Flat+moorland"}
{"id":6312409373,"url":"http://farm7.staticflickr.com/6116/6312409373_06b5c0e187.jpg","path":"7ac/d35/7acd355469735c21c54bc5729530f2.jpg","date":"2011-03-30","year":2011,"month":3,"lon":-4.684638,"lat":58.55276,"tags":"atlantic+ocean,durness,far+north,highlands,landscape,lanscape,scotland,sea,uk","S2CellId":"488e400000000000","result":5768,"accuracy":0.23313066,"title":"Island","description":"%3Ca+href%3D%22http%3A%2F%2Fcotch.net%2Fphotoblog.php%22+rel%3D%22nofollow%22%3EPhotoblog%3C%2Fa%3E%3A+21+May+2012%0A%0Anear+Durness"}
{"id":227102708,"url":"http://farm1.staticflickr.com/77/227102708_a2f98fa569.jpg","path":"89f/b21/89fb214d5ce0695970e2d4afe5617f.jpg","date":"2006-07-17","year":2006,"month":7,"lon":-4.778022,"lat":58.594517,"tags":"beach,by%3Asj,coast,faraidhead,northwestscotland,scotland","S2CellId":"4869400000000000","result":4915,"accuracy":0.10106348,"title":"IMGP0872"}
{"id":5623747321,"url":"http://farm6.staticflickr.com/5066/5623747321_362b7d97c5.jpg","path":"f86/5ac/f865acd699cadafc355df244a292855.jpg","date":"2011-03-30","year":2011,"month":3,"lon":-4.677257,"lat":58.548775,"tags":"beaches,durness,highlands,landscape,scotland,sea,sutherland,traigh+allt+chailgeag,uk","S2CellId":"4860400000000000","result":4839,"accuracy":0.18385871,"title":"Traigh+Allt+Chailgeag","description":"%3Ca+href%3D%22http%3A%2F%2Fcotch.net%2Fphotoblog.php%22+rel%3D%22nofollow%22%3EPhotoblog%3C%2Fa%3E%3A+05+Nov+2012%0A%0AThe+beach+of+Traigh+Allt+Chailgeag%2C+meaning+%22the+beach+of+the+burn+of+bereavement+and+death%2C%22+%3Ca+href%3D%22http%3A%2F%2Fwww.durness.org%2FBeaches.htm%22+rel%3D%22nofollow%22%3Eapparently%3C%2Fa%3E%2C+at+Durness+in+the+very+far+north+of+Scotland%2C+when+I+spent+a+couple+of+weeks+riding+around+it+in+early+2011.+It+was+generally+a+grey+and+occasionally+drizzly+day%2C+with+some+nasty+winds+to+fight%2C+but+a+few+shots+came+out+looking+good..."}
{"id":2526055508,"url":"http://farm4.staticflickr.com/3148/2526055508_54afc2ea4e.jpg","path":"402/ef1/402ef1311fe0b1b3de8958d4fe6c7b.jpg","date":"2008-05-18","year":2008,"month":5,"lon":-4.877672,"lat":58.400993,"tags":"foinaven,scotland,walk+across+scotland,wester+ross","S2CellId":"876ac00000000000","result":7860,"accuracy":0.12450602,"title":"2008-05-02-146"}
{"id":3762415181,"url":"http://farm3.staticflickr.com/2629/3762415181_6d033b9fb5.jpg","path":"779/6e8/7796e834766df751b924d633b46f6432.jpg","date":"2009-05-15","year":2009,"month":5,"lon":-4.786777,"lat":58.564537,"tags":"%C3%A9cosse,durness,lac,lake,scotland","S2CellId":"488c400000000000","result":5764,"accuracy":0.17910503,"title":"IMGP0724","description":"Lac+pr%C3%A8s+de+Durness."}
{"id":3637341156,"url":"http://farm4.staticflickr.com/3600/3637341156_ebba45e0bc.jpg","path":"595/573/595573ef13346be2588367c5c0c02d.jpg","date":"2009-06-15","year":2009,"month":6,"lon":-4.890804,"lat":58.364456,"tags":"arkle,coire,corrie,mountain,scotland,sutherland","S2CellId":"488e400000000000","result":5768,"accuracy":0.20204566,"title":"A+textbook+coire"}
{"id":4061268743,"url":"http://farm3.staticflickr.com/2766/4061268743_6d50e25e80.jpg","path":"be8/87d/be887db659cbe2153eff669f839b2e.jpg","date":"2009-08-04","year":2009,"month":8,"lon":-4.685068,"lat":58.553837,"tags":"archhist,ceannabeinne,clearances,durness,eviction,farming,heritage+trail,history,itmpa,scotland,sheep,sutherland,tom+parnell,township","S2CellId":"4771400000000000","result":3386,"accuracy":0.11044685,"title":"Ceannabeinne","description":"I+liked+the+opposing+curves+of+path+and+wall...%0A%0AIt%27s+well+worth+doing+the+heritage+trail+at+Ceannabeinne+-+very+well+done%2C+and+actually+very+poignant.%0A%0AMore+information%3A+%3Ca+target%3D%22blank%22+href%3D%22http%3A%2F%2Fwww.durness.org%2FCeannabeinne.htm%22+rel%3D%22nofollow%22%3Ehere%3C%2Fa%3E+and+%3Ca+target%3D%22blank%22+href%3D%22http%3A%2F%2Fwww.durness.org%2FVirtual+tours%2Fceannabeinne++tour%2FDefault.html%22+rel%3D%22nofollow%22%3Ehere%3C%2Fa%3E%0A%0AEven+more+interesting+is+that+this+is+where+the+famous+Durness+Riots+took+place+-+one+of+the+most+notable+examples+of+resistance+against+eviction."}
{"id":227340103,"url":"http://farm1.staticflickr.com/77/227340103_a4a9909107.jpg","path":"e8e/796/e8e79603d4c88a287540c4be7d2a1b.jpg","date":"2006-08-28","year":2006,"month":8,"lon":-4.674682,"lat":58.066254,"tags":"highlands,inverness,root,scotland,sutherland,tree","S2CellId":"486dd00000000000","result":4951,"accuracy":0.028631153,"title":"Root+spider","description":"At+Falls+of+Shin"}
{"id":5595497022,"url":"http://farm6.staticflickr.com/5188/5595497022_c45006446f.jpg","path":"ee1/91e/ee191ef14b30d789ede2a59f2fedf083.jpg","date":"2011-03-30","year":2011,"month":3,"lon":-4.424571,"lat":58.491764,"tags":"castles,far+north,highlands,kyle+of+tongue,landscape,scotland,sheep,sutherland,tongue,tongue+castle,uk","S2CellId":"488e400000000000","result":5768,"accuracy":0.32941112,"title":"Tongue+Castle"}
{"id":4244672530,"url":"http://farm5.staticflickr.com/4044/4244672530_fe779fe11b.jpg","path":"f87/396/f87396db6dfe6555dcc79c88d538e8.jpg","date":"2009-12-25","year":2009,"month":12,"lon":-4.002628,"lat":58.539772,"tags":"4wd,4x4,assistance,bonnet,cold,croft,freezing,frost,frozen,help,ice,icy,jeep,jump,scotland,snow,strathy,trouble,winter","S2CellId":"4c90000000000000","result":5830,"accuracy":0.024869839,"title":"Assisting+the+locals"}
{"id":4251940962,"url":"http://farm5.staticflickr.com/4026/4251940962_f2fac216b2.jpg","path":"1ce/770/1ce7703f65f2dc225ad0751424e3178.jpg","date":"2009-12-26","year":2009,"month":12,"lon":-4.002628,"lat":58.539772,"tags":"britain,christmas,cold,england,enjoying+the+view,freezing,frost,highlands,northern+scotland,scotland,sitting+on+a+rock,snow,strathy,sutherland,uk,view,winter","S2CellId":"487a2c0000000000","result":5515,"accuracy":0.06574402,"title":"Strathy_Scotland_72"}
{"id":227100338,"url":"http://farm1.staticflickr.com/85/227100338_357b0db02d.jpg","path":"e78/16f/e7816f51ed862ac2bce1320b939782d.jpg","date":"2006-08-28","year":2006,"month":8,"lon":-4.772872,"lat":58.590176,"tags":"by%3Asj,coast,fariadhead,northwestscotland,scotland","S2CellId":"6b15000000000000","result":6711,"accuracy":0.14217038,"title":"IMGP0865"}
{"id":3571766328,"url":"http://farm3.staticflickr.com/2444/3571766328_b28fc0564d.jpg","path":"bb9/933/bb9933f84a77eeb3a4d7067b06ea6da.jpg","date":"2009-05-07","year":2009,"month":5,"lon":-4.018421,"lat":58.600685,"tags":"strathy+point","S2CellId":"489f000000000000","result":5781,"accuracy":0.29607764,"title":"Waves","description":"Strathy+Point+Lighthouse"}
{"id":7281951094,"url":"http://farm8.staticflickr.com/7084/7281951094_bfcd5b45d5.jpg","path":"2b8/fad/2b8fad29d3bc2a1bf991df4816acd70.jpg","date":"2012-05-27","year":2012,"month":5,"lon":-4.738798,"lat":58.56984,"tags":"bird,black+headed+gull,gellscom,gerry,gull,machen,wildlife","S2CellId":"487f500000000000","result":5668,"accuracy":0.021704461,"title":"Black+Headed+Gull"}
{"id":248988803,"url":"http://farm1.staticflickr.com/90/248988803_eac218e049.jpg","path":"fc4/842/fc4842ff2ec42e97e0e0efd47232bcac.jpg","date":"2006-08-10","year":2006,"month":8,"lon":-4.221668,"lat":58.532066,"tags":"uk","S2CellId":"4894000000000000","result":5778,"accuracy":0.19393095,"title":"P1060689.JPG"}
{"id":2767767484,"url":"http://farm4.staticflickr.com/3247/2767767484_09bd19a1c7.jpg","path":"3e9/afb/3e9afb77ce10bf1f86a6a4a21d8b381c.jpg","date":"2008-07-23","year":2008,"month":7,"lon":-4.797935,"lat":58.524555,"tags":"2008+ecosse,ecosse,falaise,lac,loch,sutherland","S2CellId":"488dc00000000000","result":5767,"accuracy":0.17772257,"title":"Kyle+of+Durness","description":"Kyle+of+Durness"}
{"id":288370827,"url":"http://farm1.staticflickr.com/122/288370827_a0a2eb631a.jpg","path":"223/6dc/2236dcafb6a1c0d2a763d3928abe4a1.jpg","date":"2006-07-06","year":2006,"month":7,"lon":-4.431953,"lat":58.53023,"tags":"camping,highlands,kyle+of+tongue,scotland,talmine","S2CellId":"488b000000000000","result":5763,"accuracy":0.098481625,"title":"Talmine+campsite+2","description":"Waiting+for+our+post-mountain+feast+to+cook"}
{"id":6005080568,"url":"http://farm7.staticflickr.com/6018/6005080568_4f8aa37094.jpg","path":"301/4ab/3014ab77020b841305dd43b9ee2305a.jpg","date":"2011-07-10","year":2011,"month":7,"lon":-4.811282,"lat":58.5535,"tags":"loch,scotland,sea","S2CellId":"488c400000000000","result":5764,"accuracy":0.21187471,"title":"The+Kyle+of+Durness"}
{"id":3762471925,"url":"http://farm4.staticflickr.com/3558/3762471925_1f54749f12.jpg","path":"5b8/713/5b871392ba638c334ff675ca37cce59.jpg","date":"2009-05-15","year":2009,"month":5,"lon":-4.770684,"lat":58.585926,"tags":"%C3%A9cosse,durness,faraid+head,scotland","S2CellId":"488dc00000000000","result":5767,"accuracy":0.30878365,"title":"IMGP0745","description":"Faraid+Head."}
{"id":1283620415,"url":"http://farm2.staticflickr.com/1144/1283620415_0268707706.jpg","path":"228/e8e/228e8e8a201696ecd192fcfc9f26f988.jpg","date":"2007-08-21","year":2007,"month":8,"lon":-4.631595,"lat":58.398922,"tags":"beinn+h%C3%B2b,ben+hope","S2CellId":"4889100000000000","result":5755,"accuracy":0.13335074,"title":"Strathmore+%E2%80%A2+An+Srath+M%C3%B2r","description":"The+fog+blocked+our+path+to+Ben+Hope+%E2%80%A2+A+br%C3%A9tema+bloqueounos+no+cami%C3%B1o+cara+ao+Beinn+H%C3%B2b"}
{"id":190216388,"url":"http://farm1.staticflickr.com/64/190216388_2b5d2abd46.jpg","path":"159/0fb/1590fb6425c755935aa1aec2b8932.jpg","date":"2006-07-05","year":2006,"month":7,"lon":-4.431953,"lat":58.53023,"tags":"highlands,kyle+of+tongue,rabbit+islands,scotland,talmine","S2CellId":"488b000000000000","result":5763,"accuracy":0.14066194,"title":"Talmine+1","description":"Talmine+Bay+looking+towards+Rabbit+Islands+-+the+view+from+the+tent"}
{"id":2265390594,"url":"http://farm3.staticflickr.com/2001/2265390594_f7d0970ed2.jpg","path":"aa3/ccc/aa3ccc3d60645ab9e918ec59df9ea24.jpg","date":"2007-07-17","year":2007,"month":7,"lon":-4.328731,"lat":58.13605,"tags":"camping,hiking,scotland,sutherland,uk,walk,walking","S2CellId":"487c700000000000","result":5612,"accuracy":0.077614225,"title":"Stalker%27s+shed"}
{"id":7287230752,"url":"http://farm8.staticflickr.com/7238/7287230752_d47ff838b3.jpg","path":"409/931/409931e648357fb04433c2725b13c161.jpg","date":"2012-05-28","year":2012,"month":5,"lon":-4.429721,"lat":58.532448,"tags":"boat,gellscom,gerry,machen,monochrome,wreck","S2CellId":"4816f00000000000","result":4802,"accuracy":0.27499378,"title":"Wreck"}
