{"id":6682169633,"url":"http://farm8.staticflickr.com/7143/6682169633_c13a52bd57.jpg","path":"524/7ff/5247ff1d46d864a33650e2e7c6776ef4.jpg","date":"2011-12-28","year":2011,"month":12,"lon":-63.571556,"lat":-64.824455,"tags":"antarctica,hdr,veendam","S2CellId":"5377000000000000","result":6058,"accuracy":0.03097226,"title":"Antarctica"}
{"id":8381814726,"url":"http://farm9.staticflickr.com/8359/8381814726_561ff4944d.jpg","path":"97c/585/97c5856c6de1bcce85b25f54e5811c18.jpg","date":"2012-12-11","year":2012,"month":12,"lon":-63.132935,"lat":-64.50828,"tags":"akademik+sergey+vavilov,antarctic+peninsula+voyage,fournier+bay,leptonychotes+weddellii,one+ocean+expeditions,weddell+seal","S2CellId":"5f0d000000000000","result":6352,"accuracy":0.42699918,"title":"Weddell+seal+Fournier+Bay"}
{"id":5516724184,"url":"http://farm6.staticflickr.com/5253/5516724184_185bff73cd.jpg","path":"aad/2ec/aad2ec4e13c42adaad031cbe423a52c.jpg","date":"2011-02-22","year":2011,"month":2,"lon":-63.085213,"lat":-64.4952,"tags":"dallmanbay","S2CellId":"48cf000000000000","result":5786,"accuracy":0.118273854,"title":"An+iceberg+under+a+clear+night+sky"}
{"id":5401093061,"url":"http://farm6.staticflickr.com/5252/5401093061_c77cbc5409.jpg","path":"632/397/6323979254904d21ab6bdb1b83cffe9c.jpg","date":"2007-01-05","year":2007,"month":1,"lon":-63.47351,"lat":-64.82675,"tags":"antarctic+peninsula,gentoo+penguin,goudier+island,port+lockroy","S2CellId":"bc50000000000000","result":9959,"accuracy":0.20857996,"title":"Gentoo+penguin","description":"%5BDSC_1053%5D"}
{"id":6063614668,"url":"http://farm7.staticflickr.com/6197/6063614668_cf6a5829b1.jpg","path":"109/99c/10999c4c654b2136c77cd2adaa20fd33.jpg","date":"2011-01-24","year":2011,"month":1,"lon":-63.53531,"lat":-64.8288,"tags":"antarctica,base+a,british+base+a,cruise+ship,glacier,goudier+island,ice,mountains,palmer+archipelago,port+lockroy,quark+expeditions,sea+spirit,ship,wiencke+island","S2CellId":"bc70000000000000","result":9960,"accuracy":0.7240534,"title":"Port+Lockroy%2C+Antarctica","description":"British+Base+A+can+be+seen+in+the+centre.+Quark+Expeditions%27+Sea+Spirit+is+at+right."}
