{"id":4724160425,"url":"http://farm2.staticflickr.com/1339/4724160425_56ff9f27d0.jpg","path":"993/332/9933326f78d02a6288cd3e74f77085.jpg","date":"2010-06-19","year":2010,"month":6,"lon":-89.91211,"lat":16.365824,"tags":"digidem,digital+democracy,digital+literacy,emma+hulse,guatemala,indigenous,latin+america,photography+training,project+einstein,reyna,south+america,zona,zona+reina,zona+reyna","S2CellId":"39b0000000000000","result":2485,"accuracy":0.042509843,"title":"Mario+An%C3%ADbal","description":"Photo+by+Project+Einstein+participant"}
{"id":3570620204,"url":"http://farm4.staticflickr.com/3348/3570620204_fd4bc7bf42.jpg","path":"657/cb4/657cb4dda52ae472fd785f1fa44186d.jpg","date":"2009-04-18","year":2009,"month":4,"lon":-89.11998,"lat":16.763288,"tags":"ashley,belize,caracol,honeymoon,joseph","S2CellId":"85f4000000000000","result":7498,"accuracy":0.2881946,"title":"_JAC0365"}
{"id":5734739222,"url":"http://farm4.staticflickr.com/3004/5734739222_516c188425.jpg","path":"e72/486/e724860f3bf932d6e523830d0724ef.jpg","date":"2011-05-17","year":2011,"month":5,"lon":-89.86061,"lat":16.927092,"tags":"%C3%A1lvaro+colom,narcotr%C3%A1fico,pet%C3%A9n","S2CellId":"935a3b4000000000","result":9656,"accuracy":0.1866387,"title":"170511+Estado+de+sitio+en+Pet%C3%A9n._001005","description":"El+presidente+%C3%81lvaro+Colom+se+reuni%C3%B3+con+las+autoridades+locales+de+Pet%C3%A9n+para+coordinar+los+operativos+que+den+con+la+captura+de+los+responsables+de+la+masacre+en+la+finca+Los+Cocos%2C+municipio+de+La+Libertad%2C+Pet%C3%A9n.%0AFoto+Presidencia%2FLuis+Echeverr%C3%ADa."}
{"id":12105895093,"url":"http://farm8.staticflickr.com/7328/12105895093_6774c930b6.jpg","path":"57d/da2/57dda289d6faac77da7757a7217.jpg","date":"2004-09-08","year":2004,"month":9,"lon":-89.90348,"lat":16.933899,"tags":"2004,el+zotz,guatemala,hike,tikal","S2CellId":"4cd5000000000000","result":5934,"accuracy":0.06106024,"title":"2004_09_08_Flores3"}
{"id":4612466154,"url":"http://farm2.staticflickr.com/1030/4612466154_c49ed08a8c.jpg","path":"d76/9a5/d769a55e9ce0b9e1acd2d4a5d970bc.jpg","date":"2010-03-10","year":2010,"month":3,"lon":-89.71933,"lat":16.994822,"tags":"el+remate,guatemala,peten","S2CellId":"881f000000000000","result":8212,"accuracy":0.03837766,"title":"Lake+Peten+Itza"}
{"id":3853230827,"url":"http://farm3.staticflickr.com/2468/3853230827_c916bdb975.jpg","path":"9c3/29b/9c329bd5541fe24743129c1d66f9af1.jpg","date":"2009-08-14","year":2009,"month":8,"lon":-89.9291,"lat":16.94926,"tags":"guatemala","S2CellId":"8f5f000000000000","result":9534,"accuracy":0.093850374,"title":"Flores+from+above"}
{"id":2285986769,"url":"http://farm3.staticflickr.com/2261/2285986769_b4299bc0f2.jpg","path":"356/7ca/3567ca44c0782c997056e02c869f942.jpg","date":"2008-02-18","year":2008,"month":2,"lon":-89.89168,"lat":16.932592,"tags":"flores,guatemala,lake+peten+itza","S2CellId":"8c036ec000000000","result":9411,"accuracy":0.13687368,"title":"Lake+Peten+Itza+3"}
{"id":2484256360,"url":"http://farm4.staticflickr.com/3296/2484256360_1a18c0546d.jpg","path":"68f/4ba/68f4ba228a9ddb2aa5e84b58333d4b8a.jpg","date":"2008-05-03","year":2008,"month":5,"lon":-89.90627,"lat":16.940393,"tags":"guatemala","S2CellId":"8f2c000000000000","result":9511,"accuracy":0.06179734,"title":"flores+from+el+mirador"}
{"id":314268205,"url":"http://farm1.staticflickr.com/119/314268205_15d5dde786.jpg","path":"bc9/3c7/bc93c781f0cadcf74568c2afad7efcf.jpg","date":"2006-11-15","year":2006,"month":11,"lon":-89.90387,"lat":16.941214,"tags":"clouds,flores,guatemala,sky,sunset","S2CellId":"8b00000000000000","result":9401,"accuracy":0.065682925}
{"id":106164724,"url":"http://farm1.staticflickr.com/19/106164724_2413962d08.jpg","path":"9fb/09c/9fb09c819529438ab46b9408e20b35c.jpg","date":"2006-02-20","year":2006,"month":2,"lon":-89.90799,"lat":16.941872,"tags":"guatemala","S2CellId":"4cad000000000000","result":5833,"accuracy":0.044797495,"title":"GuatemalaFeb06+056","description":"The+Sun+sets+over+Lago+de+Peten+in+Flores%2C+Peten+Guatemala."}
{"id":2473577153,"url":"http://farm4.staticflickr.com/3091/2473577153_4e7a5ce303.jpg","path":"d1f/1cb/d1f1cbd546efba8a92bb6e55a6318.jpg","date":"2008-05-07","year":2008,"month":5,"lon":-89.82971,"lat":16.917402,"tags":"bellos+paisajes+de+guatemala,fernando,fotos,fotos+de+guatemala,guatemala+landscapes,imagenes+de+guatemala,paisajes+de+guatemala,peten,postales+de+guatemala,reyes","S2CellId":"8eaf400000000000","result":9499,"accuracy":0.012219415,"title":"Clavel"}
{"id":1164303764,"url":"http://farm2.staticflickr.com/1306/1164303764_1c9704fa89.jpg","path":"f28/63c/f2863c6c62ebc6a9f1285ceddb7ab9bf.jpg","date":"2007-05-25","year":2007,"month":5,"lon":-89.119,"lat":16.764,"tags":"belize,caracol,cayo,honeymoon,mayan,ruin,temple,vacation","S2CellId":"8f51000000000000","result":9527,"accuracy":0.64377666,"title":"20070525T122730-CanonEOS300D%28normalmode%29.JPG"}
{"id":4750098067,"url":"http://farm5.staticflickr.com/4115/4750098067_322ed8ae55.jpg","path":"bd7/f4f/bd7f4f71c5c1ed7e2d89015a7c4c958.jpg","date":"2010-06-26","year":2010,"month":6,"lon":-89.91211,"lat":16.365824,"tags":"digidem,digital+democracy,digital+literacy,emma+hulse,guatemala,indigenous,latin+america,photography+training,project+einstein,reyna,south+america,zona,zona+reina,zona+reyna","S2CellId":"8edc000000000000","result":9506,"accuracy":0.111039974,"title":"Catch%21","description":"Photo+by+Project+Einstein+Participant"}
{"id":2379093258,"url":"http://farm3.staticflickr.com/2169/2379093258_08fdddda1f.jpg","path":"3f3/f5b/3f3f5b78da3d1da171bf86cb8d7f3ddd.jpg","date":"2008-03-21","year":2008,"month":3,"lon":-89.89692,"lat":16.92816,"tags":"flores,guatemala,hostel","S2CellId":"4799c44000000000","result":3784,"accuracy":0.043638133,"title":"No+hot+water%2C+though"}
