{"id":8478215188,"url":"http://farm9.staticflickr.com/8093/8478215188_3f00963bcc.jpg","path":"c37/398/c37398ec5da25fe6a6ad0e68b92455d.jpg","date":"2013-02-11","year":2013,"month":2,"lon":-71.621414,"lat":-42.09733,"tags":"argentina,bariloche,patagonia,vacaciones","S2CellId":"6d39400000000000","result":6841,"accuracy":0.17097966,"title":"_MG_3585.jpg"}
{"id":5580125562,"url":"http://farm6.staticflickr.com/5266/5580125562_85d5b71e07.jpg","path":"698/226/698226ad4aa0165914dfec3d164ebd.jpg","date":"2011-04-01","year":2011,"month":4,"lon":-71.69506,"lat":-42.668175,"tags":"lago,naturaleza,sur","S2CellId":"aa7c000000000000","result":9951,"accuracy":0.20596136,"title":"rivadavia9"}
{"id":8159419400,"url":"http://farm8.staticflickr.com/7270/8159419400_04e0b57abf.jpg","path":"046/186/04618639b9576a35dc7ead449d0c7.jpg","date":"2012-01-05","year":2012,"month":1,"lon":-71.73969,"lat":-42.7228,"tags":"argentina,los+alerces+national+park","S2CellId":"9611000000000000","result":9864,"accuracy":0.11544691,"title":"Los+Alerces+National+Park"}
{"id":4502907271,"url":"http://farm3.staticflickr.com/2771/4502907271_50ee0bf383.jpg","path":"828/02b/82802be2d8c081102f20f6f91b3c288.jpg","date":"2010-03-15","year":2010,"month":3,"lon":-71.681366,"lat":-42.0984,"tags":"patagonia,trekking","S2CellId":"5470000000000000","result":6094,"accuracy":0.25536445,"title":"Lago+Puelo+at+dusk"}
{"id":8439298987,"url":"http://farm9.staticflickr.com/8367/8439298987_1d404b696e.jpg","path":"5ce/49b/5ce49b92b6d6898a62c6b265e8f49510.jpg","date":"2013-01-11","year":2013,"month":1,"lon":-71.42812,"lat":-42.209576,"tags":"2013,argentina,bulb,january,january+2013,lightbulb,patagonia,reflection,shadow,south+america,summer","S2CellId":"4685000000000000","result":2952,"accuracy":0.003449998,"title":"reflejo+a+Patriada"}
