{"id":78222367,"url":"http://farm1.staticflickr.com/39/78222367_1616910735.jpg","path":"c5e/70d/c5e70df66b0ed4c10a8d7d183796ad.jpg","date":"2005-08-25","year":2005,"month":8,"lon":-73.05479,"lat":-36.841988,"tags":"familia,jaime+ayala,matilda+ayala,olivia+araneda","S2CellId":"39e4000000000000","result":2487,"accuracy":0.05069107,"title":"recien_nacida","description":"la+foto+que+le+sacaron+el+la+cl%C3%ADnica+a+la+%3Ca+target%3D%22blank%22+href%3D%22http%3A%2F%2Fmatildaonline.blogspot.com%22%3EMati%3C%2Fa%3E%2C+ten%C3%ADa+un+d%C3%ADa+reci%C3%A9n+la+chica%2C+me+pasaron+ropa+para+vestirla+y+no+supe+por+donde+partir%2C+lo+termin%C3%B3+haciendo+la+enfermera+y+yo+miraba+pensando+%22ella+es%3F%22."}
{"id":103261461,"url":"http://farm1.staticflickr.com/36/103261461_ab9f6e581f.jpg","path":"c54/ead/c54ead1eb0377af29bb88f1e31a325c.jpg","date":"2006-02-18","year":2006,"month":2,"lon":-73.17014,"lat":-37.092224,"tags":"carb%C3%B3n,chile,coal,lota,ruinas,ruins","S2CellId":"0d19337000000000","result":220,"accuracy":0.051778592,"title":"Lota%3A+Enacar"}
{"id":2922970711,"url":"http://farm4.staticflickr.com/3220/2922970711_7b2ab4f1f4.jpg","path":"467/e2b/467e2bb1bc18ea452fe9b6b2c571d63.jpg","date":"2008-10-07","year":2008,"month":10,"lon":-72.652504,"lat":-38.724827,"tags":"abstracto,desenfoque,green,hoja,macro,verde","S2CellId":"3a52400000000000","result":2515,"accuracy":0.018489128,"title":"The+Winner+is","description":"Little+Miss+Sunshine+%2F%2F+Soundtrack%0A%0A%3Ci%3E%22Detras+de+las+hojas+esperamos+que+pasara+la+tormenta%22%3C%2Fi%3E"}
{"id":3142322392,"url":"http://farm4.staticflickr.com/3234/3142322392_2c5332afe7.jpg","path":"838/7ca/8387ca1ea1fe353b380f3f6475d98b2.jpg","date":"2008-12-27","year":2008,"month":12,"lon":-72.57561,"lat":-38.72932,"tags":"%5Bp.thiers%5D,100asa,a-1,canon,cerro,chile,image,nielol,philippe+thiers,photowalk,pro,temuco","S2CellId":"9669000000000000","result":9899,"accuracy":0.011394289,"title":"A+la+natalia+la+ataca+un+campo+de+fuerza"}
{"id":350783714,"url":"http://farm1.staticflickr.com/146/350783714_55ab0638b0.jpg","path":"7d8/059/7d80596bc9b07147eb7e758ed8055d9.jpg","date":"2007-01-03","year":2007,"month":1,"lon":-72.96037,"lat":-36.605057,"tags":"2007,tome,verano","S2CellId":"9669000000000000","result":9899,"accuracy":0.3112111,"title":"img059"}
{"id":838390440,"url":"http://farm2.staticflickr.com/1364/838390440_6247abeca1.jpg","path":"153/5de/1535dedae3a78dddd521bc2bf1a10.jpg","date":"2007-07-14","year":2007,"month":7,"lon":-73.11418,"lat":-36.71102,"tags":"2007,talcahuano","S2CellId":"3510000000000000","result":2252,"accuracy":0.09920722,"title":"Puerto+de+Talcahuano"}
{"id":3760226808,"url":"http://farm3.staticflickr.com/2656/3760226808_13f29e8cc2.jpg","path":"ee4/09e/ee409e54f05bbd2d371abc7d4413cd0.jpg","date":"2009-03-04","year":2009,"month":3,"lon":-72.46033,"lat":-36.65203,"tags":"aldea,gallinas,nueva,nueva+aldea,vacaciones","S2CellId":"94ce5b4000000000","result":9726,"accuracy":0.0068582976,"title":"Nueva+Aldea+044"}
{"id":126642707,"url":"http://farm1.staticflickr.com/47/126642707_a62ddbc2f4.jpg","path":"b0f/929/b0f929536f82a07619bd72f99c8e834f.jpg","date":"2006-02-26","year":2006,"month":2,"lon":-72.10241,"lat":-36.605194,"tags":"chile,chill%C3%A1n,guagua,matilda+ayala","S2CellId":"8814b00000000000","result":8185,"accuracy":0.24917006,"title":"Mati+dirige+la+orquesta","description":"bueno%2C+es+lo+que+se+ocurri%C3%B3+al+verla+de+esa+forma%2C+entiendan+es+tarde+y+estoy+cansado%2C+si%2C+si.+tambi%C3%A9n+puede+ser+volando+en+un+aviocito%2C+pero+bueno+es+lo+que+hay%2C+a+todo+esto+est%C3%A1+en+la+puerta+de+la+pieza+de+sus+abuelos%2C+adem%C3%A1s+en+su+%3Ca+target%3D%22_blank%22+href%3D%22http%3A%2F%2Fmatildaonline.blogspot.com%22%3Eblog%3C%2Fa%3E+hay+un+peque%C3%B1o+video+de+los+saltos+dados."}
{"id":5898896010,"url":"http://farm7.staticflickr.com/6048/5898896010_fb7f774bae.jpg","path":"eb4/9ec/eb49ec46b01b62e845e23f583f46fbb.jpg","date":"2011-07-03","year":2011,"month":7,"lon":-72.10467,"lat":-36.603832,"tags":"animal,animales,animals,dog,perro","S2CellId":"6d318a3000000000","result":6816,"accuracy":0.11727772,"title":"DSC_1618.jpg"}
{"id":8687566716,"url":"http://farm9.staticflickr.com/8538/8687566716_14e2ffb66e.jpg","path":"23f/0e4/23f0e43ae469f5cf53fb63ec85521588.jpg","date":"2013-04-27","year":2013,"month":4,"lon":-73.11324,"lat":-36.707943,"tags":"360,600d,alto,backflip,bio,biobio,bull,canon,chile,enduro,extreme,extremo,fighter,fighters,flip,flying,frontflip,gustavo,hand,high,jam,jams,luis,man,moto,motocicleta,motocross,photographies,red,redbull,region,roll,rolling,rollying,salto,super,superman,t3i,talcahuano,volando,volar,without,x,xtreme,zamudio","S2CellId":"4782700000000000","result":3543,"accuracy":0.14655943,"title":"Superman+X-Fighter+Jams+RedBull+2013"}
{"id":4403713678,"url":"http://farm5.staticflickr.com/4044/4403713678_82353e9ef2.jpg","path":"d07/e03/d07e03c9517a9ab8699de1dd8dbcb6c.jpg","date":"2010-03-01","year":2010,"month":3,"lon":-73.11951,"lat":-36.763092,"tags":"chile,concepci%C3%B3n,disasters,earthquake,earthquake+in+chile,harbour,port,red+cross,talca,tsunami","S2CellId":"5490410000000000","result":6198,"accuracy":0.11716192,"title":"Earthquake+and+tsunami+in+Chile","description":"Aerial+assessment+on+Talca+and+Concepcion+%2802+March+2010%29+after+a+8.8+earthquake+struck+the+region+on+28+February+2010.%0A%0AFor+more+information%2C+visit+%3Ca+href%3D%22http%3A%2F%2Fwww.ifrc.org%22+rel%3D%22nofollow%22%3Ewww.ifrc.org%3C%2Fa%3E%0A%0APhoto%3A+IFRC+%28p-CHL0023%29"}
{"id":403636940,"url":"http://farm1.staticflickr.com/141/403636940_34f301ef77.jpg","path":"193/584/193584424634b49c31e9dc1b197b353.jpg","date":"2007-02-24","year":2007,"month":2,"lon":-73.59535,"lat":-37.160454,"tags":"arauco,rumena","S2CellId":"aa6d000000000000","result":9948,"accuracy":0.115727566,"title":"IMG_0947","description":"De+paseo+junto+a+los+De+Lucca+en+Rumena%2C+atr%C3%A1s+de+Punta+Lavapi%C3%A9%2C+en+Arauco.+Un+rico+asado+y+espectaculares+tomas"}
{"id":358899223,"url":"http://farm1.staticflickr.com/130/358899223_ed6a8fec04.jpg","path":"699/51e/69951e8d4bd7989c37cff6c55df41ce.jpg","date":"2007-01-14","year":2007,"month":1,"lon":-72.43252,"lat":-37.177277,"tags":"bucalemu,pato,patos","S2CellId":"88d0a631cabb5071","result":8563,"accuracy":0.04979595,"title":"Bucalemu+zoo+152"}
{"id":5705287725,"url":"http://farm4.staticflickr.com/3256/5705287725_a39e5e46d5.jpg","path":"d03/f86/d03f86ee642c2ca812656c64219773.jpg","date":"2011-05-09","year":2011,"month":5,"lon":-73.0523,"lat":-36.82605,"tags":"concepci%C3%B3n,hidroays%C3%A9n,marcha,patagonia+sin+represas,protesta","S2CellId":"8085808900000000","result":6943,"accuracy":0.080381,"title":"Marcha+en+protesta+a+la+aprobaci%C3%B3n+de+Hidroays%C3%A9n","description":"M%C3%A1s+de+1500+personas+marcharon+desde+la+Plaza+Per%C3%BA+a+la+Plaza+Independencia+de+Concepci%C3%B3n%2C+en+protesta+a+la+aprobaci%C3%B3n+de+las+megarepresas+del+proyecto+Hidroays%C3%A9n.%0A%0ALunes+9+de+mayo%2C+2010.+Concepci%C3%B3n%2C+regi%C3%B3n+del+Biob%C3%ADo%2C+Chile."}
{"id":313115952,"url":"http://farm1.staticflickr.com/119/313115952_669774dba6.jpg","path":"e9d/cb9/e9dcb999503c64dd4ba97e76752d4391.jpg","date":"2006-10-01","year":2006,"month":10,"lon":-72.96673,"lat":-36.61029,"tags":"chile,muelle,playa,tom%C3%A9,tome","S2CellId":"9630000000000000","result":9869,"accuracy":0.11457718,"title":"Cementerio+n%C2%AA+1+de+Tom%C3%A9"}
{"id":4563527156,"url":"http://farm5.staticflickr.com/4034/4563527156_2b45f7c8ef.jpg","path":"a97/dee/a97dee608d069c9da2a4885f1df160.jpg","date":"2010-03-08","year":2010,"month":3,"lon":-73.03316,"lat":-36.91456,"tags":"bandera,bodega,chile,destruccion,grua,orquilla,racks,tavex,terremoto","S2CellId":"80c2be4000000000","result":7172,"accuracy":0.01788785,"title":"Fotograf%C3%ADa+5552"}
{"id":5275351579,"url":"http://farm6.staticflickr.com/5123/5275351579_4550897e0b.jpg","path":"937/85d/93785d8effc2a61b34131861ffbcb8.jpg","date":"2010-12-19","year":2010,"month":12,"lon":-73.05644,"lat":-36.829887,"tags":"chile,concepci%C3%B3n","S2CellId":"842bc00000000000","result":7429,"accuracy":0.01519589,"title":"En+el+cielo.","description":"19-12-2010"}
{"id":1185997634,"url":"http://farm2.staticflickr.com/1181/1185997634_5f461a96ae.jpg","path":"704/7c3/7047c3a963eaa18fd1a6dda55285a220.jpg","date":"2007-08-05","year":2007,"month":8,"lon":-73.61389,"lat":-37.354877,"tags":"chile,tir%C3%BAa","S2CellId":"9630000000000000","result":9869,"accuracy":0.59881765,"title":"Tir%C3%BAa"}
{"id":509401669,"url":"http://farm1.staticflickr.com/212/509401669_a6d7ef5d21.jpg","path":"ecf/0d4/ecf0d488ed27a2edabf6d514ddfbea.jpg","date":"2007-05-21","year":2007,"month":5,"lon":-72.63748,"lat":-38.9865,"tags":"2007,pitrufquen","S2CellId":"80dd317000000000","result":7376,"accuracy":0.013303077,"title":"Salmones+ahumados"}
{"id":2586611388,"url":"http://farm4.staticflickr.com/3170/2586611388_6a451e9934.jpg","path":"93d/8df/93d8df9b09b426597ffaa51f8ab3fa.jpg","date":"2008-02-29","year":2008,"month":2,"lon":-73.905716,"lat":-38.3827,"tags":"isla+mocha,mocha","S2CellId":"6b2c000000000000","result":6729,"accuracy":0.13789135,"title":"Isla+Mocha+2008","description":"La+Mam%C3%A1+de+%3Ca+href%3D%22http%3A%2F%2Fwww.flickr.com%2Fismasan%22%3EIsmasan%3C%2Fa%3E."}
{"id":5351202046,"url":"http://farm6.staticflickr.com/5287/5351202046_0d586dec81.jpg","path":"1fb/651/1fb651aa527aca8a09db97dde71b3e.jpg","date":"2011-01-13","year":2011,"month":1,"lon":-73.05644,"lat":-36.829887,"tags":"chile,concepci%C3%B3n","S2CellId":"89b7b7e400000000","result":8878,"accuracy":0.05151697,"title":"Nano+Stern","description":"2010+-+Concepci%C3%B3n"}
{"id":72990728,"url":"http://farm1.staticflickr.com/35/72990728_b4c266674e.jpg","path":"df1/de8/df1de82d3411ad28655c7164d9cffdfa.jpg","date":"2005-12-10","year":2005,"month":12,"lon":-73.14388,"lat":-37.061134,"tags":"brillo,concepcion,contraluz,curvas,girl,kathy,mar,mst,mujer","S2CellId":"808587c000000000","result":6980,"accuracy":0.08637479,"title":"Deslizandose","description":"S%C3%A9+que+tiene+un+peque%C3%B1o+detalle+%C2%AC%C2%AC+a+veces+mi+horizonte+no+es+perfecto+jaja+pero+me+encanto+como+se+ve+la+luz+sobre+mi+amiga"}
{"id":313454921,"url":"http://farm1.staticflickr.com/114/313454921_b525d99f9e.jpg","path":"965/804/965804d476562db349d2b3cafcbf01b.jpg","date":"2006-12-03","year":2006,"month":12,"lon":-73.25546,"lat":-37.950695,"tags":"lago+nanalhue,lanalhue,playa,playa+blanca","S2CellId":"537f000000000000","result":6065,"accuracy":0.033765156,"title":"Playa+Blanca%2C+Lago+Lanalhue"}
{"id":2469078919,"url":"http://farm3.staticflickr.com/2145/2469078919_7328c50464.jpg","path":"ab6/c7e/ab6c7ee66f6a9aa69fb5929c9edb2.jpg","date":"2008-04-30","year":2008,"month":4,"lon":-73.13187,"lat":-36.690445,"tags":"aniversariomatrimonio,tumbes","S2CellId":"4816900000000000","result":4799,"accuracy":0.17093372,"title":"Tumbes"}
{"id":3989329682,"url":"http://farm3.staticflickr.com/2487/3989329682_d7a8b7ec15.jpg","path":"ae8/bd3/ae8bd39c168b108a30516cd07c74a580.jpg","date":"2009-10-06","year":2009,"month":10,"lon":-73.01187,"lat":-36.935074,"tags":"gato,king,perro,viejo","S2CellId":"4769400000000000","result":3319,"accuracy":0.19134396,"title":"El+King","description":"Siempre+recordare+a+este+fiel+perro"}
{"id":5759504976,"url":"http://farm6.staticflickr.com/5304/5759504976_08517696b1.jpg","path":"abc/beb/abcbeba5a44ed55bc4eb01af318ce2b.jpg","date":"2011-04-24","year":2011,"month":4,"lon":-72.97774,"lat":-36.710094,"tags":"chile,lirquen","S2CellId":"47b1859000000000","result":3983,"accuracy":0.032476448,"title":"Lirquen+38"}
{"id":4866714713,"url":"http://farm5.staticflickr.com/4136/4866714713_5e4056c11f.jpg","path":"2cb/309/2cb30965f778f18ffce153328845cf.jpg","date":"2010-08-01","year":2010,"month":8,"lon":-73.15092,"lat":-36.88143,"tags":"de,la,paz,pedro,san","S2CellId":"8e85000000000000","result":9491,"accuracy":0.017062465,"title":"San_Pedro_14"}
{"id":2678982068,"url":"http://farm4.staticflickr.com/3180/2678982068_45e36b848f.jpg","path":"b61/5be/b615be9c3dd91795d2aeed8547aab9c1.jpg","date":"2008-07-16","year":2008,"month":7,"lon":-72.1043,"lat":-36.59906,"tags":"art,arte,basico,blancoynegro,chile,chilena,chilenidad,chileno,chillan,cisterna,color,colores,creacion,design,digital,dise%C3%B1ografico,fotografia,graphic,historico,icono,icons,ideas,inprogress,jorge,jorgecisterna,latino,latinoamerica,latinoamericano,masterpiecesoflight%26dark,mercadodechillan,personajes+populares,tradicion,tradiciongrafica,ubiobio","S2CellId":"14cab9f000000000","result":1319,"accuracy":0.006500397,"title":"Mercado+de+Chill%C3%A1n","description":"Mercado+de+Chillan%0AUn+viejo+trabajo+del+taller+de+fotografia+en+donde+tenia+que+retratar+personajes+de+la+ciudad+de+Chillan%2C+Chile%2C+lo+mejor+de+todo+en+la+vida+era+el+revelado+analogico+%21%21%0A%0ABags+seller%0AAn+old+work+of+photography+workshop+where+they+had+to+portray+characters+in+the+city+of+Chillan%2C+Chile%2C+the+best+thing+in+life+was+revealed+analog%21"}
{"id":5408017334,"url":"http://farm6.staticflickr.com/5014/5408017334_3c18b5bb58.jpg","path":"7ac/53f/7ac53f251446e625ca44a7408efe554c.jpg","date":"2011-01-22","year":2011,"month":1,"lon":-73.06217,"lat":-36.7908,"tags":"celebraci%C3%B3n,matrimonio,reception,wedding","S2CellId":"133ba40000000000","result":1150,"accuracy":0.023166789,"title":"Celebraci%C3%B3n+matrimonio","description":"Celebraci%C3%B3n+matrimonio%0A22+de+enero+de+2010%0AConcepci%C3%B3n%2C+regi%C3%B3n+del+Biob%C3%ADo"}
{"id":381761858,"url":"http://farm1.staticflickr.com/148/381761858_725e9c82a2.jpg","path":"ded/94f/ded94f99e2d9beeba265e8c1307ec8.jpg","date":"2007-01-30","year":2007,"month":1,"lon":-73.144226,"lat":-37.06264,"tags":"2007,biobio,blanca,del,playa,region,vacaciones,verano","S2CellId":"54f0000000000000","result":6316,"accuracy":0.058415033,"title":"lota+de+fondo"}
{"id":6243766465,"url":"http://farm7.staticflickr.com/6212/6243766465_5a871861a4.jpg","path":"1df/419/1df419a32bffabddc8951535105f4d.jpg","date":"2011-10-13","year":2011,"month":10,"lon":-73.06114,"lat":-36.78248,"tags":"aeropuerto+carriel+sur,aquellas+magn%C3%ADficas+m%C3%A1quinas+voladoras,chile,firestar,heliworks,lockheed+p-2+neptune,lockheed+sp-2h+neptune,regi%C3%B3n+del+b%C3%ADo+b%C3%ADo,talcahuano","S2CellId":"414ad00000000000","result":2731,"accuracy":0.048037034,"title":"Lockheed+P-2+Neptune","description":"%3Cb%3EEste+modelo+Neptune+SP-2H+estacionado+en+Carriel+Sur%2C+pertenece+a+la+empresa+Heliworks%2C+%22+...+Es+un+avi%C3%B3n+bimotor+de+ala+media+potenciado+con+dos+motores+Curtiss-Wright+3350+de+3700+HP+cada+uno+utilizando+helices+Hamilton+Standard+de+paso+variable.+Con+una+velocidad+de+crucero+de+210+nudos+%28388+km%2Fhora%29+con+m%C3%A1ximo+peso+lo+convierten+%28cuando+estaba+en+servicio%29++en+la+aeronave+m%C3%A1s+r%C3%A1pida+usada+en+el+combate+de+los+incendios+forestales+en+Chile...%22%0A%3Ca+href%3D%22http%3A%2F%2Fwww.heliworks.cl%2F%22+rel%3D%22nofollow%22%3Ewww.heliworks.cl%2F%3C%2Fa%3E%3C%2Fb%3E"}
{"id":5649603423,"url":"http://farm6.staticflickr.com/5262/5649603423_b1ab8e944d.jpg","path":"103/491/103491e9fb717c55f758b94e12c60a5.jpg","date":"2011-04-16","year":2011,"month":4,"lon":-73.07268,"lat":-36.776043,"tags":"alberto+cort%C3%A9z,alberto+cortez,concierto,marina+del+sol","S2CellId":"54907c0000000000","result":6223,"accuracy":0.06631436,"title":"Alberto+Cortez+22"}
{"id":10805910764,"url":"http://farm8.staticflickr.com/7449/10805910764_97703f0cb5.jpg","path":"f01/3cb/f013cb87702d637eebb9965362059bf.jpg","date":"2013-11-11","year":2013,"month":11,"lon":-73.142166,"lat":-37.05631,"tags":"coronel,nape,pesca,playa+blanca","S2CellId":"80dce40000000000","result":7362,"accuracy":0.11972802,"title":"Extracci%C3%B3n+de+nape","description":"En+Playa+Blanca+pescadores+artesanales+extraen+nape%2C+crust%C3%A1ceo+usado+como+carnada+para+capturar+congrio."}
{"id":7977209663,"url":"http://farm9.staticflickr.com/8178/7977209663_6b2bedddaa.jpg","path":"1af/660/1af6605575b4e65348a8c639e25fb4.jpg","date":"2012-09-01","year":2012,"month":9,"lon":-72.218544,"lat":-36.64046,"tags":"ferrocarril,ffcc,nebuco,puente+ferroviario,puente+nebuco,red+sur,tren,via+ferrea","S2CellId":"8819b40000000000","result":8206,"accuracy":0.0167785,"title":"PK.+408%2C+Red+Sur"}
{"id":4257594925,"url":"http://farm5.staticflickr.com/4064/4257594925_f97a3fd488.jpg","path":"8dd/9ed/8dd9ed3790b62dbf5b35691ce9a0.jpg","date":"2010-01-01","year":2010,"month":1,"lon":-73.03745,"lat":-36.831203,"tags":"penumbras,twilight","S2CellId":"12a4a2f6d0000000","result":734,"accuracy":0.03266792,"title":"Penumbra"}
{"id":408501399,"url":"http://farm1.staticflickr.com/182/408501399_d147c6fd4f.jpg","path":"94d/6e6/94d6e63297f0e4ae2778dc28aeee220.jpg","date":"2007-03-03","year":2007,"month":3,"lon":-72.22618,"lat":-37.44638,"tags":"argentina,bio+bio,chile,sudam%C3%A9rica,tresalsur","S2CellId":"6d6f000000000000","result":6854,"accuracy":0.028472396,"title":"Si+sigues+el+r%C3%ADo+llegas...","description":"al+mar.%0AEl+Bio+bio+no+es+un+parque+tem%C3%A1tico+de+vaqueros.%0AEs+un+parque+natural+protegido+en+Chile.+Est%C3%A1+bien+chido.+Si+no+me+crees...+ve+la+foto.%0A%0A%3Ca+href%3D%22http%3A%2F%2Ftresalsur.blogspot.com%22%3Etresalsur.blogspot.com%3C%2Fa%3E++++%3C---Nuestro+diario+de+viaje"}
{"id":4744201723,"url":"http://farm5.staticflickr.com/4076/4744201723_c87e017cb8.jpg","path":"f5c/f78/f5cf78179509f8a526c80c433d8dd5e.jpg","date":"2010-05-26","year":2010,"month":5,"lon":-73.05485,"lat":-36.82602,"tags":"chile,concepci%C3%B3n,coolpix,l20,nikon,taxi","S2CellId":"89e37a0c00000000","result":9341,"accuracy":0.18758322,"title":"%C2%A1Ey%2C+taxi%21","description":"De+ahora+en+adelante%2C+Nikon+Coolpix+L-20+ser%C3%A1+mi+c%C3%A1mara.+De+hecho%2C+ha+pasado+mucho+desde+que+la+tengo%2C+pero+estoy+aprendiendo+a+usarla+y+claro%2C+estas+fotos+son+los+primeros+intentos+por+dominarla.+La+foto+la+utilic%C3%A9+en+un+trabajo+de+Producci%C3%B3n+de+textos+interpretativos."}
{"id":5579926762,"url":"http://farm6.staticflickr.com/5140/5579926762_f29c5115fa.jpg","path":"84f/b08/84fb08d885cab674ac53b75f546d8.jpg","date":"2011-03-27","year":2011,"month":3,"lon":-72.55852,"lat":-37.099483,"tags":"boda+pablo","S2CellId":"4707000000000000","result":3128,"accuracy":0.12202444,"title":"77","description":"Por%3A+Marco+Far%C3%ADas"}
{"id":347669425,"url":"http://farm1.staticflickr.com/143/347669425_fb747fcbf8.jpg","path":"126/0ec/1260ec125b107feb71db443342c19efe.jpg","date":"2006-07-20","year":2006,"month":7,"lon":-72.43252,"lat":-37.177277,"tags":"bucalemu,casa,invierno,musgo,sur","S2CellId":"46ed000000000000","result":3093,"accuracy":0.011293412,"title":"Bucalemo+invierno+2006+147"}
{"id":2962756681,"url":"http://farm4.staticflickr.com/3145/2962756681_50113564bd.jpg","path":"963/ca4/963ca46b8a74e3f2c8e4f67b97fff42.jpg","date":"2008-10-21","year":2008,"month":10,"lon":-73.03608,"lat":-36.834362,"tags":"concepcion,ubuntu-cl","S2CellId":"463a400000000000","result":2769,"accuracy":0.0068969047,"title":"21102008732"}
{"id":5914293100,"url":"http://farm7.staticflickr.com/6042/5914293100_047fa28f78.jpg","path":"76d/fa6/76dfa6487d2b69e5ff244130741ede90.jpg","date":"2011-06-25","year":2011,"month":6,"lon":-72.72526,"lat":-37.13387,"tags":"chile,concepci%C3%B3n,museo+de+rere,regi%C3%B3n+del+b%C3%ADo-b%C3%ADo,rere,rere+pueblo+m%C3%A1gico,yumbel","S2CellId":"87c0400000000000","result":7965,"accuracy":0.009259782,"title":"Museo+de+Rere","description":"%22...Dar+a+conocer%2C+valorar+y+respetar+lo+que+se+posee+como+patrimonio+cultural+hist%C3%B3rico+por+ser+Rere+uno+de+los+puntos+fundamentales+en+el+proceso+de+la+conquista%2C+colonizaci%C3%B3n+y+evangelizaci%C3%B3n+de+la+Regi%C3%B3n+del+B%C3%ADo-B%C3%ADo+durante+los+siglos+XVII+y+XVIII.+Este+Museo+fue+creado+el+27+de+Octubre+del+2003%2C+como+iniciativa+de+la+Municipalidad+de+Yumbel+Tiene+8+salas+de+exposici%C3%B3n+permanente+que+contienen+maquinarias+y+herramientas+agr%C3%ADcolas%2C+Religiosa%2C+educaci%C3%B3n%2C+Colecci%C3%B3n+de+billetes+y+monedas%2C+maquinaria+agr%C3%ADcola.+utensilios+dom%C3%A9sticos+antiguos%2C+m%C3%A1quinas+de+oficina%2C+objetos+de+imaginer%C3%ADa+religiosa%2C+colecciones+de+joyas%2C+utensilios+y+armas+de+la+cultura+mapuche...%22%0A%3Ca+href%3D%22http%3A%2F%2Fwww.sernatur.cl%2Fimages%2Flang1%2Fnacional%2Fmuseos-biobio%2Fmuseos.html%22+rel%3D%22nofollow%22%3Ewww.sernatur.cl%2Fimages%2Flang1%2Fnacional%2Fmuseos-biobio%2Fmuseo...%3C%2Fa%3E"}
{"id":247531143,"url":"http://farm1.staticflickr.com/93/247531143_2cd78bb91c.jpg","path":"422/ac7/422ac711e3cf04c152443d963edd435.jpg","date":"2006-09-17","year":2006,"month":9,"lon":-72.16267,"lat":-38.6705,"tags":"araucania,chile,llaima,nieve,novena+region,temuco,volcan,volcan+llaima","S2CellId":"9615000000000000","result":9866,"accuracy":0.07824933,"title":"volcan+llaima","description":"Camino+hacia+el+volcan+llaima...."}
{"id":350794715,"url":"http://farm1.staticflickr.com/146/350794715_c2749283d9.jpg","path":"3ab/e5f/3abe5f612130c45e11178bebecca5113.jpg","date":"2007-01-03","year":2007,"month":1,"lon":-72.96037,"lat":-36.605057,"tags":"2007,tome,verano","S2CellId":"2190000000000000","result":1487,"accuracy":0.045677874,"title":"img099"}
{"id":5587642309,"url":"http://farm6.staticflickr.com/5172/5587642309_d412c2d958.jpg","path":"495/4e6/4954e6cf673a65e6eebbf203e1a76d4.jpg","date":"2011-01-18","year":2011,"month":1,"lon":-72.542725,"lat":-36.281853,"tags":"2011,bellas,bienvenidos,chicas,fronteras,girls,guapas,j%C3%B3venes,ni%C3%B1os,nsf,patio,quirihue,sin,uc,voluntariado,welcome","S2CellId":"808f770000000000","result":7015,"accuracy":0.21248749,"title":"Bienvenidos%21","description":"Las+locas+de+patio.%0A%28J%C3%A1%2C+ellas+guiaron+la+estaci%C3%B3n+%22PatioPaTo2%22+por+la+que+pasaban+los+ni%C3%B1os%2C+de+ah%C3%AD+el+apelativo...+y+eran+las+m%C3%A1s+tiernas%21%29"}
{"id":837453141,"url":"http://farm2.staticflickr.com/1255/837453141_19a9bde9ec.jpg","path":"b56/598/b56598b334454d64112786edc084986a.jpg","date":"2007-07-14","year":2007,"month":7,"lon":-73.11418,"lat":-36.71102,"tags":"2007,talcahuano","S2CellId":"5493000000000000","result":6233,"accuracy":0.14430872,"title":"Puerto+de+Talcahuano"}
{"id":2769624863,"url":"http://farm4.staticflickr.com/3285/2769624863_22bb80b9d3.jpg","path":"bca/6e1/bca6e12694b9b9aebbd25cd1b8695a8.jpg","date":"2008-03-23","year":2008,"month":3,"lon":-72.579285,"lat":-38.733665,"tags":"asado,bomberos,celebracion,fiesta,temuco","S2CellId":"54906ab300000000","result":6212,"accuracy":0.0047922847,"title":"Another+Party","description":"Rescue+Team"}
{"id":358869873,"url":"http://farm1.staticflickr.com/145/358869873_e95dd1f4b1.jpg","path":"cdd/918/cdd9182669cc7e37385c44948fabbf7.jpg","date":"2007-01-13","year":2007,"month":1,"lon":-72.43252,"lat":-37.177277,"tags":"bucalemu,cachorros,chancho,crias,doris","S2CellId":"3461000000000000","result":2114,"accuracy":0.014359696,"title":"Bucalemu+zoo+059"}
{"id":4165416224,"url":"http://farm3.staticflickr.com/2550/4165416224_a999114226.jpg","path":"fa4/dbb/fa4dbb5bb7a9a16c066ace48f0dcac.jpg","date":"2009-12-05","year":2009,"month":12,"lon":-72.994194,"lat":-37.006664,"tags":"biob%C3%ADo,chile,ohtar%C3%ADma,patagual,santa+juana","S2CellId":"88d0a631cabb5071","result":8563,"accuracy":0.007172312,"title":"nzglHD_513"}
{"id":3419919653,"url":"http://farm4.staticflickr.com/3655/3419919653_18532b63b5.jpg","path":"bf4/4cf/bf44cf8dd33a06d33464988b3e25.jpg","date":"2008-01-01","year":2008,"month":1,"lon":-72.42719,"lat":-38.475163,"tags":"llaima,volcan","S2CellId":"9615000000000000","result":9866,"accuracy":0.14937961,"title":"Erupcion+Volcan+Llaima+Enero+2008"}
{"id":4512755577,"url":"http://farm3.staticflickr.com/2261/4512755577_7b61730bb8.jpg","path":"a97/516/a975169b736fe225d69757e6d6ee0a8.jpg","date":"2010-04-09","year":2010,"month":4,"lon":-73.05599,"lat":-36.83553,"tags":"borde+r%C3%ADo,chile,escombro,terremoto","S2CellId":"14a3000000000000","result":1264,"accuracy":0.033701044,"title":"Escombro02"}
{"id":6081015160,"url":"http://farm7.staticflickr.com/6203/6081015160_954ee7e899.jpg","path":"639/3e9/6393e9431590ccd049585fe24ce759.jpg","date":"2011-08-23","year":2011,"month":8,"lon":-73.05644,"lat":-36.829887,"tags":"chile,concepci%C3%B3n","S2CellId":"13258b0000000000","result":991,"accuracy":0.022896351,"title":"Teatro+L%C3%ADos+de+Faldas","description":"M."}
{"id":8380942411,"url":"http://farm9.staticflickr.com/8471/8380942411_3394777cf6.jpg","path":"271/978/27197842f9a2fe62fd707677c973c1dc.jpg","date":"2013-01-09","year":2013,"month":1,"lon":-72.547874,"lat":-38.702618,"tags":"araucan%C3%ADa,campus+norte+uct,fashion,fernanda,model,modelo,mujer,rrojasfx,temuco,woman","S2CellId":"8869700000000000","result":8478,"accuracy":0.051152356,"title":"Fernanda+04+-+Laguna+Campus+Norte+UCT","description":"Modelo%3A+Fernanda.%0AAsistencia%3A+Bel%C3%A9n+Jofr%C3%A9."}
{"id":4425816041,"url":"http://farm3.staticflickr.com/2781/4425816041_880f4112eb.jpg","path":"bbe/6fd/bbe6fd668df769e1cef42fb9eebe2ef.jpg","date":"2010-02-28","year":2010,"month":2,"lon":-73.05376,"lat":-36.826668,"tags":"aplastado,auto,biob%C3%ADo,car,concepci%C3%B3n,earthquake,terremoto","S2CellId":"47a8514000000000","result":3920,"accuracy":0.010036387,"title":"Auto+aplastado","description":"Automotora+del+Sur%2C+Avenida+Los+Carrera+al+llegar+a+Avenida+Paicav%C3%AD.%0A%0AEfectos+del+terremoto+magnitud+8.8+Richter%2C+del+27-02-10%2C+en+la+ciudad+de+Concepci%C3%B3n%2C+regi%C3%B3n+del+Biob%C3%ADo%2C+Chile."}
{"id":6209506195,"url":"http://farm7.staticflickr.com/6231/6209506195_03ce4fdb80.jpg","path":"793/ad1/793ad11b84c75a22c784c142b461dbd9.jpg","date":"2011-10-01","year":2011,"month":10,"lon":-72.577225,"lat":-38.735405,"tags":"photowalk","S2CellId":"0d2464e400000000","result":260,"accuracy":0.051791955,"title":"Photowalk+Temuco+2011","description":"Balc%C3%B3n+del+antiguo+y+tradicional+Edificio+Marsano+%281926%29%2C+en+el+Barrio+Estaci%C3%B3n+de+Temuco"}
{"id":4126291323,"url":"http://farm3.staticflickr.com/2677/4126291323_d4613af9d2.jpg","path":"417/bfb/417bfbe653205b7541b7c75d85e03b6d.jpg","date":"2009-11-14","year":2009,"month":11,"lon":-73.00329,"lat":-36.837315,"tags":"animales,animals,chile,concepci%C3%B3n,nongu%C3%A9n,owl,regi%C3%B3n+de+b%C3%ADo+b%C3%ADo,tuc%C3%BAquere,zoo,zool%C3%B3gico","S2CellId":"4874440000000000","result":5111,"accuracy":0.004178525,"title":"Lechuza"}
{"id":3068488299,"url":"http://farm4.staticflickr.com/3250/3068488299_d75b285167.jpg","path":"5a6/318/5a6318ba9c40dde99e3999f167711dca.jpg","date":"2008-11-29","year":2008,"month":11,"lon":-73.16929,"lat":-36.963333,"tags":"coronel,fuji,fujifilm+s6000fd,s6000fd,s6500fd,teleton,tuniton,tunning","S2CellId":"14de400000000000","result":1335,"accuracy":0.017469319,"title":"Tunit%C3%B3n+08"}
{"id":5968191975,"url":"http://farm7.staticflickr.com/6013/5968191975_ea0e686d51.jpg","path":"457/de8/457de8ba1923f74f54a79b6143b475.jpg","date":"2011-07-23","year":2011,"month":7,"lon":-73.04432,"lat":-36.824585,"tags":"chilena,gollum,ohtar%C3%ADma,sociedad,stc,tolkien","S2CellId":"94ce59f000000000","result":9723,"accuracy":0.010480656,"title":"Gollum","description":"IX+Jornadas+de+Literatura+Fant%C3%A1stica%0A%22El+terror+en+la+Literatura%22%0AOrganizada+por+Ohtar%C3%ADma%2C+la+Sociedad+Tolkien+Chilena+en+Concepci%C3%B3n%0AEscuela+de+Dise%C3%B1o+UDD%0AConcepci%C3%B3n%2C+Regi%C3%B3n+del+Biob%C3%ADo%2C+Chile"}
{"id":2815915255,"url":"http://farm4.staticflickr.com/3264/2815915255_1a93e82e4d.jpg","path":"2fa/f1d/2faf1dd9b1bd6ead417e3f1e458a73d.jpg","date":"2008-03-23","year":2008,"month":3,"lon":-72.58667,"lat":-38.737816,"tags":"araucania,bicicle,bicileta,canon,claudio+sepulveda+geoffroy,s3is,temuco,transport,transporte,wheel","S2CellId":"47c609c740000000","result":4323,"accuracy":0.019242903,"title":"4+wheel+drive","description":"alternativa+ecol%C3%B3gica+para+los+dias+lluviosos."}
{"id":6209470903,"url":"http://farm7.staticflickr.com/6216/6209470903_dd555beaf4.jpg","path":"854/4fc/8544fcb4e322cf615a4fdf58ac405ccb.jpg","date":"2011-10-01","year":2011,"month":10,"lon":-72.58667,"lat":-38.734,"tags":"photowalk","S2CellId":"9669000000000000","result":9899,"accuracy":0.02727312,"title":"Photowalk+Temuco+2011","description":"Jorge+Z%C3%BA%C3%B1iga+capturando+una+imagen+de+la+perrita+que+dormitaba+en+la+ciclov%C3%ADa+de+Avenida+Balmaceda"}
{"id":6259260709,"url":"http://farm7.staticflickr.com/6107/6259260709_7e5e6a515d.jpg","path":"61e/12b/61e12bac9a57b3433498f7d02c81511.jpg","date":"2011-10-09","year":2011,"month":10,"lon":-72.79541,"lat":-36.078518,"tags":"buchupureo,cobquecura,del,joya,la,mar,restaurante","S2CellId":"1367000000000000","result":1190,"accuracy":0.01492399,"title":"Restaurante+La+Joya+del+Mar"}
{"id":503742241,"url":"http://farm1.staticflickr.com/203/503742241_57c20b26ff.jpg","path":"3b2/ffa/3b2ffa52d67c61bd5ca94c9239cb5f.jpg","date":"2007-05-17","year":2007,"month":5,"lon":-73.033676,"lat":-36.829075,"tags":"campanil,concepcion,noche,udec","S2CellId":"340400f400000000","result":1998,"accuracy":0.013005227,"title":"IMG_2613_edited-1.jpg","description":"El+campanil+en+el+Aniversario+88+de+la+UdeC.%0A%3Ca+href%3D%22http%3A%2F%2Fterminal.delucca.cl%22%3Eterminal.delucca.cl%3C%2Fa%3E"}
{"id":256136267,"url":"http://farm1.staticflickr.com/102/256136267_8d971f6e5a.jpg","path":"129/c85/129c85e92df842dd9a5324ef03a9027.jpg","date":"2006-07-18","year":2006,"month":7,"lon":-73.03831,"lat":-36.827835,"tags":"+chile,+conce,+mito,+octava,+octava+region,+universidad,+universidad+de+concepcion,concepcion,cs,leyenda,udec","S2CellId":"94ce59f000000000","result":9723,"accuracy":0.014015824,"title":"Caminos","description":"Como+se+puede+ver+%3Ca+href%3D%22http%3A%2F%2Fwww.youtube.com%2Fwatch%3Fv%3DF5ql7Y3awGs%22%3Een+este+video+%3C%2Fa%3E+nadie+pisa+la+insignia+de+entrada+a+la+universidad%2C+la+leyenda+dice+que+quien+camine+sobre+ella+se+queda+en+la+UdeC+PARA+SIEMPRE+o+hasta+que+lo+echen"}
{"id":3420768742,"url":"http://farm4.staticflickr.com/3312/3420768742_9a6afb7a28.jpg","path":"3ee/a6f/3eea6fe17d02aac986643a540cee319.jpg","date":"2008-01-02","year":2008,"month":1,"lon":-73.365326,"lat":-37.889755,"tags":"lago,lanalhue","S2CellId":"9669000000000000","result":9899,"accuracy":0.022023799,"title":"Lago+Lanalhue"}
{"id":408501923,"url":"http://farm1.staticflickr.com/181/408501923_a1d7276cff.jpg","path":"492/eac/492eacc5ae52e065cbd259189c62537.jpg","date":"2007-03-03","year":2007,"month":3,"lon":-72.22618,"lat":-37.44638,"tags":"argentina,chile,sudam%C3%A9rica,tresalsur","S2CellId":"3b07000000000000","result":2532,"accuracy":0.026360013,"title":"El+bio+bio","description":"No+es+un+parque+tem%C3%A1tico+de+vaqueros.%0AEs+un+parque+natural+protegido+en+Chile.+Est%C3%A1+bien+chido.%0AAc%C3%A1+pueden+apreciar+ustedes+los+residuos+de+lo+que+alguna+vez+fue+un+bosque+frondoso+y+que+ahora+utilizan+para+deforestar+y+sacar+madera.%0AEs+que+es+un+parque+natural+protegido+les+digo.%0A%0A%0A%3Ca+href%3D%22http%3A%2F%2Ftresalsur.blogspot.com%22%3Etresalsur.blogspot.com%3C%2Fa%3E++++%3C---Nuestro+diario+de+viaje"}
{"id":4648241130,"url":"http://farm4.staticflickr.com/3399/4648241130_4b80b22bf3.jpg","path":"dbe/886/dbe886104c45fbcfc47e43de57848b.jpg","date":"2010-05-27","year":2010,"month":5,"lon":-73.0523,"lat":-36.82605,"tags":"en+vivo,live,m%C3%BAsica,music","S2CellId":"132af00000000000","result":1043,"accuracy":0.023777673,"title":"nzglHD-9140"}
{"id":2321984776,"url":"http://farm4.staticflickr.com/3164/2321984776_aa2872319d.jpg","path":"7a1/b5c/7a1b5cc59b45dd4a7554afcc368bb0ac.jpg","date":"2006-01-07","year":2006,"month":1,"lon":-73.3679,"lat":-38.15609,"tags":"agua,ara%C3%B1a,arauco,gotas,tela,telara%C3%B1a","S2CellId":"88d0a631cabb5071","result":8563,"accuracy":0.007447967,"title":"gotas+de+agua","description":"una+ma%C3%B1ana"}
{"id":6837802289,"url":"http://farm8.staticflickr.com/7005/6837802289_ff02df0e07.jpg","path":"1ee/879/1ee8797b702be8c9825fd831989989.jpg","date":"2012-02-02","year":2012,"month":2,"lon":-73.14285,"lat":-37.05463,"tags":"arena,beach,bio-bio,chile,coronel,mar,oc%C3%A9ano,ocean,orilla,playa,playa+blanca,regi%C3%B3n+del+biobio,sand,sea,shore,summer,verano","S2CellId":"80dc010000000000","result":7324,"accuracy":0.044580344,"title":"Y+ese+mar+que+tranquilo+te+ba%C3%B1a.","description":"Mar+a+orillas+de+Playa+Blanca%2C+Coronel%2C+Regi%C3%B3n+del+Biobio%2C+Chile%0A%0ASea+in+the+shores+of+%22Playa+Blanca%22+%28Blanca+Beach%29%2C+Coronel%2C+Regi%C3%B3n+del+Biobio%2C+Chile."}
{"id":4127067772,"url":"http://farm3.staticflickr.com/2695/4127067772_f7af377316.jpg","path":"eca/b7d/ecab7d82a83cb2dd8f86fb3e84555b.jpg","date":"2009-11-14","year":2009,"month":11,"lon":-73.00329,"lat":-36.837315,"tags":"animales,animals,chile,ciervo,concepci%C3%B3n,deer,nongu%C3%A9n,regi%C3%B3n+de+b%C3%ADo+b%C3%ADo,zoo,zool%C3%B3gico","S2CellId":"94ce5b4000000000","result":9726,"accuracy":0.11049939,"title":"Bambi"}
{"id":5417747856,"url":"http://farm6.staticflickr.com/5258/5417747856_cdc687121b.jpg","path":"679/aa6/679aa6595091841de1d133703ec1511.jpg","date":"2010-02-07","year":2010,"month":2,"lon":-73.0735,"lat":-38.03349,"tags":"chile,ix+regi%C3%B3n,pur%C3%A9n","S2CellId":"54c7000000000000","result":6307,"accuracy":0.022854028,"title":"Plaza+de+Armas+de+Pur%C3%A9n"}
{"id":3988571451,"url":"http://farm3.staticflickr.com/2430/3988571451_9c1841a1e6.jpg","path":"d1a/136/d1a136c8b5eda1eca66a5706a9e703d.jpg","date":"2009-10-06","year":2009,"month":10,"lon":-73.07247,"lat":-36.795815,"tags":"bic,lapices,materia","S2CellId":"88e0ac0000000000","result":8646,"accuracy":0.0033244635,"title":"Lapices"}
{"id":10716969705,"url":"http://farm8.staticflickr.com/7444/10716969705_64bed0894b.jpg","path":"fd4/f22/fd4f22a31c43d9bdbe48a8dc7370e7.jpg","date":"2013-09-28","year":2013,"month":9,"lon":-73.10558,"lat":-36.70894,"tags":"mj-26t%2C+molina+jugo+astillero+molina+jugo+velero+vela+vela+menor+marina+marina+el+manzano,talcahuano,velero+guillermo","S2CellId":"12c9100000000000","result":838,"accuracy":0.08740328,"title":"Velero+%22Guillermo%22","description":"Velero+MJ-26T"}
{"id":41511187,"url":"http://farm1.staticflickr.com/23/41511187_3766638532.jpg","path":"bd7/bdb/bd7bdb85a34aad5678bcf06a3ff47ef6.jpg","date":"2005-09-08","year":2005,"month":9,"lon":-73.081055,"lat":-36.771893,"tags":"almenara+de+la+frontera,ohtar%C3%ADma","S2CellId":"4786300000000000","result":3573,"accuracy":0.09605319,"title":"63"}
{"id":3872472872,"url":"http://farm3.staticflickr.com/2504/3872472872_d8570cf572.jpg","path":"d5f/7dc/d5f7dc6163cf8af0bdd8cc754368f735.jpg","date":"2009-08-29","year":2009,"month":8,"lon":-72.55731,"lat":-37.096813,"tags":"f%C3%BAtbol,palestino,universidad+de+concepci%C3%B3n,yumbel","S2CellId":"4871811000000000","result":5043,"accuracy":0.024806902,"title":"Salida","description":"Universidad+de+Concepci%C3%B3n+2+-+Palestino+0%0AS%C3%A1bado+29+de+ahosto+de+2009%0AEstadio+Municipal+de+Yumbel"}
{"id":2208848024,"url":"http://farm3.staticflickr.com/2264/2208848024_92ef12bbde.jpg","path":"1fe/87b/1fe87bf08a8d98bcf032def5f7652d7b.jpg","date":"2008-01-01","year":2008,"month":1,"lon":-72.56084,"lat":-38.71391,"tags":"araucania,canon,chile,claudio+sepulveda+geoffroy,erupcion+volcan+llaima,llaima,s3is,temuco,volcan","S2CellId":"88d0a631cabb5071","result":8563,"accuracy":0.00813934,"title":"Erupci%C3%B3n+Volc%C3%A1n+Llaima","description":"Fotograf%C3%ADa+a+aproximadamente+78+Km.+al+crater%2C+desde+la+salida+norte+de+Temuco...%0AEn+esos+d%C3%ADas+improvisando+un+tripode+entre+chalecos+y+el+techo+del+auto."}
{"id":5823019308,"url":"http://farm6.staticflickr.com/5312/5823019308_131e56c822.jpg","path":"2d6/670/2d6670a8e2a799ae69c86eb084efff50.jpg","date":"2011-06-11","year":2011,"month":6,"lon":-73.0093,"lat":-36.93631,"tags":"chica,chiguayante,chile,cobre,colorina,concepcion,hermana,zanahoria","S2CellId":"88d0a631cabb5071","result":8563,"accuracy":0.0029779891,"title":"La+cobre"}
{"id":5938081813,"url":"http://farm7.staticflickr.com/6129/5938081813_3783217fb7.jpg","path":"ccd/94f/ccd94f987dd634dbf24bace4bf8f346.jpg","date":"2011-07-14","year":2011,"month":7,"lon":-73.05644,"lat":-36.829887,"tags":"chile,concepci%C3%B3n","S2CellId":"8085809400000000","result":6947,"accuracy":0.008759941,"title":"espacios.","description":"comunes."}
{"id":2989034617,"url":"http://farm4.staticflickr.com/3254/2989034617_8645362b2e.jpg","path":"452/5ca/4525cad781f77e3d54e7ecedc722045.jpg","date":"2008-10-30","year":2008,"month":10,"lon":-72.105675,"lat":-36.611946,"tags":"chillan,opensolaris,presentacion,presentation,santo+tomas,sun,sun+microsystems,tech","S2CellId":"0d0dd40000000000","result":174,"accuracy":0.028740793,"title":"OpenSolaris"}
{"id":5408798007,"url":"http://farm5.staticflickr.com/4150/5408798007_55600437cf.jpg","path":"5d6/022/5d602212d7478f29941d3dc8b3789b51.jpg","date":"2011-01-28","year":2011,"month":1,"lon":-72.4308,"lat":-36.666214,"tags":"family,vacations,weekend","S2CellId":"9410000000000000","result":9669,"accuracy":0.09218611,"title":"Fin+de+semana+en+Quinchamal%C3%AD","description":"Fin+de+semana+en+Rinconada%2C+Quinchamal%C3%AD.%0A28-31+de+enero+2011%0ARegi%C3%B3n+del+Biob%C3%ADo%2C+Chile."}
{"id":3893859533,"url":"http://farm4.staticflickr.com/3441/3893859533_9bab84ca7c.jpg","path":"62a/ab2/62aab274d165ae5faf7f480c19de835.jpg","date":"2009-09-05","year":2009,"month":9,"lon":-73.062325,"lat":-36.82646,"tags":"blues,en+vivo,live,m%C3%BAsica,mao%27s+blues,music,reacci%C3%B3n+sonora","S2CellId":"478df00000000000","result":3674,"accuracy":0.07503214,"title":"Triangle","description":"Grabaci%C3%B3n+disco+En+Vivo+de+Mao%27s+Blues+%0A%0ASesi%C3%B3n+de+Reacci%C3%B3n+Sonora%0AS%C3%A1bado+05+de+septiembre+de+2009%0AEstudio+Universidad+Santo+Tom%C3%A1s%0AConcepci%C3%B3n%2C+Chile"}
{"id":5837923208,"url":"http://farm3.staticflickr.com/2702/5837923208_e4c1ff7383.jpg","path":"b27/881/b27881fbde9c8456cef733ae7390b6e.jpg","date":"2011-05-01","year":2011,"month":5,"lon":-73.10994,"lat":-36.84474,"tags":"laguna,ohtar%C3%ADma,san+pedro+de+la+paz","S2CellId":"94ce59f000000000","result":9723,"accuracy":0.123018384,"title":"Decisiones","description":"Tarde+de+campo+con+Ohtar%C3%ADma%0ALaguna+Grande%0ASan+Pedro+de+la+Paz%0ARegi%C3%B3n+del+Biob%C3%ADo%2C+Chile"}
{"id":7434863644,"url":"http://farm9.staticflickr.com/8021/7434863644_1bda32e0ea.jpg","path":"18b/fe0/18bfe0b07a6fcbff1f3cad8430e668b.jpg","date":"2012-06-24","year":2012,"month":6,"lon":-72.42983,"lat":-36.657333,"tags":"campo,musica,vida","S2CellId":"4ca4000000000000","result":5831,"accuracy":0.026178371,"title":"Relax","description":"%2B+O2"}
{"id":11594421794,"url":"http://farm6.staticflickr.com/5493/11594421794_f7b1ce63c9.jpg","path":"cfd/85c/cfd85c8b4c3ad12b850db7d8a531ba2.jpg","date":"2013-09-20","year":2013,"month":9,"lon":-72.95746,"lat":-36.528,"tags":"arquitectura","S2CellId":"9630000000000000","result":9869,"accuracy":0.10763727,"title":"Casa+anti+tsunamis"}
{"id":358865540,"url":"http://farm1.staticflickr.com/133/358865540_3f1d3f590a.jpg","path":"7e9/aeb/7e9aeb422df1ab22b1b439c757a66c.jpg","date":"2007-01-13","year":2007,"month":1,"lon":-72.43252,"lat":-37.177277,"tags":"bucalemu,jabali","S2CellId":"54866c0000000000","result":6114,"accuracy":0.013085118,"title":"Bucalemu+zoo+046"}
{"id":3595468312,"url":"http://farm4.staticflickr.com/3327/3595468312_8914f5388d.jpg","path":"567/358/567358bdb6bddc9180c54686cdb7465f.jpg","date":"2006-04-14","year":2006,"month":4,"lon":-73.06711,"lat":-36.83038,"tags":"atardecer,concepcion,costanera,sunset","S2CellId":"95b7000000000000","result":9827,"accuracy":0.06016264,"title":"Costanera+al+atardecer+I"}
