{"id":3299010657,"url":"http://farm4.staticflickr.com/3300/3299010657_f919b42c61.jpg","path":"8f4/918/8f4918efa3731e1ba4946a4b4b81a65.jpg","date":"2009-02-08","year":2009,"month":2,"lon":121.12255,"lat":16.934483,"tags":"batad,philippines","S2CellId":"5496400000000000","result":6277,"accuracy":0.0602666,"title":"Windy+%26+Kim","description":"Hike+to+Batad+and+back%2C+site+of+2000-year-old+rice+terraces"}
{"id":12885778794,"url":"http://farm4.staticflickr.com/3793/12885778794_0be94b94a2.jpg","path":"f22/881/f22881ecdd17a82fa801fbd37ac349.jpg","date":"2014-02-08","year":2014,"month":2,"lon":121.134285,"lat":16.93626,"tags":"banaue,batad,ifugao,luzon,philippines","S2CellId":"0c60500000000000","result":148,"accuracy":0.086241975,"title":"IMG_4390"}
{"id":12885439265,"url":"http://farm3.staticflickr.com/2830/12885439265_a2952f0320.jpg","path":"607/7b1/6077b1d77de4252333d6e24c6eb5730.jpg","date":"2014-02-09","year":2014,"month":2,"lon":121.06014,"lat":16.913713,"tags":"banaue,ifugao,luzon,philippines","S2CellId":"3994000000000000","result":2483,"accuracy":0.24297185,"title":"IMG_4522"}
{"id":518233855,"url":"http://farm1.staticflickr.com/219/518233855_2ec565faff.jpg","path":"d5c/217/d5c217586b8f26d8f58dce61728a940.jpg","date":"2007-03-29","year":2007,"month":3,"lon":121.5451,"lat":16.68783,"tags":"2007,aperture,cagayan,cagayan+valley,isabela,luzon,p1000840,philippines,santiago,santiago+city","S2CellId":"876bec4000000000","result":7871,"accuracy":0.005665874,"title":"Spider+Boy","description":"Bikes+for+sale+in+Santiago+City+in+the+Philippines"}
{"id":4438025000,"url":"http://farm3.staticflickr.com/2690/4438025000_532ff4fec8.jpg","path":"e73/28e/e7328e233ea42af337fac6aa54f61e8b.jpg","date":"2010-03-04","year":2010,"month":3,"lon":121.058266,"lat":16.919008,"tags":"philippines","S2CellId":"338c000000000000","result":1902,"accuracy":0.20330583,"title":"Banaue+Rice+Terraces"}
{"id":2080335714,"url":"http://farm3.staticflickr.com/2356/2080335714_a1f803911a.jpg","path":"481/53b/48153b9b7582b66c0569840482f9aa8.jpg","date":"2007-11-18","year":2007,"month":11,"lon":121.111046,"lat":16.924875,"tags":"batad,philippines,tappia","S2CellId":"7953b00000000000","result":6865,"accuracy":0.59940445,"title":"Tappia+Waterfall"}
{"id":8652218542,"url":"http://farm9.staticflickr.com/8263/8652218542_9b35ab1a79.jpg","path":"e06/e53/e06e53e7d163fea64c23d8c81d204b37.jpg","date":"2013-04-12","year":2013,"month":4,"lon":121.05583,"lat":16.921,"tags":"iphone365","S2CellId":"338c000000000000","result":1902,"accuracy":0.22809143,"title":"92%3A365"}
{"id":12885464755,"url":"http://farm4.staticflickr.com/3776/12885464755_d31c39b3eb.jpg","path":"362/3bd/3623bd2796ff6c09bb76b2f65ed7326.jpg","date":"2014-02-09","year":2014,"month":2,"lon":121.05435,"lat":16.93208,"tags":"banaue,ifugao,luzon,philippines","S2CellId":"3994000000000000","result":2483,"accuracy":0.5002645,"title":"IMG_4564"}
{"id":13549672515,"url":"http://farm3.staticflickr.com/2916/13549672515_34e19387b4.jpg","path":"7eb/f99/7ebf99acc574b9c91aed9e484a66fe.jpg","date":"2014-03-30","year":2014,"month":3,"lon":121.03047,"lat":16.978525,"tags":"sagada","S2CellId":"3994000000000000","result":2483,"accuracy":0.33483666,"title":"DSCF1861"}
{"id":516166067,"url":"http://farm1.staticflickr.com/209/516166067_2097d25efc.jpg","path":"5ad/eae/5adeae4e1c9ff89735725ae1958178d0.jpg","date":"2007-05-11","year":2007,"month":5,"lon":121.06384,"lat":16.928078,"tags":"banawe,banawe-sagada,sagada","S2CellId":"338c000000000000","result":1902,"accuracy":0.16790183,"title":"The+Fields"}
{"id":2190744597,"url":"http://farm3.staticflickr.com/2331/2190744597_bf59b60b1b.jpg","path":"666/e66/666e66b4fbdb2e8f7e2705dafbd76b2.jpg","date":"2008-01-14","year":2008,"month":1,"lon":121.05629,"lat":16.775288,"tags":"ambabag,bae,diamondclassphotographer,ifugao,kiangan,philippines,rice+terraces,shubert+ciencia","S2CellId":"36cc000000000000","result":2408,"accuracy":0.1965448,"title":"Bae+Rice+Terraces+%28Kiangan%2C+Ifugao%29","description":"The+morning+clouds+kiss+the+rice+terraces+of+Sitio+Bae%2C+Ambabag+in+Kiangan+as+I+walked+to+the+Ambuaya+Lake+some+3+kilometers+downhill.%0A%0ANikon+D40+%28Kiangan+LGU+CBMS+Training+II%2C+August+2007%29."}
{"id":12926719714,"url":"http://farm4.staticflickr.com/3681/12926719714_6cb3b73b8d.jpg","path":"394/881/3948812bcca31afb1d07e4a8db96113.jpg","date":"2013-03-22","year":2013,"month":3,"lon":121.57475,"lat":16.885948,"tags":"philippines+butterflies,pieridae","S2CellId":"2bfc000000000000","result":1527,"accuracy":0.025488582,"title":"Psyche"}
{"id":2079548685,"url":"http://farm3.staticflickr.com/2071/2079548685_349f95497b.jpg","path":"1fc/c33/1fcc3369e44afa73405f927166d1d69a.jpg","date":"2007-11-17","year":2007,"month":11,"lon":121.08701,"lat":16.924545,"tags":"batad,philippines","S2CellId":"7c06c00000000000","result":6897,"accuracy":0.20527412,"title":"Hiking+to+Batad"}
{"id":12885873994,"url":"http://farm4.staticflickr.com/3780/12885873994_23a21be935.jpg","path":"5a8/6bf/5a86bfe18bb2801dddea2ad04174e92.jpg","date":"2014-02-09","year":2014,"month":2,"lon":121.057785,"lat":16.935375,"tags":"banaue,ifugao,luzon,philippines","S2CellId":"0c60500000000000","result":148,"accuracy":0.21517326,"title":"IMG_4533"}
