{"id":3474176080,"url":"http://farm4.staticflickr.com/3662/3474176080_8061c15f4d.jpg","path":"5cd/ac7/5cdac7145e749d313ac128b53641bf5.jpg","date":"2009-02-27","year":2009,"month":2,"lon":-84.04472,"lat":22.706919,"tags":"buceo,cayo+jutia,cuba,pinar+del+rio,scuba","S2CellId":"1453000000000000","result":1198,"accuracy":0.09838975,"title":"IMG_0946"}
{"id":5732032904,"url":"http://farm6.staticflickr.com/5227/5732032904_d7f19f5cc4.jpg","path":"3b9/365/3b936595ad757f0922b95626fcf2c.jpg","date":"2011-05-17","year":2011,"month":5,"lon":-86.80396,"lat":21.243061,"tags":"excellence+playa+mujeres,mexico,riviera+maya","S2CellId":"85d1f84000000000","result":7467,"accuracy":0.11497748,"title":"Michael+Jackson+show","description":"Excellence+Playa+Mujeres%2C+Riviera+Maya%2C+Mexico"}
{"id":3117773723,"url":"http://farm4.staticflickr.com/3239/3117773723_e2305b2252.jpg","path":"16c/049/16c049fdd92b3de820f240d769358e6c.jpg","date":"2008-12-13","year":2008,"month":12,"lon":-86.73963,"lat":21.231651,"tags":"isla+mujeres,mexico,villa+rolandi","S2CellId":"8f4fc00000000000","result":9526,"accuracy":0.08079493,"title":"DSC00017"}
{"id":3473662343,"url":"http://farm4.staticflickr.com/3597/3473662343_9be901496c.jpg","path":"14e/19c/14e19cc58b6789d91fe7f0e5a3e468a.jpg","date":"2009-02-27","year":2009,"month":2,"lon":-84.04472,"lat":22.706919,"tags":"buceo,cayo+jutia,cuba,pinar+del+rio,scuba","S2CellId":"89a8c00000000000","result":8777,"accuracy":0.03318105,"title":"IMG_7668"}
{"id":7983764098,"url":"http://farm9.staticflickr.com/8316/7983764098_560ef1c424.jpg","path":"f2f/aaf/f2faaf8a9a4ba3967c4313d35b15c7.jpg","date":"2012-08-24","year":2012,"month":8,"lon":-86.750175,"lat":21.263212,"tags":"isla+mujeres,mexico,quintana+roo","S2CellId":"8f4c400000000000","result":9516,"accuracy":0.0831946,"title":"Whale+Shark+Tour"}
{"id":3393931017,"url":"http://farm4.staticflickr.com/3464/3393931017_07de8a2403.jpg","path":"efb/da2/efbda2d138863c79c066d993cd63b7ef.jpg","date":"2009-03-26","year":2009,"month":3,"lon":-86.78195,"lat":21.038189,"tags":"cancun,nature","S2CellId":"6d33000000000000","result":6828,"accuracy":0.012167074,"title":"Cancun+Nature"}
{"id":2542153742,"url":"http://farm4.staticflickr.com/3296/2542153742_9b8ea0942a.jpg","path":"be6/dca/be6dcacfe9aed817f98a291682481518.jpg","date":"2008-05-25","year":2008,"month":5,"lon":-86.843315,"lat":21.157518,"tags":"cancun,manamicun","S2CellId":"8620a61c00000000","result":7512,"accuracy":0.22773547,"title":"100_1203"}
{"id":6624662671,"url":"http://farm8.staticflickr.com/7030/6624662671_92342d06ca.jpg","path":"cd6/0cd/cd60cd25fcba4e584c86bc4b9bef5292.jpg","date":"2011-12-27","year":2011,"month":12,"lon":-86.77345,"lat":21.080256,"tags":"beach,cancun,mar+caribe,mexico","S2CellId":"8f4fc00000000000","result":9526,"accuracy":0.26106337,"title":"Cancun+Zona+Hotelera"}
{"id":34147151,"url":"http://farm1.staticflickr.com/23/34147151_6067e6681b.jpg","path":"bba/997/bba997d7db43ffc03166458fb73e05e.jpg","date":"2005-08-12","year":2005,"month":8,"lon":-86.744095,"lat":21.135744,"tags":"cancun,copyfight,copyleft,creative+commons,mexico,riviera+maya","S2CellId":"8f4c400000000000","result":9516,"accuracy":0.052299485,"title":"Cancun+en+Agosto+2005","description":"Una+se%C3%B1orita+que+no+conoce+a+Creative+Commons.%0A%0ACon+los+Galatzan+%28la+familia+de+mi+polola%29+partimos+a+Cancun+por+1+semana+en+Agosto.+Mi+primera+vez+en+Mexico.+Una+delicia."}
{"id":1075971997,"url":"http://farm2.staticflickr.com/1372/1075971997_e587deea88.jpg","path":"be9/328/be9328289023be452d1b6be2b8bc3f0.jpg","date":"2007-08-10","year":2007,"month":8,"lon":-86.77957,"lat":21.030151,"tags":"2007,cancun,punta+nizuc,reef,snorkeling","S2CellId":"6500000000000000","result":6575,"accuracy":0.056576014,"title":"09580005"}
{"id":2202523689,"url":"http://farm3.staticflickr.com/2184/2202523689_10909e3d78.jpg","path":"5af/3f0/5af3f0d277f0a155a59b382eeb2943a.jpg","date":"2007-08-28","year":2007,"month":8,"lon":-86.833534,"lat":21.177849,"tags":"cancun","S2CellId":"8f4e300000000000","result":9519,"accuracy":0.1677152,"title":"P8280136"}
{"id":3306756596,"url":"http://farm4.staticflickr.com/3358/3306756596_673ecbe736.jpg","path":"391/204/3912048e1924b4d7e4aed5c43ce30eb.jpg","date":"2009-01-09","year":2009,"month":1,"lon":-86.73196,"lat":21.221636,"tags":"isla+mujeres,lucas,tortugranja,turtle+farm,yucatan","S2CellId":"88d0d00000000000","result":8567,"accuracy":0.016752183,"title":"big+turtle+tank"}
{"id":5561040169,"url":"http://farm6.staticflickr.com/5064/5561040169_a864f5f82b.jpg","path":"87e/c8d/87ec8de35c953af0376077aa24dd75d4.jpg","date":"2011-03-21","year":2011,"month":3,"lon":-86.769844,"lat":21.09427,"tags":"beach+palace+resort,cancun,cancun%2C+mexico,family+vacation,fun,gulf+of+mexico","S2CellId":"8842400000000000","result":8397,"accuracy":0.00948229,"title":"Sushi+for+dinner"}
{"id":8729946751,"url":"http://farm8.staticflickr.com/7451/8729946751_2813f18c37.jpg","path":"758/d38/758d3868585eff5eaed3829474866ce.jpg","date":"2013-04-15","year":2013,"month":4,"lon":-86.777985,"lat":21.06591,"tags":"cancun2013,gigi4791","S2CellId":"8f4c400000000000","result":9516,"accuracy":0.08541174,"title":"Piscina+infinita"}
{"id":2408692099,"url":"http://farm3.staticflickr.com/2363/2408692099_36fcc8bbee.jpg","path":"192/db4/192db4e115bf894d2b45fea6a5fe972d.jpg","date":"2008-04-12","year":2008,"month":4,"lon":-86.83173,"lat":21.171474,"tags":"arete+violador","S2CellId":"54906d0000000000","result":6220,"accuracy":0.0059044315,"title":"Aretes+Violadores%3F","description":"My+mom+bought+me+a+pair+of+earrings...+which+I%27ll+have+to+take+a+picture+of+later.+The+tag%3F+It+cracked+me+up.+Apparently%2C+they%27re+raping+earrings.+No%2C+seriously."}
{"id":4822229891,"url":"http://farm5.staticflickr.com/4115/4822229891_c98f1a5b3e.jpg","path":"118/e65/118e65ace0f9ee6f627f176af3867fbf.jpg","date":"2010-07-11","year":2010,"month":7,"lon":-86.80395,"lat":21.21118,"tags":"animal,cancun,elmeco,iguana,lizard,maya,mayan,mayanruins,mexico,quintana,quintanaroo,reptile,roo,ruinas,ruins,yucatan","S2CellId":"8f51000000000000","result":9527,"accuracy":0.13913298,"title":"Local+Inhabitants","description":"Lots+of+iguanas+all+over+El+Meco....."}
{"id":470784572,"url":"http://farm1.staticflickr.com/219/470784572_a6259a5d32.jpg","path":"d6d/be4/d6dbe4a4c44fef6e43c35ad665e8e7.jpg","date":"2007-02-27","year":2007,"month":2,"lon":-86.713455,"lat":21.207857,"tags":"atlantic,beach,carribean,islamujeres,island,mexico,ocean,peninsula,quntanaroo,vacation,yucatan","S2CellId":"8f4fc00000000000","result":9526,"accuracy":0.16726683,"title":"View+To+The+East"}
{"id":3320368986,"url":"http://farm4.staticflickr.com/3009/3320368986_807fac8005.jpg","path":"ba1/fd0/ba1fd056d21b27317ccd7873bbf0ad.jpg","date":"2009-01-10","year":2009,"month":1,"lon":-86.74981,"lat":21.25922,"tags":"isla+mujeres,lucas,mexico,renee,yucatan","S2CellId":"88e77ec000000000","result":8674,"accuracy":0.016424444,"title":"to+buy+or+not+to+buy"}
{"id":2091003245,"url":"http://farm3.staticflickr.com/2406/2091003245_8cc48ddde0.jpg","path":"da4/738/da4738c7c1ac8e18364d1dcdf69ce716.jpg","date":"2007-11-21","year":2007,"month":11,"lon":-86.783066,"lat":21.047977,"tags":"cancun,cancun%2C+mexico,mexico","S2CellId":"8f4e440000000000","result":9520,"accuracy":0.03349084,"title":"IMG_2790","description":"Cancun%2C+Mexico+-+2007"}
{"id":7788944094,"url":"http://farm8.staticflickr.com/7261/7788944094_3ee43eca5f.jpg","path":"556/e8a/556e8ab0d1899799f2a170697d9df489.jpg","date":"2012-03-11","year":2012,"month":3,"lon":-86.78136,"lat":21.040033,"tags":"beach,cancun,girl,hotel,mexico,ni%C3%B1a,playa,quintana+roo,sarah,westin+regina","S2CellId":"892c000000000000","result":8771,"accuracy":0.1917946,"title":"Playa+del+Hotel","description":"Westin+Regina%2C+Cancun"}
{"id":7246988030,"url":"http://farm8.staticflickr.com/7103/7246988030_2b839e4389.jpg","path":"f8c/c9a/f8cc9a3d5379aa35587ed2a527162f2.jpg","date":"2012-01-06","year":2012,"month":1,"lon":-86.80434,"lat":21.211332,"tags":"canc%C3%BAn,cancun,el+meco,inah,riviera+maya,zona+arqueol%C3%B3gica","S2CellId":"8f4fc00000000000","result":9526,"accuracy":0.35219213}
{"id":8753571379,"url":"http://farm6.staticflickr.com/5461/8753571379_8bd06cdd77.jpg","path":"47f/2ec/47f2ec644b8e4bf2526ae1ae3eaabd.jpg","date":"2013-05-12","year":2013,"month":5,"lon":-86.84594,"lat":21.158962,"tags":"cancun,mexico,vacation","S2CellId":"88d9b44000000000","result":8592,"accuracy":0.13037458,"title":"Mexico_2013_2","description":"Mexico+Vacation+2013++Cancun%2C+Quintana+Roo"}
{"id":8729965641,"url":"http://farm8.staticflickr.com/7313/8729965641_9fb00a0170.jpg","path":"717/48c/71748cb6326d5b5b3cfe31e8df44bb1a.jpg","date":"2013-04-15","year":2013,"month":4,"lon":-86.7779,"lat":21.065844,"tags":"cancun2013,gigi4791","S2CellId":"8f4c400000000000","result":9516,"accuracy":0.23770943,"title":"Piscina+infinita"}
{"id":7757398494,"url":"http://farm9.staticflickr.com/8297/7757398494_bdf6124d5d.jpg","path":"138/eef/138eef36d0b16aeb7abd8f9b8827c1a3.jpg","date":"2012-08-08","year":2012,"month":8,"lon":-86.76157,"lat":21.110064,"tags":"cancun","S2CellId":"8f4c400000000000","result":9516,"accuracy":0.1150162,"title":"IMG_7885"}
{"id":8383519309,"url":"http://farm9.staticflickr.com/8097/8383519309_82cdb75581.jpg","path":"27b/63b/27b63be25faf22aaedc88080da522.jpg","date":"2013-01-13","year":2013,"month":1,"lon":-86.77469,"lat":21.14274,"tags":"cancun,caribe,from,hotel,mexico,riu,sunset","S2CellId":"8704000000000000","result":7714,"accuracy":0.009955673,"title":"Cancun+-+Mexico","description":"Sunset+from+hotel+in+Cancun+Mexico"}
{"id":444486065,"url":"http://farm1.staticflickr.com/174/444486065_fbb028ff87.jpg","path":"93b/920/93b9204c7cadbd9e779af696238e4c.jpg","date":"2007-03-25","year":2007,"month":3,"lon":-86.77427,"lat":21.077633,"tags":"2007,cancun,mexico","S2CellId":"8f4c400000000000","result":9516,"accuracy":0.06296397,"title":"Uno+de+los+Pavos+Reales"}
{"id":5731750730,"url":"http://farm6.staticflickr.com/5084/5731750730_a0b265a51f.jpg","path":"737/b9c/737b9cb6c34e9547b297c6b4dd1d6ec.jpg","date":"2011-05-17","year":2011,"month":5,"lon":-86.80396,"lat":21.243061,"tags":"excellence+playa+mujeres,mexico,riviera+maya","S2CellId":"883f400000000000","result":8376,"accuracy":0.009583108,"title":"X-box+in+room","description":"Excellence+Playa+Mujeres%2C+Riviera+Maya%2C+Mexico"}
{"id":8210075824,"url":"http://farm9.staticflickr.com/8199/8210075824_1ff18b9f2a.jpg","path":"205/3bc/2053bce59dd1d252999d270f0206069.jpg","date":"2012-11-08","year":2012,"month":11,"lon":-84.4598,"lat":21.937296,"tags":"2012,bird,cuba,cuban+trogon,guanahacabibes,guanahacabibes+biosphere+reserve,guanahacabibes+national+park,priotelus,priotelus+temnurus,trogon,trogonidae,trogoniformes","S2CellId":"88d0a631cabb5071","result":8563,"accuracy":0.025100771,"title":"CU12_0533a","description":"Cuban+Trogon+at++Guanahacabibes+Biosphere+Reserve%2C+La+Bajada+Station%2C+Las+Perlas+trail+%2C+Cuba%2C+121108.+++Priotelus+temnurus.++Trogoniformes%3A+Trogonidae."}
{"id":217423837,"url":"http://farm1.staticflickr.com/97/217423837_79735dcfb5.jpg","path":"c2d/785/c2d7859568437734133d6ee3ed6ae115.jpg","date":"2005-01-07","year":2005,"month":1,"lon":-86.7453,"lat":21.21258,"tags":"cancun,cruises,isla+mujeres,norwegian+dream","S2CellId":"8f5d000000000000","result":9533,"accuracy":0.27969736,"title":"003_0A"}
{"id":3800875421,"url":"http://farm3.staticflickr.com/2658/3800875421_cef28a1d5c.jpg","path":"9e9/881/9e98813d407668cf6fecee7ca9eb1a97.jpg","date":"2009-08-03","year":2009,"month":8,"lon":-86.936356,"lat":21.11517,"tags":"cancun,mar,maya,mexico,playa,quintana,riviera,roo","S2CellId":"88d0a631cabb5071","result":8563,"accuracy":0.08031161,"title":"Confuci%C3%B3n"}
{"id":5275870584,"url":"http://farm6.staticflickr.com/5286/5275870584_8e0a43bb00.jpg","path":"dbb/b29/dbbb29fa63c95a5f089251633fe30aa.jpg","date":"2010-12-12","year":2010,"month":12,"lon":-86.74094,"lat":21.137877,"tags":"cancun,mexico","S2CellId":"1c70000000000000","result":1446,"accuracy":0.096149735,"title":"Lighthouse+and+old+boat+in+Cancun"}
{"id":34144057,"url":"http://farm1.staticflickr.com/21/34144057_8430b80806.jpg","path":"4aa/830/4aa830c22ff9f1d66ca5324660f178da.jpg","date":"2005-08-08","year":2005,"month":8,"lon":-86.744095,"lat":21.135744,"tags":"cancun,mexico,riviera+maya","S2CellId":"6d318a3000000000","result":6816,"accuracy":0.01804443,"title":"Cancun+en+Agosto+2005","description":"Con+los+Galatzan+%28la+familia+de+mi+polola%29+partimos+a+Cancun+por+1+semana+en+Agosto.+Mi+primera+vez+en+Mexico.+Una+delicia."}
{"id":356933475,"url":"http://farm1.staticflickr.com/151/356933475_9b27d4f029.jpg","path":"f56/e57/f56e577e9c52edaca146a2e28a9d236.jpg","date":"2007-01-14","year":2007,"month":1,"lon":-86.75077,"lat":21.261005,"tags":"isla+mujeres","S2CellId":"8f4c400000000000","result":9516,"accuracy":0.11900062,"title":"P1010011.JPG"}
{"id":442880255,"url":"http://farm1.staticflickr.com/185/442880255_f13f9709bc.jpg","path":"973/d46/973d46ceca725313f97aa4732521ac55.jpg","date":"2007-03-23","year":2007,"month":3,"lon":-86.76501,"lat":21.11002,"tags":"2007,cacun,plazalaisla","S2CellId":"8f4c400000000000","result":9516,"accuracy":0.11674606,"title":"En+el+Mall+Plaza+la+Isla"}
{"id":7983764779,"url":"http://farm9.staticflickr.com/8448/7983764779_4742cc7cda.jpg","path":"35c/f1f/35cf1f1dfce071be24dcb9cd9ba17746.jpg","date":"2012-08-24","year":2012,"month":8,"lon":-86.750175,"lat":21.263184,"tags":"isla+mujeres,mexico,quintana+roo","S2CellId":"8f4c400000000000","result":9516,"accuracy":0.12782362,"title":"Whale+Shark+Tour"}
{"id":462130417,"url":"http://farm1.staticflickr.com/208/462130417_f101d11f3d.jpg","path":"a4d/058/a4d058cf8ba1bfb6d58fb5d5d8fb5c8.jpg","date":"2004-09-22","year":2004,"month":9,"lon":-86.75353,"lat":21.122715,"tags":"2004,atardecer,cancun,mexico,quintanaroo,sunset","S2CellId":"8f4c400000000000","result":9516,"accuracy":0.03162145,"title":"dsc03765.jpg"}
{"id":5161861616,"url":"http://farm5.staticflickr.com/4042/5161861616_325fc4e6bd.jpg","path":"e39/09e/e3909e9ba4c6b5def6238ed6f14c57a.jpg","date":"2010-11-07","year":2010,"month":11,"lon":-86.77543,"lat":21.226822,"tags":"cancun,van,van+cancun","S2CellId":"12a4a27400000000","result":715,"accuracy":0.053835217,"title":"DSC_5355"}
{"id":4832932300,"url":"http://farm5.staticflickr.com/4090/4832932300_4957eb8dd8.jpg","path":"7eb/937/7eb9378a4a1d3757e77ca4b70d4ce86.jpg","date":"2010-07-11","year":2010,"month":7,"lon":-86.80395,"lat":21.21118,"tags":"animal,cancun,elmeco,iguana,lizard,maya,mayan,mayanruins,mexico,quintana,quintanaroo,reptile,roo,ruinas,ruins,yucatan","S2CellId":"534fc00000000000","result":6031,"accuracy":0.04399047,"title":"El+Meco+Iguana"}
{"id":5161775452,"url":"http://farm5.staticflickr.com/4031/5161775452_2c2e6e28ae.jpg","path":"836/19d/83619dac6cbb4da79f696d7178ecd3f.jpg","date":"2010-11-07","year":2010,"month":11,"lon":-86.77543,"lat":21.226822,"tags":"cancun,van,van+cancun","S2CellId":"0730000000000000","result":95,"accuracy":0.04781126,"title":"DSC_5024"}
{"id":2596462757,"url":"http://farm4.staticflickr.com/3071/2596462757_bff8b23e59.jpg","path":"785/d3d/785d3d9a7cf46b0a851b49a4b94e5e.jpg","date":"2008-06-20","year":2008,"month":6,"lon":-86.84143,"lat":21.179289,"tags":"20080620,cancun,hotel+zone,lagoon,laguna,laguna+nichupte,nichupte,palm+trees,palmeras,zona+hotelera","S2CellId":"8f4c400000000000","result":9516,"accuracy":0.06873881,"title":"Atardecer+sobre+Nichupt%C3%A9","description":"From+La+Isla."}
{"id":356663959,"url":"http://farm1.staticflickr.com/141/356663959_01bc24cb44.jpg","path":"cc3/a51/cc3a519890a749715556f668383049d7.jpg","date":"2007-01-07","year":2007,"month":1,"lon":-86.73088,"lat":21.21258,"tags":"2007,bicicletas,m%C3%A9xico,quintana+roo,vacaciones","S2CellId":"398c000000000000","result":2482,"accuracy":0.0072479644,"title":"necesidades+cubiertas","description":"El+conductor+de+este+veh%C3%ADculo+lleva+una+cerveza+y+en+su+canastita+un+pescadote%2C+vive+en+Isla+Mujeres...+qu%C3%A9+m%C3%A1s%3F"}
{"id":840982915,"url":"http://farm2.staticflickr.com/1014/840982915_ffe447443d.jpg","path":"9ad/1e2/9ad1e24beeb87558433832f5985c90c1.jpg","date":"2007-07-15","year":2007,"month":7,"lon":-86.77592,"lat":21.073088,"tags":"2007,cancun,royal+mayan","S2CellId":"1367000000000000","result":1190,"accuracy":0.035574913,"title":"DSC_0033"}
{"id":2576073283,"url":"http://farm4.staticflickr.com/3263/2576073283_3e0c219ff9.jpg","path":"f1d/735/f1d7354188f9b7251a6cde9632b664b.jpg","date":"2008-06-13","year":2008,"month":6,"lon":-86.84143,"lat":21.179289,"tags":"mexico","S2CellId":"80c2cc0000000000","result":7210,"accuracy":0.021692412,"title":"S%C3%B3lo+en+M%C3%A9xico","description":"Jam+packed+back+there.+Super+safe."}
{"id":34338754,"url":"http://farm1.staticflickr.com/21/34338754_8553064de1.jpg","path":"443/887/4438871a9d702a7d7a4f6f6e736d3a.jpg","date":"2005-08-13","year":2005,"month":8,"lon":-86.744095,"lat":21.135744,"tags":"cancun,mexico,riviera+maya","S2CellId":"0c6a940000000000","result":154,"accuracy":0.12040977,"title":"Cancun+en+Agosto+2005","description":"El+hotel+no+tenia+WiFi%2C+pero+la+pieza+tenia+Ethernet%21%21%0A%0ACon+los+Galatzan+%28la+familia+de+mi+polola%29+partimos+a+Cancun+por+1+semana+en+Agosto.+Mi+primera+vez+en+Mexico.+Una+delicia."}
{"id":217425791,"url":"http://farm1.staticflickr.com/95/217425791_b72c1c8003.jpg","path":"7d1/764/7d17643a3eca4858dec0e75374a1f3f3.jpg","date":"2005-01-04","year":2005,"month":1,"lon":-86.7453,"lat":21.21258,"tags":"cancun,cruises,isla+mujeres,norwegian+dream","S2CellId":"8f5d000000000000","result":9533,"accuracy":0.19913474,"title":"Cancun+Snorkel"}
{"id":2569266856,"url":"http://farm4.staticflickr.com/3138/2569266856_b05336e194.jpg","path":"6c2/cb9/6c2cb96d44579fc39e07d7a36a91e52.jpg","date":"2008-03-13","year":2008,"month":3,"lon":-86.78177,"lat":21.040478,"tags":"arena,beach,cancun,horizon,mexico,ocean,playa,quintana,regina,roo,rvc,sand,sol,sun,travel,trip,vacaciones,vacation,viaje,water","S2CellId":"8f4c400000000000","result":9516,"accuracy":0.4279503,"title":"Ocean+view","description":"I+wish+I+was+down+there+and+not+up+here+in+my+room%21+A+beautiful+view+of+the+beach%2C+Cancun+Mexico."}
{"id":3192875088,"url":"http://farm4.staticflickr.com/3333/3192875088_fb5fdbdd3d.jpg","path":"c4d/f39/c4df39722a2cdd641398958c96626ffe.jpg","date":"2006-08-13","year":2006,"month":8,"lon":-86.77757,"lat":21.069603,"tags":"beach,food,holiday,locals,mexico,sea,sun","S2CellId":"8f4c400000000000","result":9516,"accuracy":0.13742098,"title":"Cancun%2C+Mexico%3A+The+%27locals%27+beach","description":"When+I+was+in+Mexico%2C+I+noticed+there+were+two+types+of+beaches..++The+%27hotel%27+beaches%2C+where+all+the+tourists+relaxed+and+soaked+it+all+up.++Then+there+was+the+%27locals%27+beach+a+short+bus+ride+away%2C+where+the+locals+would+eat%2C+party+and+socialise+together.++Very+contrasting+images+side+by+side%2C+but+equally+as+entertaining%21"}
{"id":8949059673,"url":"http://farm9.staticflickr.com/8545/8949059673_87e996d680.jpg","path":"acb/9b7/acb9b72d96f3ea3f0487a4d922c876c.jpg","date":"2013-03-20","year":2013,"month":3,"lon":-86.75085,"lat":21.26308,"tags":"2013,canc%C3%BAn,caribbean,isla+mujeres,mexico,sailing","S2CellId":"8edc000000000000","result":9506,"accuracy":0.055732,"title":"Corona"}
{"id":3909192073,"url":"http://farm4.staticflickr.com/3518/3909192073_3819e9466f.jpg","path":"886/bc4/886bc4cd45d37b26cb1656311b63bbf2.jpg","date":"2009-09-06","year":2009,"month":9,"lon":-86.77899,"lat":21.061153,"tags":"cancun,mexico,vacation","S2CellId":"94ce59f000000000","result":9723,"accuracy":0.043191057,"title":"Traditional+Mexican+Show+at+the+Resort"}
{"id":8731148894,"url":"http://farm8.staticflickr.com/7361/8731148894_32668af56f.jpg","path":"51b/391/51b3917b9f85c6f6f6d7956fcc37820.jpg","date":"2013-04-15","year":2013,"month":4,"lon":-86.778534,"lat":21.0669,"tags":"cancun2013,gigi4791","S2CellId":"8e85000000000000","result":9491,"accuracy":0.13688229,"title":"Piscina+infinita"}
{"id":8474454481,"url":"http://farm9.staticflickr.com/8107/8474454481_5709d8d93d.jpg","path":"ba7/3ee/ba73eeef65544773ed67f0968cc9f9c.jpg","date":"2013-02-09","year":2013,"month":2,"lon":-86.79786,"lat":21.329536,"tags":"isla+blanca,playa","S2CellId":"185c000000000000","result":1431,"accuracy":0.15049021,"title":"isla+blanca"}
{"id":470812545,"url":"http://farm1.staticflickr.com/223/470812545_3bc12659e0.jpg","path":"e0a/28a/e0a28a16c9ecbb6c08ad0e441e0683.jpg","date":"2007-02-27","year":2007,"month":2,"lon":-86.72204,"lat":21.207539,"tags":"atlantic,beach,carribean,islamujeres,island,mexico,ocean,peninsula,quntanaroo,turtle,vacation,yucatan","S2CellId":"88d0a631cabb5071","result":8563,"accuracy":0.015140335,"title":"Turtle+V"}
{"id":2369231003,"url":"http://farm3.staticflickr.com/2023/2369231003_141d21c6eb.jpg","path":"22f/570/22f570fca1a1bb95c627437a19b14e5.jpg","date":"2008-03-24","year":2008,"month":3,"lon":-86.80795,"lat":21.177689,"tags":"beach,cancun,holiday,mexico,nizam,nizam%27s+photo,nizam+uddin,ocean,people,sea,uddin","S2CellId":"8f4c400000000000","result":9516,"accuracy":0.1967758,"title":"Cancun+02+-41"}
{"id":8731082180,"url":"http://farm8.staticflickr.com/7446/8731082180_aa0dd01cdc.jpg","path":"da0/b5e/da0b5ec62d4bc63986eb6d69f5e19c8.jpg","date":"2013-04-15","year":2013,"month":4,"lon":-86.7779,"lat":21.065844,"tags":"cancun2013,gigi4791","S2CellId":"8f4c400000000000","result":9516,"accuracy":0.21531211,"title":"Piscina+infinita"}
{"id":456803307,"url":"http://farm1.staticflickr.com/252/456803307_1e3d4c9e86.jpg","path":"bdd/2ba/bdd2ba192784711f8795d31d453c053.jpg","date":"2007-03-11","year":2007,"month":3,"lon":-86.768814,"lat":21.14487,"tags":"cancun,pirate+ship","S2CellId":"0c60500000000000","result":148,"accuracy":0.0159444,"title":"Cancun+from+the+Sea+2","description":"Pirate+ship+on+the+dock..+I+think+they+hold+some+sort+of+a+battle+scene+at+night.."}
{"id":8210035974,"url":"http://farm9.staticflickr.com/8345/8210035974_a8d62579ee.jpg","path":"e49/99b/e4999b49b271e594804d18f6dca51c.jpg","date":"2012-11-08","year":2012,"month":11,"lon":-84.49276,"lat":21.81516,"tags":"2012,cuba,guanahacabibes,guanahacabibes+biosphere+reserve,guanahacabibes+national+park,hotel+maria+la+gorda,location,maria+la+gorda","S2CellId":"38d0000000000000","result":2441,"accuracy":0.15936267,"title":"CU12_0429a","description":"Hotel+Maria+la+Gorda%2C+restaurant%2C+Guanahacabibes+Biosphere+Reserve%2C+Cuba%2C+121108."}
{"id":5731486369,"url":"http://farm6.staticflickr.com/5103/5731486369_272657ed09.jpg","path":"459/0a7/4590a735bfbcaa126e421071f7d60ed.jpg","date":"2011-05-17","year":2011,"month":5,"lon":-86.80396,"lat":21.243061,"tags":"excellence+playa+mujeres,mexico,riviera+maya","S2CellId":"8f4c400000000000","result":9516,"accuracy":0.23463273,"title":"Lazy+River+bar","description":"Excellence+Playa+Mujeres%2C+Riviera+Maya%2C+Mexico"}
{"id":9310608305,"url":"http://farm8.staticflickr.com/7361/9310608305_ff033282d1.jpg","path":"591/9e7/5919e7766518dfc66cdfaa48692810.jpg","date":"2013-06-29","year":2013,"month":6,"lon":-86.76476,"lat":21.234922,"tags":"isla+mujeres,mexico,myan,ocean,puerto+morelos,quintana+roo,resort,summer,swimming,vacation,water,yucitan","S2CellId":"8f4c400000000000","result":9516,"accuracy":0.038938552,"title":"Mexico+2013","description":"Mexican+Vacation+with+Greg+%26+Kat+June+24+to+July+3%2C+2013%0Ajust+off+the+coast+of+Isla+Mujeres"}
{"id":3075139883,"url":"http://farm4.staticflickr.com/3006/3075139883_9c4eaae2bc.jpg","path":"8e1/c7c/8e1c7cf5c4e771c723ab5c2976c35e7.jpg","date":"2008-11-29","year":2008,"month":11,"lon":-85.374756,"lat":23.024132,"tags":"cruise,honeymoon+2","S2CellId":"5488c00000000000","result":6153,"accuracy":0.050812338,"title":"Cuba%21","description":"First+spotting+of+Cuba."}
{"id":4960256427,"url":"http://farm5.staticflickr.com/4152/4960256427_21ec0aa821.jpg","path":"fd9/188/fd9188835c8aafffb92159ce1ee9660.jpg","date":"2010-09-05","year":2010,"month":9,"lon":-86.74292,"lat":21.135303,"tags":"2010,iberoamerican,preconference,wonca,world","S2CellId":"8834f3c000000000","result":8313,"accuracy":0.07420224,"title":"group_work_14"}
{"id":318070601,"url":"http://farm1.staticflickr.com/131/318070601_7058ca7460.jpg","path":"25b/bd1/25bbd13f809ff940903667e2d95e118f.jpg","date":"2006-12-09","year":2006,"month":12,"lon":-86.743065,"lat":21.250101,"tags":"adventure,cancun,catholic,isla+de+mujeres,jikido,jikido-san,kevin+turpeinen,magna+casa+marriott,mexico,travel,tropical,vacation","S2CellId":"8893000000000000","result":8521,"accuracy":0.006207592,"title":"Nuestra+Se%C3%B1ora+de+la+isla+de+Las+Mujeres"}
{"id":3676978123,"url":"http://farm4.staticflickr.com/3636/3676978123_c4bdc147ff.jpg","path":"6a4/56f/6a456fd1d8cadf0ed7e73ff016ef94.jpg","date":"2009-06-21","year":2009,"month":6,"lon":-86.76807,"lat":21.092968,"tags":"beach,blue,cancun,caribe,caribean,mexico,sea,sky","S2CellId":"892c000000000000","result":8771,"accuracy":0.58055806,"title":"20090621%5B003%5D-CanCun"}
{"id":347305094,"url":"http://farm1.staticflickr.com/124/347305094_a4b5d68e9a.jpg","path":"5b8/ab0/5b8ab08ac55d18c60b57e1a67dfcd5.jpg","date":"2007-01-01","year":2007,"month":1,"lon":-86.73002,"lat":21.233912,"tags":"casa+amarilla,isla+mujeres,mexican+vacation+2006,mexico,quintana+roo,villa+las+brisas,yucatan","S2CellId":"8f4ec00000000000","result":9525,"accuracy":0.22587948,"title":"enjoying+sunset+on+our+other+balcony"}
{"id":5731850104,"url":"http://farm4.staticflickr.com/3214/5731850104_cf88e20de7.jpg","path":"7a3/7a6/7a37a69fe2cf73c16b79c14466ba1feb.jpg","date":"2011-05-17","year":2011,"month":5,"lon":-86.80396,"lat":21.243061,"tags":"excellence+playa+mujeres,mexico,riviera+maya","S2CellId":"94ccc00000000000","result":9694,"accuracy":0.023454444,"title":"Dinner+at+Agave","description":"Excellence+Playa+Mujeres%2C+Riviera+Maya%2C+Mexico"}
{"id":462149236,"url":"http://farm1.staticflickr.com/181/462149236_f2ec5a751d.jpg","path":"86c/448/86c44826ff3632098e6fd5af1cf70.jpg","date":"2004-09-18","year":2004,"month":9,"lon":-86.753746,"lat":21.123865,"tags":"2004,cancun,mexico,quintanaroo","S2CellId":"8c41000000000000","result":9435,"accuracy":0.016506039,"title":"dsc03676.jpg"}
{"id":4895770143,"url":"http://farm5.staticflickr.com/4097/4895770143_cf76d99a1b.jpg","path":"32c/880/32c880ea1d567538fde7c99cc5b14b1.jpg","date":"2010-07-07","year":2010,"month":7,"lon":-86.826775,"lat":21.16159,"tags":"cancun,downtown,downtowncancun,gorytacos,mexico,quintana,quintanaroo,restaurant,roo,yucatan","S2CellId":"47c4100000000000","result":4245,"accuracy":0.0058954796,"title":"Brian+Relaxing","description":"Relaxing+after+lunch+at+Gory+Tacos.++The+restaurant+is+on+a+small+pedestrian+street+between+Parque+de+las+Palapas+and+Avenida+Tulum.++It%27s+an+excellent+place+to+just+sit+and+watch+people+go+by+while+sipping+a+margarita+or+pina+colada."}
{"id":5228682667,"url":"http://farm6.staticflickr.com/5006/5228682667_f9e100308e.jpg","path":"e16/037/e16037f5a19693fd561027cb207e9f1a.jpg","date":"2010-12-03","year":2010,"month":12,"lon":-86.76759,"lat":21.09563,"tags":"ukycc,youthclimatepro","S2CellId":"80dd330000000000","result":7378,"accuracy":0.13673177,"title":"IMG_3220"}
{"id":167631955,"url":"http://farm1.staticflickr.com/48/167631955_ddff53545f.jpg","path":"693/d6f/693d6f18148ef610d5644eaf794e7b.jpg","date":"2004-10-16","year":2004,"month":10,"lon":-86.79216,"lat":21.147913,"tags":"canc%C3%BAn,cocktail,mexico,quintana+roo,tom+cruise","S2CellId":"88f5047400000000","result":8718,"accuracy":0.107727684,"title":"P0000219"}
{"id":6867285063,"url":"http://farm8.staticflickr.com/7196/6867285063_ecacbd4e59.jpg","path":"497/daf/497daf86f794a52012f16cc9e4bb563.jpg","date":"2012-02-11","year":2012,"month":2,"lon":-86.76847,"lat":21.091831,"tags":"beach,cancun,golden+parnassus,honeymoon,mexico","S2CellId":"8f4c400000000000","result":9516,"accuracy":0.035156682,"title":"I+am+waiting+for+you......","description":"I+looked+over+one+day+while+on+the+beach+and+saw+a+lone+lounge+chair+there.++I+had+to+recreate+that+moment."}
{"id":3796386033,"url":"http://farm4.staticflickr.com/3460/3796386033_5e6b2ccdd2.jpg","path":"be7/289/be7289945515d8574c4f3e0b111d2e.jpg","date":"2009-04-02","year":2009,"month":4,"lon":-86.782,"lat":21.03941,"tags":"beach,cancun,westin","S2CellId":"8f4e300000000000","result":9519,"accuracy":0.10705413,"title":"View+looking+right+off+our+patio"}
{"id":6435830099,"url":"http://farm8.staticflickr.com/7026/6435830099_02fee78e5d.jpg","path":"42b/b4f/42bb4f228bba35a81b49901a86e71ef8.jpg","date":"2011-05-08","year":2011,"month":5,"lon":-86.740845,"lat":21.13604,"tags":"landscapes,ocean,outdoors,outside,palm+trees,vacation","S2CellId":"8c13000000000000","result":9418,"accuracy":0.056687113,"title":"P5080917_1"}
{"id":8951144605,"url":"http://farm3.staticflickr.com/2859/8951144605_83a794bb89.jpg","path":"826/321/8263213f73c20c98478e1f6fe46ffa.jpg","date":"2012-07-15","year":2012,"month":7,"lon":-86.80666,"lat":21.188578,"tags":"boats,cancun,cloudy,ferry,gran+puerto,isla+mujeres,puerto+juerez","S2CellId":"88e0a40000000000","result":8645,"accuracy":0.08376916,"title":"Punta+Juarez","description":"Aboard+the+ferry"}
{"id":8731085542,"url":"http://farm8.staticflickr.com/7407/8731085542_86e837228c.jpg","path":"702/414/702414914972734829facb5b27af5715.jpg","date":"2013-04-15","year":2013,"month":4,"lon":-86.7779,"lat":21.065844,"tags":"cancun2013,gigi4791","S2CellId":"8f4c400000000000","result":9516,"accuracy":0.10113978,"title":"Piscina+infinita"}
{"id":9437451059,"url":"http://farm6.staticflickr.com/5335/9437451059_b64bbfaace.jpg","path":"85b/129/85b1298c5fa927a2bca0a73e9ab7b265.jpg","date":"2013-07-29","year":2013,"month":7,"lon":-86.7789,"lat":21.03568,"tags":"cancun,club+med,mexico,pool","S2CellId":"8f4c400000000000","result":9516,"accuracy":0.060242258,"title":"Pool%2C+Club+Med","description":"The+main+pool+in+Club+Med%2C+Cancun%2C+Mexico"}
{"id":347384155,"url":"http://farm1.staticflickr.com/141/347384155_3b32b967ab.jpg","path":"e01/076/e010762cb468a9737430cf5e12ce35.jpg","date":"2007-01-03","year":2007,"month":1,"lon":-86.71152,"lat":21.202316,"tags":"isla+mujeres,mexican+vacation+2006,mexico,punta+sur,quintana+roo,yucatan","S2CellId":"8c13000000000000","result":9418,"accuracy":0.026645739,"title":"only+this+fence+prevents+me+from+diving+into+the+sea"}
{"id":8754700780,"url":"http://farm3.staticflickr.com/2884/8754700780_3018d9b81e.jpg","path":"b28/59b/b2859b5c3eef4ee9eb63d2dc6b82b68.jpg","date":"2013-05-17","year":2013,"month":5,"lon":-86.73787,"lat":21.239695,"tags":"isla+mujeres,mexico,vacation","S2CellId":"8f4fc00000000000","result":9526,"accuracy":0.07537572,"title":"Mexico_2013_198","description":"Mexico+Vacation+2013+++Isla+Mujeres"}
{"id":2300795984,"url":"http://farm3.staticflickr.com/2065/2300795984_926852b61b.jpg","path":"965/142/9651423ee6d949db31ace22693ea4cff.jpg","date":"2008-02-03","year":2008,"month":2,"lon":-86.84143,"lat":21.179289,"tags":"grrrr,lorenia,regina","S2CellId":"91d5c00000000000","result":9634,"accuracy":0.046778824,"title":"Grrr.","description":"Chocolate+and+cinnamon...+or+am+I+VANILLA+next+to+her%3F%21"}
{"id":455205230,"url":"http://farm1.staticflickr.com/251/455205230_930173c457.jpg","path":"837/c66/837c6663ec27d0896340c4f7e679fc.jpg","date":"2007-03-11","year":2007,"month":3,"lon":-86.74667,"lat":21.138308,"tags":"cancun,sea","S2CellId":"8c0c000000000000","result":9416,"accuracy":0.10393996,"title":"Cancun+from+the+Sea+10","description":"Now+you+can+save+that+as+your+wallpaper."}
{"id":5235733277,"url":"http://farm6.staticflickr.com/5045/5235733277_901e7b7ae7.jpg","path":"2a1/86b/2a186b62675c6e8ca88b1798be1235.jpg","date":"2010-12-04","year":2010,"month":12,"lon":-86.840744,"lat":21.174807,"tags":"agriculture,ardd,cancun,ccafs,cgiarclimate,climate","S2CellId":"88e77e4000000000","result":8673,"accuracy":0.17118326,"title":"Agriculture+and+Rural+Development+Day+%28ARDD%29+2010%2C+Canc%C3%BAn%2C+Mexico","description":"On+December+4+2010%2C+in+connection+to+the+COP+16+in+Canc%C3%B9n%2C+Mexico%2C+Climate+Change%2C+Agriculture+and+Food+Security+%28CCAFS%29+and+partners+organised+a+one-day+event+with+the+objective+to+identify+policies+and+practical+solutions+to+reduce+agriculture-related+greenhouse+gas+emissions+and+strengthen+global+food+security+and+rural+development.+The+event+featured+keynote+speeches%2C+roundtable+discussions%2C+a+marketplace+of+ideas+and+exhibits.+Photo%3A+N.+Palmer+%28CIAT%29.+Please+credit+appropriately%0A%0AFind+out+more+about+this+event+by+reading+our+related+blog+story+%3Ca+href%3D%22http%3A%2F%2Fccafs.cgiar.org%2Fblog%2Fsmall-step-agriculture-climate-change-negotiations-and-now-real-work-begins%22+rel%3D%22nofollow%22%3EA+small+step+for+agriculture+in+the+climate+change+negotiations...+and+now+the+real+work+begins%3C%2Fa%3E"}
{"id":5605211142,"url":"http://farm6.staticflickr.com/5066/5605211142_91f9c124f8.jpg","path":"ecc/d65/eccd65b944b2df6854fb2840183448.jpg","date":"2011-04-09","year":2011,"month":4,"lon":-86.788246,"lat":21.14372,"tags":"cancun,torre,vivoencancun","S2CellId":"88d9b44000000000","result":8592,"accuracy":0.20175979,"title":"DSC01056"}
{"id":3473660821,"url":"http://farm4.staticflickr.com/3590/3473660821_35945430b2.jpg","path":"919/634/919634b450678ee987be91b8225f7f11.jpg","date":"2009-02-27","year":2009,"month":2,"lon":-84.04472,"lat":22.706919,"tags":"buceo,cayo+jutia,cuba,pinar+del+rio,scuba","S2CellId":"8e85000000000000","result":9491,"accuracy":0.037030876,"title":"IMG_7661"}
{"id":4925324848,"url":"http://farm5.staticflickr.com/4093/4925324848_3c7dde5c1f.jpg","path":"802/6c3/8026c34822a58e5860a3c54e61fad114.jpg","date":"2010-07-15","year":2010,"month":7,"lon":-86.87602,"lat":21.0423,"tags":"airplane,airport,cancun,cancunairport,delta,jet,mexico,plane,quintana,quintanaroo,roo,yucatan","S2CellId":"8856900000000000","result":8426,"accuracy":0.03874701,"title":"Correct+Plane","description":"Check-In+This+is+the+correct+plane.++And+it+was+pouring+the+day+we+left....just+like+the+day+we+arrived."}
{"id":530657821,"url":"http://farm2.staticflickr.com/1247/530657821_301afe745d.jpg","path":"866/514/86651449b2e2b7f2eaa354652621409d.jpg","date":"2006-01-14","year":2006,"month":1,"lon":-86.83173,"lat":21.171474,"tags":"iguana,xcaret","S2CellId":"548ff00000000000","result":6177,"accuracy":0.007905162,"title":"Se%C3%B1or+Iguana"}
{"id":8389226795,"url":"http://farm9.staticflickr.com/8047/8389226795_ae85927e07.jpg","path":"462/775/462775e1f79eb854a2bb32249ac59eec.jpg","date":"2013-01-14","year":2013,"month":1,"lon":-86.71761,"lat":21.205576,"tags":"aves,cancun,caribe,garraf%C3%B3n,gaviotas,isla,isla+mujeres,mexico,mujeres,parque,sea,water","S2CellId":"8f4c400000000000","result":9516,"accuracy":0.10982135,"title":"Parque+Garraf%C3%B3n+-+Isla+mujeres+-+Canc%C3%BAn+-+Mexico","description":"Gaviotas+disfrutando+de+la+Piscina%0AIsla+Mujeres%2C+Canc%C3%BAn%2C+Mexico"}
{"id":5161806428,"url":"http://farm2.staticflickr.com/1334/5161806428_6d3cd33210.jpg","path":"5b6/3e9/5b63e9917164932e2db52d951165f1e9.jpg","date":"2010-11-07","year":2010,"month":11,"lon":-86.74871,"lat":21.2562,"tags":"cancun,van,van+cancun","S2CellId":"88d7000000000000","result":8573,"accuracy":0.0344247,"title":"DSC_5128"}
{"id":8731184420,"url":"http://farm8.staticflickr.com/7372/8731184420_2442294917.jpg","path":"7c4/845/7c484532a7b64b6e7b2b6bedf115b464.jpg","date":"2013-04-15","year":2013,"month":4,"lon":-86.77855,"lat":21.066628,"tags":"cancun2013,gigi4791","S2CellId":"31da19a300000000","result":1857,"accuracy":0.051173553,"title":"Barul+hotelului+din+Cancun"}
{"id":8729982297,"url":"http://farm8.staticflickr.com/7387/8729982297_a9efd2665a.jpg","path":"cde/014/cde0143b3bb7daca454a1c80127b991c.jpg","date":"2013-04-15","year":2013,"month":4,"lon":-86.778625,"lat":21.065765,"tags":"cancun2013,gigi4791","S2CellId":"8edc000000000000","result":9506,"accuracy":0.12930544,"title":"Hotel+Cancun"}
{"id":164881171,"url":"http://farm1.staticflickr.com/57/164881171_02938d66ea.jpg","path":"ca7/b88/ca7b888af6ea8d03f13aa314758bc18.jpg","date":"2006-06-08","year":2006,"month":6,"lon":-86.75285,"lat":21.26298,"tags":"beach,cancun,gap+year,isla+mujeres,island,mexico,sea,travel","S2CellId":"0b00000000000000","result":126,"accuracy":0.05351354,"title":"Whale+Shark","description":"Not+a+great+photo+really%2C+but+when+it+swam+under+the+boat+we+had+an+amazing+view%21"}
{"id":2266537495,"url":"http://farm3.staticflickr.com/2345/2266537495_ee86c8ff87.jpg","path":"1e3/cc4/1e3cc4ab1cc399dd824dd466461e5c8.jpg","date":"2008-02-12","year":2008,"month":2,"lon":-84.677124,"lat":22.105997,"tags":"30th+birthday,cuba","S2CellId":"6b91040000000000","result":6747,"accuracy":0.032922734,"title":"1242","description":"Shamu+and+my+first+and+last+cigar"}
{"id":3306745628,"url":"http://farm4.staticflickr.com/3649/3306745628_0f73ab671b.jpg","path":"86d/365/86d365958b7ebb67d246f7af6f82bb5.jpg","date":"2009-01-09","year":2009,"month":1,"lon":-86.73196,"lat":21.221636,"tags":"isla+mujeres,sea+turtles,tortugranja,turtle+farm,yucatan","S2CellId":"8085874300000000","result":6973,"accuracy":0.010455134,"title":"more+mini+sea+turtles"}
{"id":3394711008,"url":"http://farm4.staticflickr.com/3625/3394711008_f893caecf8.jpg","path":"d0e/e86/d0ee86dc6fd237698083e597f4fc55b9.jpg","date":"2009-03-22","year":2009,"month":3,"lon":-86.78162,"lat":21.03818,"tags":"cancun,flower,macro,nature","S2CellId":"4879cc0000000000","result":5503,"accuracy":0.01767426,"title":"Cancun+Nature"}
{"id":2564426724,"url":"http://farm4.staticflickr.com/3002/2564426724_f916f3de35.jpg","path":"f21/3ea/f213eac561cd906651147cdd3c8c85a4.jpg","date":"2008-06-08","year":2008,"month":6,"lon":-86.843315,"lat":21.157518,"tags":"chichen+itza","S2CellId":"8f51000000000000","result":9527,"accuracy":0.21670179,"title":"IMG_0365","description":"Chichen+Itza+080608"}
{"id":9386313809,"url":"http://farm3.staticflickr.com/2807/9386313809_8b66af6483.jpg","path":"ccb/08c/ccb08ca610d6dfe245876a47137bcb2.jpg","date":"2013-07-22","year":2013,"month":7,"lon":-86.65741,"lat":21.348223,"tags":"isla+mujeres,manta+ray,mexico","S2CellId":"2bfc000000000000","result":1527,"accuracy":0.08194562,"title":"Manta+ray"}
{"id":6625436059,"url":"http://farm8.staticflickr.com/7173/6625436059_efe4cdc190.jpg","path":"fa6/baa/fa6baa89e433fb32412835d6232768fc.jpg","date":"2011-12-29","year":2011,"month":12,"lon":-86.82598,"lat":21.1608,"tags":"cancun,centro,downtown,mexico","S2CellId":"8661000000000000","result":7673,"accuracy":0.04103653,"title":"Market+23"}
{"id":2219605491,"url":"http://farm3.staticflickr.com/2261/2219605491_2da2d63824.jpg","path":"2b8/510/2b851029ce32e9e79a22e643ce4476ba.jpg","date":"2008-01-25","year":2008,"month":1,"lon":-86.84143,"lat":21.179289,"tags":"111,1111","S2CellId":"3442a83000000000","result":2033,"accuracy":0.027423335,"title":"111+Score%3F+Crappy%2C+but+WOW%21","description":"Yeah%2C+we+all+suck.+Bowling+with+Sam%2C+Regina%2C+and+Fer."}
{"id":11335980676,"url":"http://farm4.staticflickr.com/3760/11335980676_fd97d9b478.jpg","path":"7e2/46d/7e246da9c2c4c8e1ad2c5de554f63f5.jpg","date":"2011-12-09","year":2011,"month":12,"lon":-86.75105,"lat":21.259615,"tags":"art,installation,isla+mujeres,mexico,museum%2Fgallery,north+america,sculpture,snorkelling,statue,underwater","S2CellId":"2bfc000000000000","result":1527,"accuracy":0.10024115,"description":"%C2%A9+Marc+Wisniak+2011%0Amarcwiz%40gmail.com"}
{"id":2977285614,"url":"http://farm4.staticflickr.com/3140/2977285614_9ed87c8716.jpg","path":"96c/7d6/96c7d663ed5ca1f0c46ec458d8378e18.jpg","date":"2008-10-20","year":2008,"month":10,"lon":-86.77301,"lat":21.078636,"tags":"beach,m%C3%A9xico,rivieramaya","S2CellId":"8f4c400000000000","result":9516,"accuracy":0.13218924,"title":"10202008667","description":"vacaciones+en+la+riviera+maya"}
{"id":5161756454,"url":"http://farm5.staticflickr.com/4009/5161756454_6d366a0dbc.jpg","path":"84b/c3b/84bc3b4d5042c3724e58dc27fd04263.jpg","date":"2010-11-07","year":2010,"month":11,"lon":-86.77543,"lat":21.226822,"tags":"cancun,van,van+cancun","S2CellId":"8924000000000000","result":8770,"accuracy":0.06122356,"title":"DSC_4951"}
{"id":2263658914,"url":"http://farm3.staticflickr.com/2382/2263658914_4ac77e904d.jpg","path":"385/678/385678313a6ef1f9348c94d36c5a5d.jpg","date":"2008-02-02","year":2008,"month":2,"lon":-84.65429,"lat":23.204165,"tags":"geekcruise41","S2CellId":"0d19331000000000","result":217,"accuracy":0.09957376}
{"id":7983767632,"url":"http://farm9.staticflickr.com/8179/7983767632_b51aa386b2.jpg","path":"2c6/5a8/2c65a8eee991d1d71035261408c12.jpg","date":"2012-08-24","year":2012,"month":8,"lon":-86.750175,"lat":21.263212,"tags":"isla+mujeres,mexico,quintana+roo","S2CellId":"8ea4000000000000","result":9494,"accuracy":0.1114867,"title":"Whale+Shark+Tour"}
{"id":3053938853,"url":"http://farm4.staticflickr.com/3052/3053938853_7ec9747ab8.jpg","path":"c2b/d12/c2bd12fa18647c1359699f576fcc9144.jpg","date":"2006-02-01","year":2006,"month":2,"lon":-86.81259,"lat":21.18121,"tags":"beach,cancun,mexico,spa","S2CellId":"3468b00000000000","result":2163,"accuracy":0.024405586}
{"id":5394682068,"url":"http://farm5.staticflickr.com/4111/5394682068_7c6f3ce503.jpg","path":"dd2/b47/dd2b479fd64d2a62af7c8ca4ec6d783.jpg","date":"2011-01-21","year":2011,"month":1,"lon":-86.781364,"lat":21.061884,"tags":"aztec,cancun,iguana,mexico,ruins","S2CellId":"88d0a631cabb5071","result":8563,"accuracy":0.00909842,"title":"20110121_Cancun_196"}
{"id":8436060025,"url":"http://farm9.staticflickr.com/8469/8436060025_3dd1bd2960.jpg","path":"bef/91c/bef91c83857fb9145e90a92f7b4588.jpg","date":"2013-01-14","year":2013,"month":1,"lon":-86.788704,"lat":21.137018,"tags":"cancun,caribe,cielo,mar,mexico,sea,sky","S2CellId":"9584000000000000","result":9804,"accuracy":0.09880168,"title":"Mar+Caribe%2C+Cancun+Mexico","description":"Mar+caribe+en+Cancun%2C+Mexico"}
{"id":5746973348,"url":"http://farm6.staticflickr.com/5230/5746973348_e691686c52.jpg","path":"99b/18c/99b18c7491663a583d4396c6b6c7d0.jpg","date":"2009-12-16","year":2009,"month":12,"lon":-86.76032,"lat":21.109425,"tags":"beach,dream,emotion,sunrise","S2CellId":"8f4c400000000000","result":9516,"accuracy":0.0935533,"title":"dream","description":"dificil+de+acreditar+que+eu+ja+estive+nesse+lugar+%28cancun%2C+2009%29"}
{"id":8476197639,"url":"http://farm9.staticflickr.com/8374/8476197639_b090a98176.jpg","path":"415/3cd/4153cdc8d58a96bab39a926f7d6c.jpg","date":"2011-01-15","year":2011,"month":1,"lon":-86.77757,"lat":21.071766,"tags":"cancun,travel","S2CellId":"8f4c400000000000","result":9516,"accuracy":0.5715977,"title":"Cancun+View"}
{"id":2540259475,"url":"http://farm3.staticflickr.com/2407/2540259475_e60d48a0e2.jpg","path":"85a/599/85a599598f2512e40f4d1875cc2161d.jpg","date":"2008-05-26","year":2008,"month":5,"lon":-86.79328,"lat":21.145832,"tags":"beach,cancun,cancun%2C+mexico,mexico,vacation","S2CellId":"8f4c400000000000","result":9516,"accuracy":0.061900526,"title":"IMG_0319"}
{"id":3473386511,"url":"http://farm4.staticflickr.com/3593/3473386511_55d090a5e3.jpg","path":"81d/4bd/81d4bddaee3e7eebb4b33913d775731a.jpg","date":"2009-02-27","year":2009,"month":2,"lon":-84.04472,"lat":22.706919,"tags":"buceo,cayo+jutia,cuba,pinar+del+rio,scuba","S2CellId":"6f00000000000000","result":6856,"accuracy":0.04728356,"title":"IMG_1002"}
{"id":8208883057,"url":"http://farm9.staticflickr.com/8065/8208883057_5455cc23ae.jpg","path":"ff2/bed/ff2bedff90b479a96dcaa875e4a34.jpg","date":"2012-11-07","year":2012,"month":11,"lon":-84.49276,"lat":21.81516,"tags":"2012,cuba,dragonfly,dragonlet,erythrodiplax,erythrodiplax+berenice,guanahacabibes,guanahacabibes+biosphere+reserve,insect,libellulidae,seaside+dragonlet","S2CellId":"865f000000000000","result":7672,"accuracy":0.093444146,"title":"CU12_0256a","description":"Seaside+Dragonlet+at+Hotel+Maria+la+Gorda%2C+Guanahacabibes+Biosphere+Reserve%2C+Cuba%2C+121107.++Erythrodiplax+berenice.++Libellulidae."}
{"id":3473663971,"url":"http://farm4.staticflickr.com/3346/3473663971_eb2ccc428d.jpg","path":"313/989/313989511acbe554cdb3b5176e791f19.jpg","date":"2009-02-27","year":2009,"month":2,"lon":-84.04472,"lat":22.706919,"tags":"buceo,cayo+jutia,cuba,pinar+del+rio,scuba","S2CellId":"185c000000000000","result":1431,"accuracy":0.31525826,"title":"IMG_7675"}
{"id":5343531462,"url":"http://farm6.staticflickr.com/5246/5343531462_9d26a6bd78.jpg","path":"3fa/308/3fa308dc4fba0aa27f9d226686a3118.jpg","date":"2010-12-21","year":2010,"month":12,"lon":-86.780334,"lat":21.055666,"tags":"cancun2010","S2CellId":"151d4cc000000000","result":1387,"accuracy":0.04789088}
{"id":5445542229,"url":"http://farm6.staticflickr.com/5012/5445542229_569333ea5f.jpg","path":"5bb/ae5/5bbae53025a98a7eb7d96b72c9d7d5cd.jpg","date":"2011-02-05","year":2011,"month":2,"lon":-86.75217,"lat":21.258833,"tags":"islamujeres,mexico,quintanaroo","S2CellId":"88fd000000000000","result":8754,"accuracy":0.016549079,"title":"Sand+n+Lemon"}
{"id":3362397219,"url":"http://farm4.staticflickr.com/3468/3362397219_916591c3e2.jpg","path":"8ce/fcc/8cefcca1df37d9cac422bd807fe1f75.jpg","date":"2009-03-17","year":2009,"month":3,"lon":-86.74261,"lat":21.135204,"tags":"animals,cancun,iguana,lizard,mexico,reptile,wildlife","S2CellId":"88d9f00000000000","result":8605,"accuracy":0.052984457,"title":"Iguana"}
{"id":3473378621,"url":"http://farm4.staticflickr.com/3302/3473378621_cb942efbbb.jpg","path":"f82/724/f82724dcc59683f28d594eeda5cb791.jpg","date":"2009-02-27","year":2009,"month":2,"lon":-84.04472,"lat":22.706919,"tags":"buceo,cayo+jutia,cuba,pinar+del+rio,scuba","S2CellId":"6500000000000000","result":6575,"accuracy":0.11072789,"title":"IMG_0977"}
{"id":3474478642,"url":"http://farm4.staticflickr.com/3347/3474478642_b2d2ddf46b.jpg","path":"531/b99/531b9962a9991d61cf04ba078f0dd82.jpg","date":"2009-02-27","year":2009,"month":2,"lon":-84.04472,"lat":22.706919,"tags":"buceo,cayo+jutia,cuba,pinar+del+rio,scuba","S2CellId":"88c3100000000000","result":8541,"accuracy":0.080920056,"title":"IMG_7720"}
{"id":9461053695,"url":"http://farm8.staticflickr.com/7426/9461053695_9ceb456b57.jpg","path":"c64/6c4/c646c4c112ab71fd936059206c202959.jpg","date":"2013-08-07","year":2013,"month":8,"lon":-86.75742,"lat":21.120026,"tags":"canc%C3%BAn,cloud,cloudy,day,golf,grass,green,tree","S2CellId":"88db300000000000","result":8609,"accuracy":0.23929606,"title":"The+fairways+at+the+Moon+Palace+Spa+Resort"}
{"id":5228684013,"url":"http://farm6.staticflickr.com/5042/5228684013_d2c6f4dbfd.jpg","path":"b69/439/b69439eda3d4221a5663dfa8ca9e779.jpg","date":"2010-12-03","year":2010,"month":12,"lon":-86.76759,"lat":21.09563,"tags":"ukycc,youthclimatepro","S2CellId":"89e24c0000000000","result":9295,"accuracy":0.02276973,"title":"IMG_3300"}
{"id":8210002282,"url":"http://farm9.staticflickr.com/8338/8210002282_b63a93932d.jpg","path":"90c/a99/90ca99613985bcfaee3324d6321f97a.jpg","date":"2012-11-07","year":2012,"month":11,"lon":-84.49276,"lat":21.81516,"tags":"2012,bird,cuba,guanahacabibes,guanahacabibes+biosphere+reserve,guanahcabibes,guanahcabibes+biosphere+reserve,melanerpes,melanerpes+superciliaris,picidae,piciformes,west+indian+woodpecker,woodpecker","S2CellId":"8085790000000000","result":6916,"accuracy":0.015765445,"title":"CU12_0386a","description":"West+Indian+Woodpecker+at+Hotel+Maria+la+Gorda%2C+Guanahacabibes+National+Park%2C+Cuba%2C+121107.+++Melanerpes+superciliaris.+Piciformes%3A+Picidae."}
{"id":4831532031,"url":"http://farm5.staticflickr.com/4112/4831532031_2abce8585f.jpg","path":"1c1/11f/1c111f77163fa9dd153d9eb46939ed.jpg","date":"2010-07-26","year":2010,"month":7,"lon":-86.754395,"lat":21.123175,"tags":"cancun,complaint,fraud,ixtapa,kivc,krystal+international+vacation+club,mexico,puerto+vallarta,scam","S2CellId":"8f4c400000000000","result":9516,"accuracy":0.054359965,"title":"Krystal+Internation+Vacation+Club+%28KIVC%29+Cancun","description":"The+Krystal+International+Vacation+Club+resorts+are+amongst+the+best+known%0Aand+loved+in+Mexico.+All+of+our+resorts+are+ocean+front+and+well+situated+in%0Athe+heart+of+their+respective+destinations%3A+Cancun%2C+Puerto+Vallarta+and%0AIxtapa%2C+Mexico."}
{"id":5161814956,"url":"http://farm2.staticflickr.com/1132/5161814956_71ee0ccc5e.jpg","path":"aa1/eb3/aa1eb3d3cbc39f65c413333914568b5.jpg","date":"2010-11-07","year":2010,"month":11,"lon":-86.77543,"lat":21.226822,"tags":"cancun,van,van+cancun","S2CellId":"2bfc000000000000","result":1527,"accuracy":0.13318524,"title":"DSC_5163"}
{"id":2353930031,"url":"http://farm4.staticflickr.com/3161/2353930031_3a5b3faac0.jpg","path":"724/14b/72414b5b54247476f455b865a44d246.jpg","date":"2008-03-01","year":2008,"month":3,"lon":-86.781,"lat":21.038343,"tags":"adam,adam+and+mindy+hersh,cancun,hersh,mindy,wedding","S2CellId":"8f4e440000000000","result":9520,"accuracy":0.12735191,"title":"DSCN6124"}
{"id":3316855493,"url":"http://farm4.staticflickr.com/3345/3316855493_686aea2e34.jpg","path":"3c9/aae/3c9aae1cce162ba0d2f6148e3f2ef93.jpg","date":"2009-02-17","year":2009,"month":2,"lon":-84.49224,"lat":21.932535,"tags":"bee+hummingbird,bird,caribbean-tnc09,cuba,d80,globalbirdtrekkers,mellisuga+helenae,nikkor+18-200+vr","S2CellId":"88d0a631cabb5071","result":8563,"accuracy":0.13556473,"title":"Bee+Hummingbird","description":"Adult+Male%0AParque+Nationale+Guanahacabibes%2C+Pinar+del+Rio"}
{"id":6503011151,"url":"http://farm8.staticflickr.com/7003/6503011151_4b66405425.jpg","path":"d65/04d/d6504d73ff87f7e44b3724de8c27c95.jpg","date":"2011-12-02","year":2011,"month":12,"lon":-86.872375,"lat":21.04233,"tags":"aeropuerto,canc%C3%BAn","S2CellId":"88d9b44000000000","result":8592,"accuracy":0.033081304,"title":"Aeropuerto+Canc%C3%BAn"}
{"id":94255858,"url":"http://farm1.staticflickr.com/13/94255858_ba25b78b9b.jpg","path":"79c/e7f/79ce7ffa132a7d7e278ade70126c1a66.jpg","date":"2005-01-12","year":2005,"month":1,"lon":-86.8004,"lat":21.497477,"tags":"canon+d60,isla+contoy,mexico,yucatan","S2CellId":"8620af4000000000","result":7522,"accuracy":0.3054698}
{"id":2152204355,"url":"http://farm3.staticflickr.com/2053/2152204355_c41ba0ef65.jpg","path":"4b2/74e/4b274e18f8230c8f62ef3d326573571.jpg","date":"2007-12-25","year":2007,"month":12,"lon":-86.74693,"lat":21.135103,"tags":"mexico","S2CellId":"808de50000000000","result":6992,"accuracy":0.024833098,"title":"DSC02278"}
{"id":5394793424,"url":"http://farm5.staticflickr.com/4079/5394793424_8d7d0c07de.jpg","path":"7c7/ae1/7c7ae15888bdfd9e2b4bf8f392a46.jpg","date":"2011-01-21","year":2011,"month":1,"lon":-86.781364,"lat":21.061884,"tags":"aztec,cancun,iguana,mexico,ruins","S2CellId":"9aab000000000000","result":9926,"accuracy":0.24199373,"title":"20110121_Cancun_268"}
{"id":8433507797,"url":"http://farm9.staticflickr.com/8374/8433507797_3ba3b3ee07.jpg","path":"542/7c7/5427c787e69a75953c76636ff6f6db21.jpg","date":"2013-01-15","year":2013,"month":1,"lon":-86.77263,"lat":21.143084,"tags":"beach,cancun,caribe,landscape,mexico,outdoors,resort,riu,sand,sea,sol,sun","S2CellId":"8f4c400000000000","result":9516,"accuracy":0.13421324,"title":"Riu+Caribe+Resort+Cancun+Mexico","description":"Beach"}
{"id":94186876,"url":"http://farm1.staticflickr.com/12/94186876_b28b8d9f7f.jpg","path":"b3f/122/b3f1224aa5a1556ab1d622a2247114b.jpg","date":"2005-01-10","year":2005,"month":1,"lon":-86.801216,"lat":21.234062,"tags":"cancun,canon+d60,mexico,yucatan","S2CellId":"8f4c400000000000","result":9516,"accuracy":0.1311225,"description":"I+guess+fisherman+park+their+pangas+here+as+well..."}
{"id":94249722,"url":"http://farm1.staticflickr.com/19/94249722_32881789a0.jpg","path":"df6/e28/df6e2821a1a6f9c09d1fc285ae92abb8.jpg","date":"2005-01-12","year":2005,"month":1,"lon":-86.8004,"lat":21.497477,"tags":"birds,canon+d60,isla+contoy,mexico,yucatan","S2CellId":"9aab000000000000","result":9926,"accuracy":0.25394443,"description":"Swooping+around."}
{"id":2124078970,"url":"http://farm3.staticflickr.com/2380/2124078970_921c56458a.jpg","path":"8cb/35b/8cb35b53ca6a6d36d21f4cc410fa30e2.jpg","date":"2007-12-19","year":2007,"month":12,"lon":-86.8234,"lat":21.171045,"tags":"beach,beer,cancun,carribean,holiday,mexico,ross,sea,sun,travel","S2CellId":"8f4c400000000000","result":9516,"accuracy":0.2941048,"title":"First+step+into+Carribean"}
{"id":3324500865,"url":"http://farm4.staticflickr.com/3539/3324500865_94d5aff89c.jpg","path":"a2f/98d/a2f98dbd37413b4e30bfbb97ba2d57.jpg","date":"2009-01-10","year":2009,"month":1,"lon":-86.74981,"lat":21.25922,"tags":"isla+mujeres,lucas,mexico,renee,yucatan","S2CellId":"14dfc00000000000","result":1337,"accuracy":0.117381215,"title":"don%27t+trip"}
{"id":5364916827,"url":"http://farm6.staticflickr.com/5245/5364916827_bf95ceb666.jpg","path":"c24/75f/c2475f318fe3b225f2ff0d9393975.jpg","date":"2010-12-05","year":2010,"month":12,"lon":-86.74536,"lat":21.135506,"tags":"cambio+clim%C3%A1tico,convenci%C3%B3n,exposici%C3%B3n,fiesta+americana+grand+coral+beach,green+solutions,inversi%C3%B3n,negocio","S2CellId":"88e77e4000000000","result":8673,"accuracy":0.10632343,"title":"M%C3%B3dulo+de+Informaci%C3%B3n"}
