{"id":6712659717,"url":"http://farm8.staticflickr.com/7012/6712659717_8bbcd123fd.jpg","path":"12c/4ee/12c4eeda4823ff2ee65de765c4ca0.jpg","date":"2011-07-07","year":2011,"month":7,"lon":-78.02778,"lat":9.228013,"tags":"2011,adam,adam+reeder,ailigandi,central+america,panama,photography,reeder,san+blas,summer,travel,world","S2CellId":"0704000000000000","result":74,"accuracy":0.0884586,"title":"Ailigandi+56"}
{"id":3820077504,"url":"http://farm3.staticflickr.com/2559/3820077504_d5008ec3c7.jpg","path":"f7b/e9d/f7be9d92d6537b7eecb37f2a1da5e714.jpg","date":"2009-07-07","year":2009,"month":7,"lon":-78.13011,"lat":9.271979,"tags":"kuna+yala,san+blas,san+ignacio+de+tupile","S2CellId":"7954400000000000","result":6868,"accuracy":0.05941263}
{"id":1474367660,"url":"http://farm2.staticflickr.com/1030/1474367660_55524e99ac.jpg","path":"624/68c/62468c5c9e1ecc8ef01ba5305cd793.jpg","date":"2007-02-25","year":2007,"month":2,"lon":-78.95805,"lat":9.473106,"tags":"carti,kuna+yala,panama,san+blas,winter+%2706%2F%2707","S2CellId":"398c000000000000","result":2482,"accuracy":0.1301544,"title":"IMG_0207.JPG"}
{"id":2639068775,"url":"http://farm4.staticflickr.com/3105/2639068775_9693b2cc33.jpg","path":"47d/f17/47df17a5163f020795447c11321ac7.jpg","date":"2008-04-25","year":2008,"month":4,"lon":-78.59224,"lat":9.434075,"tags":"2008,2008-04,canbombia,panama,san-blas,sunset","S2CellId":"3b30000000000000","result":2535,"accuracy":0.116104655,"title":"p1020585.jpg"}
{"id":6691662523,"url":"http://farm8.staticflickr.com/7031/6691662523_7fa9e2fdf2.jpg","path":"eea/86d/eea86dba4549f79e1f8a33a2881fa84.jpg","date":"2011-07-07","year":2011,"month":7,"lon":-78.23686,"lat":9.300526,"tags":"2011,adam,adam+reeder,central+america,panama,photography,playon+chico,reeder,san+blas,summer,travel,world","S2CellId":"185c000000000000","result":1431,"accuracy":0.11392098,"title":"Playon+Chico+45"}
{"id":4466774093,"url":"http://farm5.staticflickr.com/4047/4466774093_dc543be0fe.jpg","path":"50f/92b/50f92bc6994ba7a41e8712315bbc635a.jpg","date":"2010-03-01","year":2010,"month":3,"lon":-78.88527,"lat":9.500196,"tags":"anfamiliebarth,beach,caribbean,caribe,color,fuji+pro160c,holga,ishootfilm,kuna,kuna+yala,panama,playa,san+blas+islands","S2CellId":"3b70000000000000","result":2537,"accuracy":0.029418118,"title":"Boat%2C+island","description":"Kuna+Yala+%28San+Blas+islands%29%2C+Panama+2010"}
{"id":2639086525,"url":"http://farm4.staticflickr.com/3076/2639086525_e3c443b1c7.jpg","path":"8cd/868/8cd868cca2de4c3b3b38f8f2b91afda6.jpg","date":"2008-05-21","year":2008,"month":5,"lon":-78.59224,"lat":9.434075,"tags":"2008,2008-05,east-lemons,panama,san-blas","S2CellId":"8e54000000000000","result":9483,"accuracy":0.16765253,"title":"East+Lemons"}
{"id":5272819090,"url":"http://farm6.staticflickr.com/5089/5272819090_04a658e30a.jpg","path":"45d/4ec/45d4ec1c44f50cbb28cdd539cc317.jpg","date":"2010-11-24","year":2010,"month":11,"lon":-78.18283,"lat":9.296826,"tags":"panama","S2CellId":"8e54000000000000","result":9483,"accuracy":0.10560554,"title":"leaving+Yandup+Island","description":"Panama"}
{"id":6691659591,"url":"http://farm8.staticflickr.com/7151/6691659591_2b3217fc23.jpg","path":"44c/bae/44cbae49fa1e55f44d84ed953994b6d5.jpg","date":"2011-07-07","year":2011,"month":7,"lon":-78.23686,"lat":9.300526,"tags":"2011,adam,adam+reeder,central+america,panama,photography,playon+chico,reeder,san+blas,summer,travel,world","S2CellId":"7100000000000000","result":6857,"accuracy":0.16565116,"title":"Playon+Chico+21"}
{"id":8653074060,"url":"http://farm9.staticflickr.com/8120/8653074060_1c2ccb179d.jpg","path":"175/168/175168dfd7ae7b5de44a46dc6259a521.jpg","date":"2013-03-10","year":2013,"month":3,"lon":-78.72082,"lat":9.604135,"tags":"bicycle,blas,colombia,islands,kuna,panama,sailboat,san,touring,travel,tropical,we+go+slow","S2CellId":"8f4c400000000000","result":9516,"accuracy":0.03939841,"title":"Driftwood"}
