{"id":5184441132,"url":"http://farm2.staticflickr.com/1044/5184441132_c76f232ffe.jpg","path":"c2d/e7a/c2de7a5fe7f35cdb0564f4bcd7f173f.jpg","date":"2010-09-22","year":2010,"month":9,"lon":25.268726,"lat":37.39164,"tags":"delos,viaggiosaiadodecaneso-cicladi,z","S2CellId":"4888900000000000","result":5751,"accuracy":0.02807305,"title":"DSCN0599.JPG"}
{"id":9319057337,"url":"http://farm6.staticflickr.com/5321/9319057337_4e3ecd31e0.jpg","path":"fd3/4fa/fd34fae275d4ebcd0f2ed91f2523ef0.jpg","date":"2013-06-30","year":2013,"month":6,"lon":25.587513,"lat":37.078125,"tags":"egeo,greece,naxos","S2CellId":"12bf000000000000","result":835,"accuracy":0.049386684,"title":"Fisherman+at+Moutsouna%2C+Naxos"}
{"id":3715183614,"url":"http://farm3.staticflickr.com/2516/3715183614_ab6c007535.jpg","path":"cbc/6ef/cbc6ef3c979ce1663ec5766b9993961.jpg","date":"2009-06-28","year":2009,"month":6,"lon":25.332413,"lat":37.45224,"tags":"greece,mykonos","S2CellId":"14a3000000000000","result":1264,"accuracy":0.34346828,"title":"Pelican%21","description":"Island+mascot"}
{"id":6066717291,"url":"http://farm7.staticflickr.com/6069/6066717291_aa5e858c4b.jpg","path":"5d8/0db/5d80db3c3ad1f1f421e8fda734a65bbf.jpg","date":"2011-08-08","year":2011,"month":8,"lon":25.34844,"lat":37.409504,"tags":"cyclades,greece,mykonos,paraga,plati+gialos","S2CellId":"54bec00000000000","result":6298,"accuracy":0.056529496,"title":"IMG_4428"}
{"id":222251678,"url":"http://farm1.staticflickr.com/64/222251678_1daf96ad04.jpg","path":"5f1/f50/5f1f5022b3712d99b545986d948bac6d.jpg","date":"2006-08-22","year":2006,"month":8,"lon":25.334988,"lat":37.451286,"tags":"greece,mykonos,vacation","S2CellId":"14a3000000000000","result":1264,"accuracy":0.11679901,"title":"Mykonos+14"}
{"id":2639658210,"url":"http://farm4.staticflickr.com/3062/2639658210_80ccea044a.jpg","path":"655/115/6551157a75a09594ed6202d4d6c52f1.jpg","date":"2008-06-29","year":2008,"month":6,"lon":25.372581,"lat":37.110706,"tags":"greece,naxos","S2CellId":"89fb400000000000","result":9399,"accuracy":0.07201778,"title":"IMG_5712"}
{"id":203861377,"url":"http://farm1.staticflickr.com/58/203861377_117bfeadba.jpg","path":"551/d52/551d52593b716c91c38e32baa56d734.jpg","date":"2005-09-03","year":2005,"month":9,"lon":25.099382,"lat":37.037502,"tags":"amis,antiparos,gr%C3%A8ce,grotte,kite,kite+surf","S2CellId":"1498400000000000","result":1228,"accuracy":0.078501925,"title":"P1000772"}
{"id":3625076319,"url":"http://farm4.staticflickr.com/3308/3625076319_8a601af555.jpg","path":"734/2c7/7342c79512d1eab80a2bf8cec242e.jpg","date":"2009-05-30","year":2009,"month":5,"lon":25.155945,"lat":37.08531,"tags":"%CE%BE%CF%89%CE%BA%CE%BB%CE%B7%CF%83%CF%83%CE%B9%CE%B1,%CF%80%CE%AC%CF%81%CE%BF%CF%82,aegean+sea,blue+greek+sky,cyclades+islands,paros+island,sea+gulls+in+greek+seas,small+greek+churches","S2CellId":"3bab000000000000","result":2541,"accuracy":0.013245372,"title":"net+mending+is+a+very+tidious+work"}
{"id":2948398015,"url":"http://farm4.staticflickr.com/3156/2948398015_9b80043b2b.jpg","path":"69e/4da/69e4dad874dded95642fef7c8e76cf4f.jpg","date":"2008-10-02","year":2008,"month":10,"lon":25.327005,"lat":37.447765,"tags":"mykonos","S2CellId":"14a3000000000000","result":1264,"accuracy":0.40226954,"title":"IMG_0192.JPG"}
{"id":174164280,"url":"http://farm1.staticflickr.com/47/174164280_1ec18c34b1.jpg","path":"af7/c4b/af7c4bbf689151504b3213dd6475ea90.jpg","date":"2006-06-15","year":2006,"month":6,"lon":25.328465,"lat":37.448013,"tags":"greece,mykonos","S2CellId":"14a3000000000000","result":1264,"accuracy":0.41654515,"description":"Little+Venice+%28aka+Alefkandra%29."}
{"id":6063080847,"url":"http://farm7.staticflickr.com/6207/6063080847_520107a873.jpg","path":"bab/c34/babc34a57859d3e62c9b4841d7c1eb51.jpg","date":"2011-08-15","year":2011,"month":8,"lon":25.31617,"lat":37.422363,"tags":"aghios+ioannis,cyclades,greece,mykonos,ornos,shirley+valentine","S2CellId":"14a3000000000000","result":1264,"accuracy":0.904647,"title":"Walking+to+Ornos"}
{"id":2908687429,"url":"http://farm4.staticflickr.com/3149/2908687429_4106c7dafa.jpg","path":"94d/456/94d456366663c7b8763febba14569.jpg","date":"2008-09-26","year":2008,"month":9,"lon":25.310268,"lat":37.42416,"tags":"2008,fotos+encadenadas,mykonos,pel%C3%ADcano","S2CellId":"14a3000000000000","result":1264,"accuracy":0.1858341,"title":"2008+El+pel%C3%ADcano+de+Mykonos","description":"El+pel%C3%ADcano+y+el+gato%2C+en+Mykonos"}
{"id":5038068583,"url":"http://farm5.staticflickr.com/4148/5038068583_8b789f4671.jpg","path":"4db/0a3/4db0a3a69adbd5ec859ab5dee26545b6.jpg","date":"2010-09-17","year":2010,"month":9,"lon":25.45016,"lat":37.084747,"tags":"28.0-300.0+mm+f%2F3.5-5.6,echse,naxos","S2CellId":"0d5d000000000000","result":499,"accuracy":0.0070053376,"title":"Griechenland+2010","description":"7.+Tag%3A+Landesinneres+von+Naxos.+Echse."}
{"id":7985391871,"url":"http://farm9.staticflickr.com/8037/7985391871_8cd1cd825b.jpg","path":"31c/f8a/31cf8a84a7aa1a5aa8ddbf8aec325f15.jpg","date":"2012-08-08","year":2012,"month":8,"lon":25.312672,"lat":37.438507,"tags":"-berlin,-cannes,-mykonos,blue,design,grece,greece,greek,happiness,hotel,luxe,mountains,ocean,orange,paradise,saintjohn,sea,sky,skyland,sunset,view,warm","S2CellId":"1499cb0000000000","result":1232,"accuracy":0.37647626,"title":"DSC_1043"}
{"id":5038078417,"url":"http://farm5.staticflickr.com/4110/5038078417_9beb4550a2.jpg","path":"b32/0c6/b320c6e03d60e554fb3c2df17eed278d.jpg","date":"2010-09-17","year":2010,"month":9,"lon":25.493025,"lat":37.080902,"tags":"af+micro-nikkor+105mm+f%2F2.8,echse,naxos","S2CellId":"12a4840000000000","result":693,"accuracy":0.013695606,"title":"Griechenland+2010","description":"7.+Tag%3A+Landesinneres+von+Naxos.+Koronos."}
{"id":6627333307,"url":"http://farm8.staticflickr.com/7035/6627333307_b4b7171345.jpg","path":"a76/f19/a76f19dbe6076a599b416906211dd90.jpg","date":"2011-12-15","year":2011,"month":12,"lon":25.38129,"lat":37.45177,"tags":"gatos,griegos","S2CellId":"14a3000000000000","result":1264,"accuracy":0.06980105,"title":"%C2%BFAmigos+o+pareja%3F","description":"En+la+isla+de+Mykonos%2C+los+gatos+aparecen+en+cada+esquina."}
{"id":4862021849,"url":"http://farm5.staticflickr.com/4123/4862021849_6fc9c8f888.jpg","path":"e51/7ad/e517ad89ce0cef280d5ef104ecb8b1e.jpg","date":"2010-08-05","year":2010,"month":8,"lon":25.328554,"lat":37.451073,"tags":"crossprocess,fuji+provia100f,geece,green,hellada,island,mykonos,rolleicord+vb,sea,summer","S2CellId":"0d1b400000000000","result":239,"accuracy":0.042908598,"title":"for+web_Fuji+PROVIA+100F_002"}
{"id":8162171209,"url":"http://farm9.staticflickr.com/8478/8162171209_8a21b84140.jpg","path":"a73/947/a73947fe75919b03a99bfad34fc662.jpg","date":"2012-09-19","year":2012,"month":9,"lon":25.374166,"lat":37.1,"tags":"beach,chairs,greece,hipstamatic,iphone,naxos,sand,trees","S2CellId":"07b4000000000000","result":115,"accuracy":0.0175941,"title":"Meeting+in+the+Shade"}
{"id":2952938767,"url":"http://farm4.staticflickr.com/3294/2952938767_e308b28911.jpg","path":"c8f/52f/c8f52f6fe8837f86feead630833c35ba.jpg","date":"2007-11-15","year":2007,"month":11,"lon":25.383438,"lat":37.42232,"tags":"greece,greek,island,mykonos,town","S2CellId":"14a3000000000000","result":1264,"accuracy":0.6695288,"title":"SANY8155"}
{"id":5184434514,"url":"http://farm5.staticflickr.com/4110/5184434514_9319d58a1a.jpg","path":"b96/7dc/b967dc6a7db7c7a9b7bc83b539c31b0.jpg","date":"2010-09-22","year":2010,"month":9,"lon":25.268726,"lat":37.39164,"tags":"delos,viaggiosaiadodecaneso-cicladi,z","S2CellId":"133bbc0000000000","result":1153,"accuracy":0.17195566,"title":"DSCN0595.JPG"}
{"id":2909470074,"url":"http://farm3.staticflickr.com/2246/2909470074_c5e4e8ace9.jpg","path":"468/3e1/4683e195b7bff630cafa1ae1194ebaf6.jpg","date":"2008-09-26","year":2008,"month":9,"lon":25.310268,"lat":37.42416,"tags":"2008,iglesia,mykonos","S2CellId":"14a3000000000000","result":1264,"accuracy":0.51741225,"title":"2008+Mykonos"}
{"id":4409736357,"url":"http://farm3.staticflickr.com/2724/4409736357_260d20134b.jpg","path":"c22/a3a/c22a3a513b4348d23f81514571f8751d.jpg","date":"2009-10-07","year":2009,"month":10,"lon":25.270958,"lat":37.39839,"tags":"greece,mykonos","S2CellId":"14a3000000000000","result":1264,"accuracy":0.9791118}
{"id":9723898736,"url":"http://farm6.staticflickr.com/5467/9723898736_604c3aef35.jpg","path":"2b2/1cd/2b21cd98504d6b9025c2765e782e579.jpg","date":"2013-09-06","year":2013,"month":9,"lon":25.210705,"lat":37.059696,"tags":"cyclades,gr%C3%A8ce,lefkes,paros","S2CellId":"0d22c00000000000","result":251,"accuracy":0.035274316,"title":"Village+de+LEFKES%2C+sur+l%27%C3%AEle+de+PAROS"}
{"id":10823682344,"url":"http://farm8.staticflickr.com/7296/10823682344_bf1b919a70.jpg","path":"d7b/058/d7b058cfddcedeb9aa37b6d776f6191.jpg","date":"2013-09-15","year":2013,"month":9,"lon":25.391293,"lat":37.00262,"tags":"greece,naxos,opa,sheep","S2CellId":"1dd4000000000000","result":1461,"accuracy":0.04706382,"title":"Greece+2013"}
{"id":3853380685,"url":"http://farm4.staticflickr.com/3537/3853380685_c0c6423250.jpg","path":"3b9/1d2/3b91d2d9f680fc4009187fbef8a9a8.jpg","date":"2006-07-08","year":2006,"month":7,"lon":25.32898,"lat":37.447502,"tags":"2006,alleys,greece,holiday,mykonos,narrow","S2CellId":"14a3000000000000","result":1264,"accuracy":0.6511686,"title":"Narrow+alley+2","description":"One+thing+I+did+notice+in+the+narrow+alleys+was+that+they+were+very+clean.+I+don%27t+remember+seeing+any+litter+at+all."}
{"id":204679960,"url":"http://farm1.staticflickr.com/71/204679960_733bfa04ba.jpg","path":"ab2/577/ab2577dabc448aeae46d50412bb8ab51.jpg","date":"2005-09-04","year":2005,"month":9,"lon":25.148993,"lat":37.084145,"tags":"amis,gr%C3%A8ce,parikia,paroikia,paros,shopping,vacances","S2CellId":"149b400000000000","result":1238,"accuracy":0.24216953,"title":"P1000854"}
{"id":3598458746,"url":"http://farm4.staticflickr.com/3317/3598458746_cf39127e68.jpg","path":"53a/293/53a2936daa55437c6f1156ad84c2b.jpg","date":"2009-05-21","year":2009,"month":5,"lon":25.421309,"lat":37.441307,"tags":"greece,may+2009,mykonos,travel","S2CellId":"7c00100000000000","result":6878,"accuracy":0.100248456,"title":"Mykonos+May+2009","description":"At+the+Thalassa+beach+restaurant+at+Kalafatis"}
{"id":5184351564,"url":"http://farm5.staticflickr.com/4126/5184351564_1be5edaba9.jpg","path":"573/a28/573a2876a79f2bfd7986595e9cd7e71f.jpg","date":"2010-09-22","year":2010,"month":9,"lon":25.268726,"lat":37.39164,"tags":"delos,viaggiosaiadodecaneso-cicladi,z","S2CellId":"14a3000000000000","result":1264,"accuracy":0.6033116,"title":"DSCN0540.JPG"}
{"id":5184603623,"url":"http://farm2.staticflickr.com/1304/5184603623_c9f7fbb90d.jpg","path":"0dc/6b3/0dc6b335ff37e37987f1d10bcefacbe.jpg","date":"2010-09-22","year":2010,"month":9,"lon":25.268726,"lat":37.39164,"tags":"delos,viaggiosaiadodecaneso-cicladi,z","S2CellId":"07a9000000000000","result":100,"accuracy":0.013785208,"title":"DSCN0699.JPG"}
{"id":4410452188,"url":"http://farm3.staticflickr.com/2773/4410452188_2f34cdd8fe.jpg","path":"5c1/de5/5c1de5934146aea6f64e5197a92a0.jpg","date":"2009-10-07","year":2009,"month":10,"lon":25.270958,"lat":37.39839,"tags":"greece,mykonos","S2CellId":"14a1bd3400000000","result":1256,"accuracy":0.36396864}
{"id":9319127185,"url":"http://farm4.staticflickr.com/3691/9319127185_9599cf522c.jpg","path":"c88/187/c8818761e3b2158a1c6bce8698abc7.jpg","date":"2013-07-03","year":2013,"month":7,"lon":25.231115,"lat":37.399883,"tags":"egeo,greece,mikonos","S2CellId":"4763000000000000","result":3311,"accuracy":0.08540352,"title":"Dave+raising+the+main+as+we+leave+Rineia"}
{"id":4873719547,"url":"http://farm5.staticflickr.com/4136/4873719547_81dc7327a6.jpg","path":"62a/865/62a8653a56be611531bfe3bccb3524.jpg","date":"2010-07-20","year":2010,"month":7,"lon":25.327263,"lat":37.44665,"tags":"eleanor,greece,mykonos","S2CellId":"151d4c4000000000","result":1386,"accuracy":0.091470644,"title":"IMG_7767"}
{"id":2953964200,"url":"http://farm4.staticflickr.com/3053/2953964200_c8df34762f.jpg","path":"238/13a/23813aab9c77b8e3460a94bfdb1e5d1.jpg","date":"2007-11-15","year":2007,"month":11,"lon":25.383438,"lat":37.42232,"tags":"greece,greek,island,mykonos","S2CellId":"94ce59f000000000","result":9723,"accuracy":0.0071039894,"title":"SANY8219"}
{"id":5185746124,"url":"http://farm2.staticflickr.com/1414/5185746124_55a177059d.jpg","path":"5bf/029/5bf0293111f5e809fd1aaeec95020f4.jpg","date":"2010-09-22","year":2010,"month":9,"lon":25.268726,"lat":37.39164,"tags":"delos,viaggiosaiadodecaneso-cicladi,z","S2CellId":"14a3000000000000","result":1264,"accuracy":0.1609587,"title":"DSCN0807.JPG"}
{"id":5186485645,"url":"http://farm5.staticflickr.com/4091/5186485645_d065c7ce56.jpg","path":"193/c23/193c23c0c619b0ec6f751b8d886c6a2.jpg","date":"2010-09-23","year":2010,"month":9,"lon":25.268726,"lat":37.39164,"tags":"delos,museo_delo,viaggiosaiadodecaneso-cicladi,z","S2CellId":"94ce5b4000000000","result":9726,"accuracy":0.034446526,"title":"DSCN8834.JPG"}
{"id":3127098902,"url":"http://farm4.staticflickr.com/3255/3127098902_945609821c.jpg","path":"e1a/e87/e1ae879044abf770d07e580a57e96b6.jpg","date":"2005-08-27","year":2005,"month":8,"lon":25.327349,"lat":37.44655,"tags":"aegean+sea,greece,greek+islands,mykonos,mykonos+town,sunset","S2CellId":"4763000000000000","result":3311,"accuracy":0.10132956,"title":"Sunset+sequence+1"}
{"id":3715175128,"url":"http://farm3.staticflickr.com/2669/3715175128_12f5b1ed31.jpg","path":"cb8/492/cb8492e457d73b9ecf8a6313359b38de.jpg","date":"2009-06-26","year":2009,"month":6,"lon":25.332413,"lat":37.45224,"tags":"greece,mykonos","S2CellId":"14a3000000000000","result":1264,"accuracy":0.24362189,"title":"Dinner+at+Aqua+Taverna"}
{"id":6029943020,"url":"http://farm7.staticflickr.com/6209/6029943020_22f016b700.jpg","path":"5ef/b5b/5efb5b9eb5393b15b2cd89b15ccffc0.jpg","date":"2011-08-04","year":2011,"month":8,"lon":25.378075,"lat":37.10241,"tags":"%CE%B5%CE%BB%CE%BB%CE%AC%CE%B4%CE%B1,%CE%BD%CE%AC%CE%BE%CE%BF%CF%82,%CE%BD%CE%B7%CF%83%CE%AF,greece,hellas,island,naxos","S2CellId":"14a1bd3400000000","result":1256,"accuracy":0.12638196,"title":"Archaeological+Museum%2C+Naxos%2C+Greece","description":"%CE%91%CF%81%CF%87%CE%B1%CE%B9%CE%BF%CE%BB%CE%BF%CE%B3%CE%B9%CE%BA%CF%8C+%CE%BC%CE%BF%CF%85%CF%83%CE%B5%CE%AF%CE%BF+%CE%9D%CE%AC%CE%BE%CE%BF%CF%85."}
{"id":2952897683,"url":"http://farm4.staticflickr.com/3016/2952897683_912559860c.jpg","path":"9ad/5a3/9ad5a3288a5a37e61566cb1bc84e1e81.jpg","date":"2007-11-15","year":2007,"month":11,"lon":25.383438,"lat":37.42232,"tags":"greece,greek,island,mykonos,town","S2CellId":"133b700000000000","result":1147,"accuracy":0.48089537,"title":"SANY8145"}
{"id":7638871708,"url":"http://farm8.staticflickr.com/7139/7638871708_791faaa38e.jpg","path":"4f5/339/4f533981ee7e13ca0fd40e06e72966b.jpg","date":"2012-07-14","year":2012,"month":7,"lon":25.3764,"lat":37.1056,"tags":"griekenland,naxos","S2CellId":"149b400000000000","result":1238,"accuracy":0.17559113,"title":"Naxos+Griekenland+juli+2012+46"}
{"id":6088760623,"url":"http://farm7.staticflickr.com/6086/6088760623_3bc34f6482.jpg","path":"dfe/7e1/dfe7e12f35aa3d9279a93e34656e2f4c.jpg","date":"2011-08-22","year":2011,"month":8,"lon":25.375586,"lat":37.103897,"tags":"%C3%AEles,cyclades,cycladic+islands,gr%C3%A8ce,greece,islands","S2CellId":"1498400000000000","result":1228,"accuracy":0.419482,"title":"Naxos+-+Chora","description":"Naxos+est+la+plus+grande+%C3%AEle+de+l%E2%80%99archipel+des+Cyclades+dans+la+mer+Eg%C3%A9e.%0ALa+l%C3%A9gende+veut+que+Th%C3%A9s%C3%A9e+y+ait+abandonn%C3%A9+Ariane+apr%C3%A8s+son+d%C3%A9part+de+Cr%C3%A8te+o%C3%B9+il+vainquit+le+Minotaure.+Celle-ci+fut+recueillie+par+Dyonysos+qui+l%E2%80%99%C3%A9pousa.%0APendant+la+p%C3%A9riode+archa%C3%AFque+%28VIII%C3%A8me+%2F+VII%C3%A8me+si%C3%A8cle+BC%29%2C+Naxos+s%E2%80%99enrichit+gr%C3%A2ce+%C3%A0+ses+carri%C3%A8res+de+marbre+et+d%E2%80%99Emeri.+La+cit%C3%A9+de+Naxos+fut+un+alli%C3%A9+puissant+d%E2%80%99Ath%C3%A8nes+au+sein+de+la+ligue+de+D%C3%A9los+au+cours+des+guerres+m%C3%A9diques+contre+les+Perses.+Elle+tenta+ensuite+s%E2%80%99affranchir+de+la+tutelle+ath%C3%A9nienne+mais+perdit+alors+son+ind%C3%A9pendance.%0AEvang%C3%A9lis%C3%A9e+d%C3%A8s+le+IV%C3%A8me+si%C3%A8cle+AD%2C+l%E2%80%99%C3%AEle+fut+ensuite+soumise+%C3%A0+de+fr%C3%A9quentes+incursions+arabes.+Byzance+ayant+raffermi+son+emprise+sur+la+mer+Eg%C3%A9e%2C+Naxos+connut+une+nouvelle+p%C3%A9riode+d%E2%80%99apog%C3%A9e+au+XI%C3%A8me+et+au+XII%C3%A8me+si%C3%A8cle.%0AL%E2%80%99%C3%AEle+passa+sous+tutelle+v%C3%A9nitienne+apr%C3%A8s+la+4%C3%A8me+croisade+et+devint+le+duch%C3%A9+de+Naxos.+Apr%C3%A8s+la+chute+de+Constantinople%2C+Naxos+se+retrouva+en+premi%C3%A8re+position+face+%C3%A0+l%E2%80%99empire+Ottoman.+L%E2%80%99%C3%AEle+finit+par+passer+sous+suzerainet%C3%A9+ottomane+dans+la+deuxi%C3%A8me+moiti%C3%A9+du+XVI%C3%A8me+si%C3%A8cle.%0ALes+Naxiens+particip%C3%A8rent+%C3%A0+la+guerre+d%E2%80%99ind%C3%A9pendance+qui+permit+aux+Grecs+de+s%E2%80%99affranchir+de+la+tutelle+turque+en+1830.%0ALa+plus+grande+ville+de+l%E2%80%99%C3%AEle+est+Chora%2C+situ%C3%A9e+sur+la+c%C3%B4te+ouest.+A+l%E2%80%99int%C3%A9rieur+des+terres%2C+des+villages+comme+Chalki+ou+Filoti+ont+une+r%C3%A9elle+vie+en+dehors+du+tourisme.%0ASource+%3A+Wikipedia"}
{"id":7638839418,"url":"http://farm9.staticflickr.com/8159/7638839418_0795b87fbd.jpg","path":"2bd/48a/2bd48af2a1db49581dc83e6309490a0.jpg","date":"2012-07-14","year":2012,"month":7,"lon":25.3764,"lat":37.1056,"tags":"griekenland,naxos","S2CellId":"14dd000000000000","result":1334,"accuracy":0.18187472,"title":"Naxos+Griekenland+juli+2012+13"}
{"id":7116813127,"url":"http://farm6.staticflickr.com/5111/7116813127_7714fef91f.jpg","path":"1c9/453/1c9453522f6bd3fdc6ef790c2aab0fa.jpg","date":"2011-05-01","year":2011,"month":5,"lon":25.330868,"lat":37.44488,"tags":"%CE%B4%CE%B7%CE%BC%CE%BF%CE%BA%CF%81%CE%B1%CF%84%CE%AF%CE%B1,%CE%B5%CE%BB%CE%BB%CE%B7%CE%BD%CE%B9%CE%BA%CE%AE,%E3%82%AE%E3%83%AA%E3%82%B7%E3%82%A2,%E3%82%AE%E3%83%AA%E3%82%B7%E3%83%A3,%E3%82%AE%E3%83%AA%E3%82%B7%E3%83%A4,%E3%83%9F%E3%82%B3%E3%83%8E%E3%82%B9,%E5%B3%B6,greece,greek,hellenic,islans,mykonos","S2CellId":"1499cd0000000000","result":1233,"accuracy":0.19328146,"title":"GREECE_MYKONOS2011_0031"}
{"id":7985392399,"url":"http://farm9.staticflickr.com/8174/7985392399_63ca9147ba.jpg","path":"c82/a7e/c82a7ecd698f4ad5ab43e2de2561b84.jpg","date":"2012-08-07","year":2012,"month":8,"lon":25.312672,"lat":37.438507,"tags":"-berlin,-cannes,-mykonos,blue,design,grece,greece,greek,happiness,hotel,luxe,mountains,ocean,orange,paradise,saintjohn,sea,sky,skyland,sunset,view,warm","S2CellId":"1499cb0000000000","result":1232,"accuracy":0.07603437,"title":"DSC_0957"}
{"id":8089420966,"url":"http://farm9.staticflickr.com/8056/8089420966_a7de477d36.jpg","path":"7e9/47e/7e947e749337e2907562f3af81b470b2.jpg","date":"2012-09-21","year":2012,"month":9,"lon":25.793776,"lat":37.10433,"tags":"%CE%B5%CE%BB%CE%BB%CE%B1%CE%B4%CE%B1,%CE%BA%CF%85%CE%BA%CE%BB%CE%B1%CE%B4%CE%B5%CF%82,%CE%BD%CE%B1%CE%BE%CE%BF%CF%82,%CE%BD%CE%B9%CF%83%CE%B9,blue,cyclades,greece,greek+islands,holidays,island,naxos,sea,summer","S2CellId":"1498400000000000","result":1228,"accuracy":0.3386935,"title":"Donousa","description":"On+our+way+to+Naxos"}
{"id":860397677,"url":"http://farm2.staticflickr.com/1192/860397677_fdcc4fe53d.jpg","path":"2a1/2a2/2a12a248618958f7b84533b3eeb592d.jpg","date":"2007-07-19","year":2007,"month":7,"lon":25.156116,"lat":37.087845,"tags":"%CE%B5%CE%BB%CE%BB%CE%AC%CE%B4%CE%B1,%CE%B8%CE%AC%CE%BB%CE%B1%CF%83%CF%83%CE%B1,%CF%80%CE%AC%CF%81%CE%BF%CF%82,%D0%B3%D1%80%D0%B5%D1%86%D0%B8%D1%8F,%D0%BC%D0%BE%D1%80%D0%B5,%D0%BF%D0%B0%D1%80%D0%BE%D1%81,10th+symi%27s+symposium,greece,ngo,paros,politikoblog.gr,sea","S2CellId":"1498400000000000","result":1228,"accuracy":0.39072353,"title":"KIF_3331"}
{"id":4888205661,"url":"http://farm5.staticflickr.com/4081/4888205661_e84151d342.jpg","path":"ae9/ca1/ae9ca12198ff9ce1262de8d82ceb6da.jpg","date":"2010-08-03","year":2010,"month":8,"lon":25.32855,"lat":37.44639,"tags":"raw","S2CellId":"1498400000000000","result":1228,"accuracy":0.07274901,"title":"Boat"}
{"id":7116841527,"url":"http://farm8.staticflickr.com/7246/7116841527_bf76c8c90e.jpg","path":"21a/649/21a64968d8e090a2de85c8a93e7bd6a9.jpg","date":"2011-05-01","year":2011,"month":5,"lon":25.330868,"lat":37.44488,"tags":"%CE%B4%CE%B7%CE%BC%CE%BF%CE%BA%CF%81%CE%B1%CF%84%CE%AF%CE%B1,%CE%B5%CE%BB%CE%BB%CE%B7%CE%BD%CE%B9%CE%BA%CE%AE,%E3%82%AE%E3%83%AA%E3%82%B7%E3%82%A2,%E3%82%AE%E3%83%AA%E3%82%B7%E3%83%A3,%E3%82%AE%E3%83%AA%E3%82%B7%E3%83%A4,%E3%83%9F%E3%82%B3%E3%83%8E%E3%82%B9,%E5%B3%B6,greece,greek,hellenic,islans,mykonos","S2CellId":"4889b00000000000","result":5760,"accuracy":0.081984036,"title":"GREECE_MYKONOS2011_0153"}
{"id":2115895834,"url":"http://farm3.staticflickr.com/2165/2115895834_3a174d0719.jpg","path":"fd1/875/fd1875d5a5d5d363ac4b4d78fff374.jpg","date":"2007-11-01","year":2007,"month":11,"lon":25.388031,"lat":37.4536,"tags":"contafisca,grecia,mykonos,xtrex","S2CellId":"14a3000000000000","result":1264,"accuracy":0.22365971,"title":"Mykonos+%28Grecia%29","description":"La+ciudad+de+Mykonos+en+Grecia."}
{"id":5618418641,"url":"http://farm6.staticflickr.com/5106/5618418641_fb788692df.jpg","path":"27c/81a/27c81acf5996a412b4f524d9dd907b.jpg","date":"2011-04-14","year":2011,"month":4,"lon":25.148048,"lat":37.55315,"tags":"%CE%BA%CF%85%CE%BA%CE%BB%CE%AC%CE%B4%CE%B5%CF%82,%CF%84%CE%AE%CE%BD%CE%BF%CF%82,aegean,aegean+islands,aegean+sea,cyclades,greek+island,greek+islands,island,islands,tinos","S2CellId":"14a3000000000000","result":1264,"accuracy":0.5465996,"title":"Tinos","description":"Although+it+is+widely+known+as+a+religious+center%2C+Tinos+has+a+lot+of+natural+beauty+and+important+sights%2C+which+many+of+the+thousands+of+visitors+ignore%2C+as+the+majority+is+limited+to+a+daily+pilgrimage+trip."}
{"id":3056661995,"url":"http://farm4.staticflickr.com/3283/3056661995_6f120b0923.jpg","path":"5a9/ad7/5a9ad77151c963a369e6e2bc9e58cf93.jpg","date":"2008-08-25","year":2008,"month":8,"lon":25.329021,"lat":37.448288,"tags":"%CE%B5%CE%BB%CE%BB%CE%AC%CE%B4%CE%B1,%CE%BA%CF%85%CE%BA%CE%BB%CE%AC%CE%B4%CE%B5%CF%82,%CE%BC%CF%8D%CE%BA%CE%BF%CE%BD%CE%BF%CF%82,%CF%87%CF%89%CF%81%CE%B1,chora,cicladas,cyclades,ell%C3%A1da,europa,europe,girl,grecia,greece,hora,isla,island,mykonos,ni%C3%B1a,sarah","S2CellId":"12c9100000000000","result":838,"accuracy":0.023476211,"title":"Hija","description":"Hora%2C+Mykonos%2C+Grecia+%28Greece%29"}
{"id":5182631782,"url":"http://farm5.staticflickr.com/4147/5182631782_567b6af873.jpg","path":"b26/16c/b2616ca15813dae6a12ff967b3db340.jpg","date":"2010-09-21","year":2010,"month":9,"lon":25.268726,"lat":37.39164,"tags":"delos,viaggiosaiadodecaneso-cicladi,z","S2CellId":"1498400000000000","result":1228,"accuracy":0.14019048,"title":"DSCN0180.JPG"}
{"id":1404222574,"url":"http://farm2.staticflickr.com/1384/1404222574_5124779a47.jpg","path":"19d/2be/19d2bed573ba5a99f829df7f62817a.jpg","date":"2007-08-29","year":2007,"month":8,"lon":25.361938,"lat":37.45524,"tags":"grecia,greek","S2CellId":"1499cb0000000000","result":1232,"accuracy":0.4554597,"title":"Oia%2C+Santorini"}
{"id":2952565899,"url":"http://farm4.staticflickr.com/3160/2952565899_abb09b0c71.jpg","path":"71b/fc6/71bfc6f75df4b446e30ffe312973e47.jpg","date":"2007-11-15","year":2007,"month":11,"lon":25.383438,"lat":37.42232,"tags":"greece,greek,island,mykonos,town","S2CellId":"4763000000000000","result":3311,"accuracy":0.056443777,"title":"SANY8058"}
{"id":6277877118,"url":"http://farm7.staticflickr.com/6219/6277877118_152aa30815.jpg","path":"f94/0b4/f940b41e8f2830c245689dec7ae88a.jpg","date":"2011-09-25","year":2011,"month":9,"lon":25.228558,"lat":37.422203,"tags":"delos,echse,greece,griechenland,kykladen,sonntag","S2CellId":"9aab000000000000","result":9926,"accuracy":0.08431984,"title":"Echse","description":"25.09.2011+Sonntag-+Delos-+Kykladen-Echse-+Griechenland-greece"}
{"id":203882040,"url":"http://farm1.staticflickr.com/70/203882040_f657b4a59d.jpg","path":"a92/307/a92307442f0f3f93517f0be11379716.jpg","date":"2005-09-02","year":2005,"month":9,"lon":25.179205,"lat":37.047848,"tags":"amis,gr%C3%A8ce,paros,scooter","S2CellId":"149b400000000000","result":1238,"accuracy":0.06125169,"title":"P1000638"}
{"id":189862142,"url":"http://farm1.staticflickr.com/76/189862142_6e3a9e0e3f.jpg","path":"cc9/b43/cc9b43175d48f3d283544cbbd7a8283.jpg","date":"2006-07-02","year":2006,"month":7,"lon":25.38889,"lat":37.110367,"tags":"aegean,aegean+sea,building,cross,cyclades,greece,greek,hellas,island,naxos,summer,trip,vacation","S2CellId":"1240000000000000","result":651,"accuracy":0.08210357,"title":"naxosgreece081"}
{"id":5178723795,"url":"http://farm5.staticflickr.com/4153/5178723795_55b0ec1b64.jpg","path":"cc4/379/cc437902c3c38672f5fb5cb147988c.jpg","date":"2010-09-21","year":2010,"month":9,"lon":25.268726,"lat":37.39164,"tags":"delos,viaggiosaiadodecaneso-cicladi,z","S2CellId":"94ce59f000000000","result":9723,"accuracy":0.08660797,"title":"DSCN9960.JPG"}
{"id":1592506692,"url":"http://farm3.staticflickr.com/2349/1592506692_3fc4eceea2.jpg","path":"c9f/83f/c9f83f863f90ec6a48b9b5e9b7b716bc.jpg","date":"2007-08-18","year":2007,"month":8,"lon":25.303917,"lat":37.427025,"tags":"24-105f4,ag.yiannis,amadeo,au8gust,canon,canon30d,greece,greek,magic,mykonos,night,nightlife,summer,taverna","S2CellId":"4842c00000000000","result":4807,"accuracy":0.03469524,"title":"Passionate++music+in+Mykonos+-+IMG_2997","description":"Dror+%40+Christos+taverna"}
{"id":9649709151,"url":"http://farm6.staticflickr.com/5459/9649709151_d1d883033f.jpg","path":"2bf/813/2bf8138f3fccccfeb164e434b25083eb.jpg","date":"2013-07-28","year":2013,"month":7,"lon":25.270958,"lat":37.394505,"tags":"aegean,cat,cruise+2013,cycladic+island,delos,fauna,greece,mediterranean+island,mykonos,ruins","S2CellId":"8627000000000000","result":7532,"accuracy":0.024758821,"title":"IMG_1288"}
{"id":987808395,"url":"http://farm2.staticflickr.com/1162/987808395_5fc3c64828.jpg","path":"df3/9f0/df39f06cea3cc7aa3d1ecfb8dc67166.jpg","date":"2007-08-02","year":2007,"month":8,"lon":25.386957,"lat":37.43953,"tags":"beach","S2CellId":"14a3000000000000","result":1264,"accuracy":0.39059153,"title":"Kalo+beach","description":"a+little+slice+of+heaven+down+the+mountain"}
{"id":512405013,"url":"http://farm1.staticflickr.com/230/512405013_cc418388d6.jpg","path":"355/d1f/355d1f1e142da827c983b65f7b32ad.jpg","date":"2006-09-06","year":2006,"month":9,"lon":25.334473,"lat":37.444946,"tags":"greece,hydra,mykonos","S2CellId":"1499cd0000000000","result":1233,"accuracy":0.15167639,"title":"Church+detail+%28Mykonos%29"}
{"id":2892502525,"url":"http://farm4.staticflickr.com/3006/2892502525_e411ae00dc.jpg","path":"a91/c8f/a91c8f37d2c9d292f7693b7623e1bb64.jpg","date":"2006-09-09","year":2006,"month":9,"lon":25.385971,"lat":37.423073,"tags":"beach,gay,greece,mykonos","S2CellId":"14a3000000000000","result":1264,"accuracy":0.46030948,"title":"Elia+Beach%2C+Mykonos","description":"Gay+Area+%E2%80%A2+The+so+called+%C2%BBBay+of+Pigs%C2%AB"}
{"id":148335330,"url":"http://farm1.staticflickr.com/56/148335330_e5413e02c0.jpg","path":"e47/21d/e4721db04d1cb7b9a144e7bd1f85e6c7.jpg","date":"2006-05-12","year":2006,"month":5,"lon":25.349236,"lat":37.437386,"tags":"greece,griechenland,http%3A%2F%2Fwww.tinner.sg,myconos,sonnenuntergang,sunnenuntergang,sunset,tinner.sg,windm%C3%BChle,windmill,www.tinner.sg","S2CellId":"14a3000000000000","result":1264,"accuracy":0.26378807,"title":"Windmill+in+Greece+%28Myconos%29"}
{"id":2681253310,"url":"http://farm4.staticflickr.com/3014/2681253310_e1e6a44dd7.jpg","path":"df8/9f3/df89f3becc93490f91657878562da33.jpg","date":"2008-07-11","year":2008,"month":7,"lon":25.325903,"lat":37.44479,"tags":"ef+70-200mm+f%2F2.8l+is+usm,greece,mykonos,mykonos+town,restored,sunset,windmill","S2CellId":"14a3000000000000","result":1264,"accuracy":0.7848738,"title":"Golden+Hour","description":"The+golden+hour+during+which+the+sun+begins+to+set+clearly+defines+the+wonderfully+restored+windmills+above+Mykonos+Town."}
{"id":5038731912,"url":"http://farm5.staticflickr.com/4109/5038731912_ff40cc666a.jpg","path":"e51/94c/e5194cbeda2079bffd02e16b07928c3.jpg","date":"2010-09-20","year":2010,"month":9,"lon":25.238003,"lat":37.122345,"tags":"28.0-300.0+mm+f%2F3.5-5.6,mo%CC%88we,paros,tiere,vogel","S2CellId":"88d0a631cabb5071","result":8563,"accuracy":0.0073779253,"title":"Griechenland+2010","description":"10.+Tag%3A+Norden+von+Paros.+Mo%CC%88we+u%CC%88ber+Naousa."}
{"id":2949275898,"url":"http://farm4.staticflickr.com/3220/2949275898_62edaa7bab.jpg","path":"21b/d4a/21bd4ae6c717b8edd7c97514fd53d4d.jpg","date":"2008-10-03","year":2008,"month":10,"lon":25.327005,"lat":37.447765,"tags":"mykonos","S2CellId":"14a3000000000000","result":1264,"accuracy":0.14599499,"title":"IMG_0208.JPG"}
{"id":7553868030,"url":"http://farm9.staticflickr.com/8155/7553868030_4e6f09f136.jpg","path":"29d/b20/29db20461e446783cfcfe4a193ece047.jpg","date":"2012-07-12","year":2012,"month":7,"lon":25.327965,"lat":37.4464,"tags":"hefe,instagram+app,iphoneography,square,square+format","S2CellId":"1453000000000000","result":1198,"accuracy":0.06033646,"title":"Mediterranean+sunset"}
{"id":7635600864,"url":"http://farm9.staticflickr.com/8015/7635600864_a02079d4db.jpg","path":"376/365/3763655378d98f2768d688eb385777a0.jpg","date":"2012-07-23","year":2012,"month":7,"lon":25.19588,"lat":37.06512,"tags":"aegean,bougainvillea,cyclades,greece,island,magrippi,naoussa,paros,sea","S2CellId":"80c8c43b00000000","result":7240,"accuracy":0.005911385,"title":"bouguainvilleas"}
{"id":1398491792,"url":"http://farm2.staticflickr.com/1033/1398491792_1665f72f9f.jpg","path":"d71/b99/d71b994c9f2056b38978fb6ec56d89cb.jpg","date":"2007-09-02","year":2007,"month":9,"lon":25.146498,"lat":37.082935,"tags":"b%2Fw,cyclades,greece,man,paros","S2CellId":"1347c00000000000","result":1164,"accuracy":0.017053049,"title":"watching+tourists"}
{"id":5752724320,"url":"http://farm3.staticflickr.com/2630/5752724320_198c51cb67.jpg","path":"a2f/2af/a2f2af6722a9a9778d111d5083677976.jpg","date":"2004-08-01","year":2004,"month":8,"lon":25.30706,"lat":37.42298,"tags":"agios+ioannis,greece,mykonos","S2CellId":"14a3000000000000","result":1264,"accuracy":0.5860164,"title":"The+beach+at+Aghios+Ioannis"}
{"id":5773910898,"url":"http://farm6.staticflickr.com/5261/5773910898_8b13f78529.jpg","path":"cbf/11d/cbf11d73e5f14b80104356f0dfcc2a5f.jpg","date":"2004-08-10","year":2004,"month":8,"lon":25.267244,"lat":37.399773,"tags":"%CE%B4%CE%AE%CE%BB%CE%BF%CF%82,ancient,archaeology,cyclades,delos,greece,greek+island,island,ruins","S2CellId":"14a3000000000000","result":1264,"accuracy":0.027757812,"title":"Delos"}
{"id":6970745072,"url":"http://farm8.staticflickr.com/7223/6970745072_005ec33986.jpg","path":"b6d/6af/b6d6afe85ec89251ed167cca9de5e96.jpg","date":"2011-05-01","year":2011,"month":5,"lon":25.330868,"lat":37.44488,"tags":"%CE%B4%CE%B7%CE%BC%CE%BF%CE%BA%CF%81%CE%B1%CF%84%CE%AF%CE%B1,%CE%B5%CE%BB%CE%BB%CE%B7%CE%BD%CE%B9%CE%BA%CE%AE,%E3%82%AE%E3%83%AA%E3%82%B7%E3%82%A2,%E3%82%AE%E3%83%AA%E3%82%B7%E3%83%A3,%E3%82%AE%E3%83%AA%E3%82%B7%E3%83%A4,%E3%83%9F%E3%82%B3%E3%83%8E%E3%82%B9,%E5%B3%B6,greece,greek,hellenic,islans,mykonos","S2CellId":"149f000000000000","result":1241,"accuracy":0.10166812,"title":"GREECE_MYKONOS2011_0043"}
{"id":3714357841,"url":"http://farm4.staticflickr.com/3440/3714357841_9061751e28.jpg","path":"634/02e/63402ef83d41418863dac571d1d33639.jpg","date":"2009-06-26","year":2009,"month":6,"lon":25.332413,"lat":37.45224,"tags":"greece,mykonos","S2CellId":"1499cd0000000000","result":1233,"accuracy":0.027779737,"title":"The+Room","description":"Hermes+Hotel"}
{"id":2953453164,"url":"http://farm4.staticflickr.com/3213/2953453164_e3e8fa0e8b.jpg","path":"e77/0c2/e770c2c8de87deb3668af8c2f1c558.jpg","date":"2007-11-15","year":2007,"month":11,"lon":25.383438,"lat":37.42232,"tags":"greece,greek,island,mykonos,town","S2CellId":"14a3000000000000","result":1264,"accuracy":0.965661,"title":"SANY8077"}
{"id":7806964412,"url":"http://farm9.staticflickr.com/8439/7806964412_3c3b8fa3b4.jpg","path":"d02/0b7/d020b7dc3844f6f42ede7c3c17e47f3.jpg","date":"2012-08-17","year":2012,"month":8,"lon":25.260271,"lat":37.034763,"tags":"boat,greece,greekislands,landscape,magrippi,paros,sea,summer","S2CellId":"14a7000000000000","result":1266,"accuracy":0.080568776,"title":"boats"}
{"id":2965531982,"url":"http://farm4.staticflickr.com/3286/2965531982_174920fa08.jpg","path":"c3c/f51/c3cf5166b981e8c237db1613c8b6d7.jpg","date":"2008-10-04","year":2008,"month":10,"lon":25.144358,"lat":37.060246,"tags":"greece,map,paros","S2CellId":"94ce59f000000000","result":9723,"accuracy":0.006781108,"title":"the+map"}
{"id":3969461569,"url":"http://farm3.staticflickr.com/2608/3969461569_95acb74b82.jpg","path":"76e/f7c/76ef7c3fd2f75cd076edc1b7c36a9935.jpg","date":"2009-09-30","year":2009,"month":9,"lon":25.328121,"lat":37.443314,"tags":"mykonos","S2CellId":"14a3000000000000","result":1264,"accuracy":0.8188668,"title":"Mykonos+0738","description":"Mykonos"}
{"id":2762886153,"url":"http://farm4.staticflickr.com/3150/2762886153_a5341aeaa6.jpg","path":"378/1f2/3781f23d595bba14887cd7a4b98af98f.jpg","date":"2008-07-28","year":2008,"month":7,"lon":25.354214,"lat":37.065247,"tags":"aghios+procopios,cicladi,cyclades,grecia,greece,mare,naxos,sea","S2CellId":"1346c00000000000","result":1162,"accuracy":0.037139762,"title":"Thalassa%21+Thalassa%21"}
{"id":3715168264,"url":"http://farm3.staticflickr.com/2630/3715168264_12f84ce0e7.jpg","path":"d4f/c71/d4fc71321bf276af1eb58e23c13c3a7.jpg","date":"2009-06-26","year":2009,"month":6,"lon":25.332413,"lat":37.45224,"tags":"greece,mykonos","S2CellId":"4781500000000000","result":3531,"accuracy":0.029544616,"title":"The+patio"}
{"id":6970766124,"url":"http://farm8.staticflickr.com/7209/6970766124_050886003a.jpg","path":"8b2/7da/8b27daa32bb2da9cf69a78127337a36.jpg","date":"2011-05-01","year":2011,"month":5,"lon":25.330868,"lat":37.44488,"tags":"%CE%B4%CE%B7%CE%BC%CE%BF%CE%BA%CF%81%CE%B1%CF%84%CE%AF%CE%B1,%CE%B5%CE%BB%CE%BB%CE%B7%CE%BD%CE%B9%CE%BA%CE%AE,%E3%82%AE%E3%83%AA%E3%82%B7%E3%82%A2,%E3%82%AE%E3%83%AA%E3%82%B7%E3%83%A3,%E3%82%AE%E3%83%AA%E3%82%B7%E3%83%A4,%E3%83%9F%E3%82%B3%E3%83%8E%E3%82%B9,%E5%B3%B6,greece,greek,hellenic,islans,mykonos","S2CellId":"14a3000000000000","result":1264,"accuracy":0.13444681,"title":"GREECE_MYKONOS2011_0169"}
{"id":5748719268,"url":"http://farm3.staticflickr.com/2100/5748719268_fd46561dfb.jpg","path":"6be/d33/6bed3302abccd641ca949467c39b040.jpg","date":"2004-08-13","year":2004,"month":8,"lon":25.313658,"lat":37.422337,"tags":"aghios+ioannis,august+2004,baby+buttons,buttons,greece,mykonos","S2CellId":"9aab000000000000","result":9926,"accuracy":0.009661072,"title":"Mykonos_057"}
{"id":6539690593,"url":"http://farm8.staticflickr.com/7172/6539690593_afdddac732.jpg","path":"f08/1ea/f081eafbcb658b787abba6717fd02186.jpg","date":"2011-07-26","year":2011,"month":7,"lon":25.32898,"lat":37.449802,"tags":"aegean,chora,cyclades,greece,mykonos","S2CellId":"14a3000000000000","result":1264,"accuracy":0.8925935,"title":"Mykonos%2C+Greece","description":"Beautiful+Greek+island+that+is+part+of+the+Cylades.+It+is+a+very+popular+tourist+destination."}
{"id":7116839859,"url":"http://farm6.staticflickr.com/5071/7116839859_edd0029c3f.jpg","path":"185/937/1859372e311925b99d4423d3f49fe67d.jpg","date":"2011-05-01","year":2011,"month":5,"lon":25.330868,"lat":37.44488,"tags":"%CE%B4%CE%B7%CE%BC%CE%BF%CE%BA%CF%81%CE%B1%CF%84%CE%AF%CE%B1,%CE%B5%CE%BB%CE%BB%CE%B7%CE%BD%CE%B9%CE%BA%CE%AE,%E3%82%AE%E3%83%AA%E3%82%B7%E3%82%A2,%E3%82%AE%E3%83%AA%E3%82%B7%E3%83%A3,%E3%82%AE%E3%83%AA%E3%82%B7%E3%83%A4,%E3%83%9F%E3%82%B3%E3%83%8E%E3%82%B9,%E5%B3%B6,greece,greek,hellenic,islans,mykonos","S2CellId":"1499cd0000000000","result":1233,"accuracy":0.14665914,"title":"GREECE_MYKONOS2011_0134"}
{"id":275182694,"url":"http://farm1.staticflickr.com/107/275182694_fc451b1217.jpg","path":"84b/307/84b3073d19832e14bb254b8bcfeb615.jpg","date":"2006-09-21","year":2006,"month":9,"lon":25.328035,"lat":37.447025,"tags":"aida,cruise,mykonos","S2CellId":"14a3000000000000","result":1264,"accuracy":0.41169313,"title":"Mykonos+IMG_8609%2B%2B"}
{"id":5042135453,"url":"http://farm5.staticflickr.com/4086/5042135453_ce4f786ce7.jpg","path":"c8e/6c8/c8e6c822f9543e6173a5528fd49c01b.jpg","date":"2010-09-20","year":2010,"month":9,"lon":25.268726,"lat":37.39164,"tags":"eventi+viaggiosaiadodecaneso-cicladi,viaggiosaiadodecaneso-cicladi","S2CellId":"14a3000000000000","result":1264,"accuracy":0.3204018,"title":"DSCN9662.JPG"}
{"id":3815335613,"url":"http://farm4.staticflickr.com/3428/3815335613_d93fd64c7a.jpg","path":"883/7bb/8837bb121fe4a2785d38c1c124cd2f6b.jpg","date":"2009-08-01","year":2009,"month":8,"lon":25.259703,"lat":37.03598,"tags":"cyclades,gr%C3%A8ce,paros","S2CellId":"14a3000000000000","result":1264,"accuracy":0.4377957,"title":"Grece_2009-08-01_13-14-32"}
{"id":4864963669,"url":"http://farm5.staticflickr.com/4121/4864963669_51aacb8e47.jpg","path":"6ea/86f/6ea86fe4689d8b602e863de0c22be69.jpg","date":"2010-08-06","year":2010,"month":8,"lon":25.328554,"lat":37.451073,"tags":"crossprocess,fuji+provia+100f,greece,hellada,mykonos,rolleicord+vb","S2CellId":"14a3000000000000","result":1264,"accuracy":0.24379215,"title":"for+web_Fuji+PROVIA+100F_043"}
{"id":203861043,"url":"http://farm1.staticflickr.com/61/203861043_f64c739215.jpg","path":"786/ee8/786ee897424d1ddac1b93a28077a724.jpg","date":"2005-09-03","year":2005,"month":9,"lon":25.08565,"lat":37.043465,"tags":"amis,antiparos,gr%C3%A8ce,grotte,kite,kite+surf","S2CellId":"1367000000000000","result":1190,"accuracy":0.045771852,"title":"P1000769"}
{"id":2709832378,"url":"http://farm4.staticflickr.com/3238/2709832378_c303f03ca5.jpg","path":"51b/599/51b599a377f4a64131f2269a2a7420.jpg","date":"2008-04-04","year":2008,"month":4,"lon":25.32665,"lat":37.444004,"tags":"2008,april,chora,cyclades,europe,evening,facebook,greece,island,mykonos,travel,wikked,windmill","S2CellId":"14a3000000000000","result":1264,"accuracy":0.2593463,"title":"Windmills+of+Mykonos","description":"On+the+heights+above+Chora"}
{"id":1633401598,"url":"http://farm3.staticflickr.com/2384/1633401598_d3f9b9d344.jpg","path":"2d7/ff2/2d7ff262d37a8634f4a1265c75281d6.jpg","date":"2006-07-08","year":2006,"month":7,"lon":25.264091,"lat":37.3943,"tags":"2006,delos,europe,greece,lion,princess+cruise,ruins","S2CellId":"5240000000000000","result":5966,"accuracy":0.5117667,"title":"Delos+Lions"}
{"id":4983226921,"url":"http://farm5.staticflickr.com/4085/4983226921_11a61a78d7.jpg","path":"4f4/663/4f46634d3d5c5e413052186bb4c5383e.jpg","date":"2010-09-07","year":2010,"month":9,"lon":25.136805,"lat":37.040825,"tags":"greece,griekenland,paros,september","S2CellId":"88d0a631cabb5071","result":8563,"accuracy":0.0137952175,"title":"DSC_0164"}
{"id":5183229228,"url":"http://farm2.staticflickr.com/1288/5183229228_9e9f0da5e7.jpg","path":"f0f/6e3/f0f6e3d55ca46ae79724fb7178255ae.jpg","date":"2010-09-22","year":2010,"month":9,"lon":25.268726,"lat":37.39164,"tags":"delos,viaggiosaiadodecaneso-cicladi,z","S2CellId":"485a400000000000","result":4821,"accuracy":0.10218226,"title":"DSCN0297.JPG"}
{"id":3078506010,"url":"http://farm4.staticflickr.com/3197/3078506010_6fff030f36.jpg","path":"b38/b78/b38b78563f9a947a7334db8ceb484.jpg","date":"2008-08-27","year":2008,"month":8,"lon":25.329708,"lat":37.450775,"tags":"%CE%B5%CE%BB%CE%BB%CE%AC%CE%B4%CE%B1,%CE%BA%CF%85%CE%BA%CE%BB%CE%AC%CE%B4%CE%B5%CF%82,%CE%BC%CF%8D%CE%BA%CE%BF%CE%BD%CE%BF%CF%82,%CF%87%CF%89%CF%81%CE%B1,chora,cicladas,cyclades,ell%C3%A1da,europa,europe,girl,grecia,greece,hora,isla,island,mar,mykonos,ni%C3%B1a,sarah,sea","S2CellId":"14cab9d000000000","result":1318,"accuracy":0.10577957,"title":"Despues+del+paseo","description":"Hora%2C+Mykonos%2C+Grecia+%28Greece%29"}
{"id":204679222,"url":"http://farm1.staticflickr.com/72/204679222_a707005110.jpg","path":"423/09c/42309c577366fb67bf99f3ba724eec1.jpg","date":"2005-09-04","year":2005,"month":9,"lon":25.148993,"lat":37.084145,"tags":"amis,gr%C3%A8ce,parikia,paroikia,paros,shopping,vacances","S2CellId":"877c000000000000","result":7905,"accuracy":0.017033579,"title":"P1000842"}
{"id":3701436901,"url":"http://farm3.staticflickr.com/2507/3701436901_c65e13289f.jpg","path":"43b/012/43b0122634ab1e6b20493d60eee25.jpg","date":"2005-08-15","year":2005,"month":8,"lon":25.32945,"lat":37.444626,"tags":"mykonos","S2CellId":"14a3000000000000","result":1264,"accuracy":0.6792469,"title":"Lunch+View"}
{"id":2681077394,"url":"http://farm4.staticflickr.com/3292/2681077394_b453b70521.jpg","path":"ee6/d6c/ee6d6c8a5d8710cb22df37b440ce7bc9.jpg","date":"2008-07-14","year":2008,"month":7,"lon":25.331726,"lat":37.449753,"tags":"beautiful,greece,greek,island,mykonos,mythos,vacation,whitewash","S2CellId":"14a3000000000000","result":1264,"accuracy":0.71776706,"title":"Mykonos%3B+harbor"}
{"id":7723769550,"url":"http://farm9.staticflickr.com/8430/7723769550_88ff4199ee.jpg","path":"843/f7e/843f7e9fe2b3d66820907867cca4f531.jpg","date":"2012-08-05","year":2012,"month":8,"lon":25.259928,"lat":37.035892,"tags":"beach,greece,island,livadi,paros,pisso","S2CellId":"1498400000000000","result":1228,"accuracy":0.13456464,"title":"Pisso+Livadi"}
{"id":7081360,"url":"http://farm1.staticflickr.com/6/7081360_950bc9121a.jpg","path":"63c/04b/63c04b4bc4d847f6b152d84c20cab4.jpg","date":"2005-03-21","year":2005,"month":3,"lon":25.329924,"lat":37.448524,"tags":"2001,ann,cameron,cruise,family,greece,greek+cruise,irv,jason,july,pearce,screen+capture,tape+3,vacation,video+camera","S2CellId":"14a3000000000000","result":1264,"accuracy":0.7848993,"title":"3-20-2005_+7.58.26+PM"}
{"id":5994900288,"url":"http://farm7.staticflickr.com/6026/5994900288_11b64a0d01.jpg","path":"bb9/248/bb9248e9943c706ece4ffdb2222cfd.jpg","date":"2011-07-26","year":2011,"month":7,"lon":25.389334,"lat":37.112,"tags":"%CE%BA%CE%B1%CE%BB%CE%BF%CE%BA%CE%B1%CE%AF%CF%81%CE%B9,%CE%BA%CF%85%CE%BA%CE%BB%CE%AC%CE%B4%CE%B5%CF%82,%CE%BD%CE%AC%CE%BE%CE%BF%CF%82,%CE%BD%CE%B7%CF%83%CE%AF,%CF%80%CE%B1%CF%81%CE%B1%CE%BB%CE%AF%CE%B1,beach,cyclades,greece,greek+islands,naxos,summer","S2CellId":"1495400000000000","result":1225,"accuracy":0.20087163,"title":"Naxos"}
{"id":3701438419,"url":"http://farm4.staticflickr.com/3454/3701438419_a7779dabf7.jpg","path":"daa/5ba/daa5bac39b7dade4cfbaa4a5137cdc1d.jpg","date":"2005-08-15","year":2005,"month":8,"lon":25.32945,"lat":37.444626,"tags":"mykonos","S2CellId":"14a3000000000000","result":1264,"accuracy":0.7528982,"title":"View+from+the+hotel"}
