{"id":4690658318,"url":"http://farm2.staticflickr.com/1284/4690658318_f282252d57.jpg","path":"bc5/193/bc5193354305494aebfe11328977c5d.jpg","date":"2010-05-20","year":2010,"month":5,"lon":102.401,"lat":4.41,"tags":"fungus,guided+tour,holiday,kuala+tahan,malaysia,mushroom,my,national+park,pahang,rain+forest,taman+negara,travel,trip","S2CellId":"8620a4c000000000","result":7506,"accuracy":0.040152483,"title":"A+day+in+Taman+Negara","description":"%3Ca+href%3D%22http%3A%2F%2Fyewenyi.net%2Fwpblog%2F%3Fp%3D4739%22+rel%3D%22nofollow%22%3ETaman+Negara%3C%2Fa%3E."}
{"id":8726704392,"url":"http://farm8.staticflickr.com/7389/8726704392_cfa5a7e49b.jpg","path":"8dc/ba1/8dcba1d88f5b9ed181a8d3509b41cf80.jpg","date":"2013-04-08","year":2013,"month":4,"lon":102.393005,"lat":4.392368,"tags":"gonyosoma+oxycephalum","S2CellId":"864e640000000000","result":7620,"accuracy":0.026631724,"title":"Red-tailed+Green+Rat+Snake+Gonyosoma+oxycephalum","description":"Taman+Negara+NP%2C+Pahang%2C+MALAYSIA"}
{"id":8753693564,"url":"http://farm9.staticflickr.com/8553/8753693564_a00dc771f4.jpg","path":"30d/981/30d9815e8ebe0c1abaec81ec348882.jpg","date":"2013-04-12","year":2013,"month":4,"lon":102.401764,"lat":4.385222,"tags":"sparassidae","S2CellId":"88d9300000000000","result":8584,"accuracy":0.016556425,"title":"Huntsman+Spider+%28Sparassidae%29","description":"Taman+Negara+NP%2C+Pahang%2C+MALAYSIA"}
{"id":8728048901,"url":"http://farm8.staticflickr.com/7451/8728048901_01e8d09fb0.jpg","path":"384/85d/38485dceecea5603f8febd7d78e79.jpg","date":"2013-04-07","year":2013,"month":4,"lon":102.39593,"lat":4.388346,"tags":"tapirus+indicus","S2CellId":"1950000000000000","result":1435,"accuracy":0.030615035,"title":"Malayan+Tapir+Tapirus+indicus","description":"Taman+Negara+NP%2C+Pahang%2C+MALAYSIA"}
{"id":5217433059,"url":"http://farm5.staticflickr.com/4087/5217433059_0c735a02da.jpg","path":"f27/35b/f2735b2952b5fa1c3bb79b195b259d.jpg","date":"2010-08-30","year":2010,"month":8,"lon":102.33902,"lat":4.15057,"tags":"taman+negara","S2CellId":"3b07000000000000","result":2532,"accuracy":0.04298525,"title":"B%C3%BAfalos+de+agua","description":"en+el+rio+Tembeling"}
{"id":4690030923,"url":"http://farm5.staticflickr.com/4051/4690030923_942685247f.jpg","path":"1c9/29b/1c929bf669f6f61f6ba9bc56d468784.jpg","date":"2010-05-20","year":2010,"month":5,"lon":102.3835,"lat":4.431666,"tags":"ford,guided+tour,holiday,kuala+tahan,log,malaysia,my,national+park,pahang,rain+forest,river,steps,sungai+tahan,taman+negara,travel,trip","S2CellId":"6979000000000000","result":6582,"accuracy":0.04812971,"title":"A+day+in+Taman+Negara","description":"%3Ca+href%3D%22http%3A%2F%2Fyewenyi.net%2Fwpblog%2F%3Fp%3D4739%22+rel%3D%22nofollow%22%3ETaman+Negara%3C%2Fa%3E."}
{"id":8678547122,"url":"http://farm9.staticflickr.com/8403/8678547122_52b5cb05b7.jpg","path":"c84/857/c848578d15ee61c0a8cefe9343ef3f55.jpg","date":"2013-04-05","year":2013,"month":4,"lon":102.40262,"lat":4.387148,"tags":"gonyosoma+oxycephalum","S2CellId":"8fa0900000000000","result":9556,"accuracy":0.022215836,"title":"Red-tailed+Green+Rat+Snake+Gonyosoma+oxycephalum","description":"Taman+Negara+NP%2C+Pahang%2C+MALAYSIA"}
{"id":8472026960,"url":"http://farm9.staticflickr.com/8381/8472026960_24b91d965a.jpg","path":"bc2/354/bc2354d112fd76ea44cfc9c79e71e8c.jpg","date":"2012-02-29","year":2012,"month":2,"lon":102.05582,"lat":4.185736,"tags":"2012,bridge,jungle,kuala+lipis,malaysia,pahang,rainforest,river,travel,trees","S2CellId":"89b1111000000000","result":8803,"accuracy":0.029830284,"title":"Kuala+Lipis+river+and+road+bridge"}
{"id":459864007,"url":"http://farm1.staticflickr.com/169/459864007_e75373b382.jpg","path":"5c5/e80/5c5e8086a9c2acf44e613b2857cee2cd.jpg","date":"2007-03-23","year":2007,"month":3,"lon":102.3864,"lat":4.291635,"tags":"adventure,jerantut,kuala+tahan,malaysia,national+park,nature,pahang,rainforest,river,taman+negara,tourism,travel,visit+malaysia+2007","S2CellId":"312f000000000000","result":1733,"accuracy":0.040964164,"title":"National+Park+0011.jpg"}
{"id":4690661452,"url":"http://farm5.staticflickr.com/4023/4690661452_8e093758f9.jpg","path":"48d/354/48d354c9361225a786f0587ae7c9fc.jpg","date":"2010-05-20","year":2010,"month":5,"lon":102.39916,"lat":4.418,"tags":"fungus,guided+tour,holiday,kuala+tahan,malaysia,mushroom,my,national+park,pahang,rain+forest,taman+negara,travel,trip","S2CellId":"465a400000000000","result":2886,"accuracy":0.008884814,"title":"A+day+in+Taman+Negara","description":"%3Ca+href%3D%22http%3A%2F%2Fyewenyi.net%2Fwpblog%2F%3Fp%3D4739%22+rel%3D%22nofollow%22%3ETaman+Negara%3C%2Fa%3E."}
{"id":8678558950,"url":"http://farm9.staticflickr.com/8401/8678558950_4282bb9080.jpg","path":"892/328/892328d417d44e5fc2ca132691ce5462.jpg","date":"2013-04-05","year":2013,"month":4,"lon":102.402794,"lat":4.386891,"tags":"gonyosoma+oxycephalum","S2CellId":"8640bfc000000000","result":7555,"accuracy":0.015890375,"title":"Red-tailed+Green+Rat+Snake+Gonyosoma+oxycephalum","description":"Taman+Negara+NP%2C+Pahang%2C+MALAYSIA"}
{"id":8749363181,"url":"http://farm8.staticflickr.com/7295/8749363181_f404603151.jpg","path":"103/524/103524ae9e16b3bbfb2a67f1d836a85.jpg","date":"2013-04-12","year":2013,"month":4,"lon":102.402145,"lat":4.385136,"tags":"dendrelaphis+cyanochloris","S2CellId":"3131000000000000","result":1734,"accuracy":0.0680456,"title":"Wall%27s+Bronzeback+Dendrelaphis+cyanochloris","description":"Taman+Negara+NP%2C+Pahang%2C+MALAYSIA"}
{"id":8750099072,"url":"http://farm6.staticflickr.com/5467/8750099072_464f65502a.jpg","path":"d9a/d49/d9ad4944ffa5ced4825813fc23de73d.jpg","date":"2013-04-06","year":2013,"month":4,"lon":102.39515,"lat":4.388902,"tags":"cyrtodactylus+consobrinus","S2CellId":"877c000000000000","result":7905,"accuracy":0.003389079,"title":"Peter%27s+Bow-fingered+Gecko+Cyrtodactylus+consobrinus","description":"Taman+Negara+NP%2C+Pahang%2C+MALAYSIA"}
{"id":5672351449,"url":"http://farm6.staticflickr.com/5264/5672351449_2737496012.jpg","path":"c84/782/c84782022a891c99c39addccfc65988.jpg","date":"2011-04-21","year":2011,"month":4,"lon":102.40166,"lat":4.383661,"tags":"jungle+line,malaysia,national+park,taman+negara","S2CellId":"6979000000000000","result":6582,"accuracy":0.053834803,"title":"IMG_4290"}
{"id":8682862841,"url":"http://farm9.staticflickr.com/8397/8682862841_6ffa524863.jpg","path":"1ae/9a6/1ae9a6868c6f3481d41ea3f216afd98.jpg","date":"2013-04-13","year":2013,"month":4,"lon":102.405106,"lat":4.381243,"tags":"tettigoniidae","S2CellId":"864e640000000000","result":7620,"accuracy":0.026662013,"title":"Katydid+%28Tettigoniidae%29","description":"Kuala+Tahan%2C+Pahang%2C+MALAYSIA"}
