{"id":6797038985,"url":"http://farm8.staticflickr.com/7001/6797038985_9659c89457.jpg","path":"5a1/b9f/5a1b9fcda9d3fdc54561f2cae50a06b.jpg","date":"2011-08-03","year":2011,"month":8,"lon":-9.350309,"lat":52.944214,"tags":"ireland,irish,irlande","S2CellId":"8c036ec000000000","result":9411,"accuracy":0.13759825,"title":"Irlande+-+110"}
{"id":3693645380,"url":"http://farm3.staticflickr.com/2527/3693645380_9bf5ee2482.jpg","path":"6e3/c86/6e3c867daaf2c52211c199d5b5652.jpg","date":"2009-06-29","year":2009,"month":6,"lon":-9.534673,"lat":52.011314,"tags":"ireland,killarney,killarney+national+park,muckross+lake,west+ireland","S2CellId":"485c400000000000","result":4828,"accuracy":0.100160204,"title":"Muckross+House+From+Muckross+Lake"}
{"id":169300584,"url":"http://farm1.staticflickr.com/64/169300584_805e30bea7.jpg","path":"6ed/078/6ed078040e1b81b5cb672d1d51b5c6.jpg","date":"2006-06-17","year":2006,"month":6,"lon":-9.389984,"lat":52.936962,"tags":"charleen,ireland,liscannor,mullenweg,photomatt,travel","S2CellId":"4865900000000000","result":4877,"accuracy":0.07228492,"title":"Liscannor","description":"The+beach+at+Liscannor"}
{"id":3166641038,"url":"http://farm2.staticflickr.com/1142/3166641038_91c234cd3a.jpg","path":"321/317/321317c3f3e3a7b59fd586b1c3871.jpg","date":"2008-12-28","year":2008,"month":12,"lon":-9.975532,"lat":52.056343,"tags":"beach,co+kerry,dingle+bay,ireland,rossbeigh","S2CellId":"151c400000000000","result":1379,"accuracy":0.12632643,"title":"Rossbeigh+Beach%2C+Co+Kerry%2C+Ireland","description":"lovely+blue+skies%2C+tide+going+out%2C+bitterly+cold+and+hardly+anybody+on+the+beach"}
{"id":8017603376,"url":"http://farm9.staticflickr.com/8041/8017603376_8e0646529d.jpg","path":"ac2/b39/ac2b3962da9ffcf347f9f7fdcba58db6.jpg","date":"2012-09-23","year":2012,"month":9,"lon":-9.650352,"lat":52.68373,"tags":"clare,ireland,kilkee,sea,waves","S2CellId":"9aab000000000000","result":9926,"accuracy":0.12418832,"title":"IMG_1927"}
{"id":417979614,"url":"http://farm1.staticflickr.com/132/417979614_23151706d6.jpg","path":"7c3/376/7c33766d43b73888f8525b072b2661.jpg","date":"2006-04-26","year":2006,"month":4,"lon":-9.061853,"lat":52.449398,"tags":"arra,bridge,deel,ireland,limerick,newcastlewest,river,tree","S2CellId":"485b900000000000","result":4824,"accuracy":0.44680703,"title":"River+Arra+Flows+Through+Newcastlewest+2","description":"Co.+Limerick%2C+Ireland."}
{"id":4809795201,"url":"http://farm5.staticflickr.com/4073/4809795201_a3af61185a.jpg","path":"894/1ac/8941ac83bdab5fedb24d2e64bb4d6.jpg","date":"2010-07-08","year":2010,"month":7,"lon":-9.533973,"lat":52.064075,"tags":"clouds,killarney,lake,mountains","S2CellId":"4845400000000000","result":4817,"accuracy":0.07800962,"title":"IMG_20100708_144423"}
{"id":140512688,"url":"http://farm1.staticflickr.com/53/140512688_331101d6e8.jpg","path":"ed6/328/ed6328fde85e223db2ce2685ccfe6c5.jpg","date":"2006-04-17","year":2006,"month":4,"lon":-9.081916,"lat":52.68096,"tags":"boat,font,paint,rust,wrecked","S2CellId":"4cb29d0000000000","result":5845,"accuracy":0.002934018,"title":"IMG_7593.JPG"}
{"id":8158405003,"url":"http://farm9.staticflickr.com/8062/8158405003_782b683b74.jpg","path":"cdc/0f5/cdc0f53934578bdfeb698077fe264b.jpg","date":"2012-04-27","year":2012,"month":4,"lon":-9.458541,"lat":52.950912,"tags":"atlantic+ocean,cliffs+of+moher,sign,warning","S2CellId":"485b400000000000","result":4823,"accuracy":0.33607557,"title":"Cliffs+of+Moher"}
{"id":974541506,"url":"http://farm2.staticflickr.com/1266/974541506_59c104bf20.jpg","path":"4c3/02a/4c302a2dcf56b971bd865f5886a63ae.jpg","date":"2007-07-21","year":2007,"month":7,"lon":-9.416313,"lat":52.993866,"tags":"ireland","S2CellId":"489f000000000000","result":5781,"accuracy":0.028429726,"title":"Seal"}
{"id":1923297697,"url":"http://farm3.staticflickr.com/2274/1923297697_bf5ec8b595.jpg","path":"05d/c7f/05dc7f592de867643204cd8e5c554b6.jpg","date":"2007-09-26","year":2007,"month":9,"lon":-9.394512,"lat":52.936844,"tags":"county+clare,cour+d%27%C3%A9cole,ireland,irlande,liscannor,playground,r%C3%A9cr%C3%A9ation,trip,voyage","S2CellId":"4867500000000000","result":4904,"accuracy":0.030785311,"title":"Irish+playground","description":"Taken+in+Liscannor%2C+county+clare%2C+Ireland.+Kids+at+school.%0A%0ACour+d%27%C3%A9cole+%C3%A0+Liscannor+en+Irlande+%28comt%C3%A9+de+Clare%29."}
{"id":5520190097,"url":"http://farm6.staticflickr.com/5013/5520190097_cebb701098.jpg","path":"596/394/596394469965ccbb17de812881b3b04e.jpg","date":"2009-04-06","year":2009,"month":4,"lon":-9.318251,"lat":52.375454,"tags":"eristalis,hoverfly,pertinax,salix,syrphidae","S2CellId":"80e9500000000000","result":7405,"accuracy":0.05386788,"title":"Eristalis+pertinax+on+Goat+Willow"}
{"id":459003357,"url":"http://farm1.staticflickr.com/220/459003357_35857205cd.jpg","path":"8da/ac2/8daac26becaddddbe1e6bd841f3f8119.jpg","date":"2006-11-12","year":2006,"month":11,"lon":-9.505952,"lat":52.069317,"tags":"ireland,kerry,killarney,landscape,tree","S2CellId":"5140000000000000","result":5964,"accuracy":0.034048647,"title":"Ring+Road+In+Autumn","description":"Killarney%2C+Co.+Kerry%2C+Ireland."}
{"id":3924364669,"url":"http://farm3.staticflickr.com/2453/3924364669_f1cc7bedde.jpg","path":"4c6/f83/4c6f83aafb6089aa952478ad725f4b.jpg","date":"2009-09-14","year":2009,"month":9,"lon":-9.781878,"lat":52.234367,"tags":"09.14.09,day+1,dingle+way,ireland","S2CellId":"4865b00000000000","result":4878,"accuracy":0.033133656,"title":"DSCN3801"}
{"id":2921130073,"url":"http://farm4.staticflickr.com/3188/2921130073_7d6a4167fa.jpg","path":"4cc/abc/4ccabcf414a21a639a6a7935f8158272.jpg","date":"2006-08-29","year":2006,"month":8,"lon":-9.49311,"lat":52.027393,"tags":"conservation,ecological,ecology,environment,environmental,ireland,kerry,killarney,killarney+national+park,national+park,p%C3%A1irc+n%C3%A1isi%C3%BAnta+chill+airne,plant","S2CellId":"0d56c00000000000","result":472,"accuracy":0.03185123,"title":"here%27s+an+original+title%3A+plant","description":"Killarney+National+Park+%28Irish%3A+P%C3%A1irc+N%C3%A1isi%C3%BAnta+Chill+Airne%29%2C+which+is+located+beside+the+town+of+Killarney%2C+County+Kerry%2C+Ireland.+It+was+the+first+national+park+established+in+Ireland%2C+created+when+Muckross+Estate+was+donated+to+the+Irish+state+in+1932.+The+park+has+since+been+substantially+expanded+and+encompasses+over+102.89+km%5E2+%2825%2C425+acres%29+of+diverse+ecology%2C+including+the+Lakes+of+Killarney%2C+Oak+and+Yew+woodlands+of+international+importance%2C+and+mountain+peaks."}
{"id":530615251,"url":"http://farm2.staticflickr.com/1013/530615251_eec63110f5.jpg","path":"a46/af3/a46af3bd5babaf1d2f23bcdd318d2.jpg","date":"2007-05-28","year":2007,"month":5,"lon":-9.498817,"lat":52.022102,"tags":"ireland,muckross,muckross+traditional+farm","S2CellId":"4cb5400000000000","result":5857,"accuracy":0.08722039,"title":"Muckross+Farm"}
{"id":7813672732,"url":"http://farm9.staticflickr.com/8291/7813672732_115b49fe24.jpg","path":"b4d/67a/b4d67a33645695c8661d0f03e3b726f.jpg","date":"2011-03-20","year":2011,"month":3,"lon":-9.654407,"lat":52.68419,"tags":"boat,cox,kilkee,sea","S2CellId":"4873400000000000","result":5083,"accuracy":0.06301677,"title":"GOPR2317","description":"Dcim%5C100gopro"}
{"id":3153541056,"url":"http://farm4.staticflickr.com/3077/3153541056_66d2705c23.jpg","path":"12e/16b/12e16bdc170cc6ba6abcf41db0941b.jpg","date":"2008-12-03","year":2008,"month":12,"lon":-9.706839,"lat":52.27295,"tags":"art,dumb,intervention,king,kingdumb,lamp,shade,street,tralee","S2CellId":"89c1300000000000","result":8928,"accuracy":0.021449983,"title":"Lamp+Shade+1","description":"Lamp+shade+on+a+pedestrian+crossing%2C+Rock+St+Tralee."}
{"id":3827385303,"url":"http://farm3.staticflickr.com/2470/3827385303_ce62e67088.jpg","path":"f16/8ba/f168ba828d8c2b3234903f696ad787.jpg","date":"2009-08-16","year":2009,"month":8,"lon":-9.617328,"lat":52.581097,"tags":"beach,beal+strand,dune,grass,reflection,sand,sea,shannon,shore,sun,water","S2CellId":"47ddc00000000000","result":4500,"accuracy":0.101655066,"title":"Highlights"}
{"id":5728099789,"url":"http://farm6.staticflickr.com/5202/5728099789_9bb3b18448.jpg","path":"43a/c71/43ac71c0e4b5dffee77f265aff20e04b.jpg","date":"2011-05-14","year":2011,"month":5,"lon":-9.472312,"lat":52.636307,"tags":"2011,ireland,vacation,vandeleur+walled+garden","S2CellId":"4875fc0000000000","result":5180,"accuracy":0.022213943,"title":"DSC_8118"}
{"id":9535803791,"url":"http://farm8.staticflickr.com/7373/9535803791_2dc9ea351c.jpg","path":"8c5/7f6/8c57f690d927c41b8b8eb21f3051.jpg","date":"2013-08-12","year":2013,"month":8,"lon":-9.9825,"lat":52.1441,"tags":"anascaultodingle,august2013,ireland","S2CellId":"488c400000000000","result":5764,"accuracy":0.06428232,"title":"Anascaul+to+Dingle"}
{"id":6019121749,"url":"http://farm7.staticflickr.com/6026/6019121749_79b25c68da.jpg","path":"d15/fab/d15faba58db5baf8620b54134672cc1.jpg","date":"2011-08-03","year":2011,"month":8,"lon":-9.633293,"lat":52.060303,"tags":"2011,550d,canon,green,horses,ireland,landscape,summer","S2CellId":"487a240000000000","result":5514,"accuracy":0.007577441}
{"id":173425116,"url":"http://farm1.staticflickr.com/46/173425116_55e9896c7f.jpg","path":"467/798/467798647086ccd56d08e393dcddd0.jpg","date":"2006-01-22","year":2006,"month":1,"lon":-9.637584,"lat":52.03053,"tags":"bridge,gap+of+dunloe,ireland,kerry,killarney,lake,landscape,mountain,pl%3Abeautifulire,pl%3Abridges,pl%3Ahimmw,pl%3Akingdom-kerry,pl%3Alandscapeph,pl%3Awow,river,road","S2CellId":"48650c0000000000","result":4871,"accuracy":0.2502878,"title":"The+Gap+of+Dunloe%2C+Killarney%2C+Co+Kerry+-+6","description":"A+tranquil+scene+..."}
{"id":3991526514,"url":"http://farm3.staticflickr.com/2511/3991526514_b31d216c8f.jpg","path":"50c/9de/50c9de9df40e119a348f47d7e7a4dbb.jpg","date":"2009-10-30","year":2009,"month":10,"lon":-9.42584,"lat":52.014683,"tags":"ireland,loimere","S2CellId":"4845400000000000","result":4817,"accuracy":0.029359428,"title":"Ireland"}
{"id":5520447536,"url":"http://farm6.staticflickr.com/5092/5520447536_93f1dc7b8f.jpg","path":"fed/613/fed6133e8e7a8c46ec6f0e2ac27b623.jpg","date":"2010-07-09","year":2010,"month":7,"lon":-9.318251,"lat":52.375454,"tags":"bug,ferrugata,leptopterna","S2CellId":"80e9500000000000","result":7405,"accuracy":0.027052788,"title":"leptopterna+ferrugata+male"}
{"id":7088569953,"url":"http://farm8.staticflickr.com/7267/7088569953_378cb4f1ab.jpg","path":"f4a/aef/f4aaef3683f2bfd210f0b4c090cefb.jpg","date":"2012-04-17","year":2012,"month":4,"lon":-9.469742,"lat":52.947964,"tags":"atlantic,ireland,west+coast","S2CellId":"485b400000000000","result":4823,"accuracy":0.9487948,"title":"West+Coast+of+Ireland"}
{"id":2206553071,"url":"http://farm3.staticflickr.com/2245/2206553071_92730cb486.jpg","path":"65c/e4e/65ce4e535aaa518e5718878c97a0ddba.jpg","date":"2006-08-17","year":2006,"month":8,"lon":-9.504632,"lat":52.005913,"tags":"estate,ireland,irlanda,summer","S2CellId":"4889500000000000","result":5757,"accuracy":0.012048314,"title":"Scale+di+Moria+1","description":"Ok%2C+erano+in+un+bosco+e+non+sottoterra%2C+ma+vi+assicuro+la+ripidit%C3%A0+era+quella"}
{"id":3271891079,"url":"http://farm4.staticflickr.com/3533/3271891079_0123166633.jpg","path":"e9a/aee/e9aaee961216fadf8cb77fbfd17193.jpg","date":"2009-02-11","year":2009,"month":2,"lon":-9.54626,"lat":52.00174,"tags":"february,ireland,travel,winter","S2CellId":"4845400000000000","result":4817,"accuracy":0.051366005,"title":"P1010473"}
{"id":6189566206,"url":"http://farm7.staticflickr.com/6157/6189566206_89672ca833.jpg","path":"d0e/f98/d0ef98d39b4737c94ad01254ef6faad1.jpg","date":"2011-09-24","year":2011,"month":9,"lon":-9.347453,"lat":52.939545,"tags":"co+clare,ireland,lahinch,person%3Aamanda+quail,person%3Atonya+madden","S2CellId":"88f8b00000000000","result":8737,"accuracy":0.06850683,"title":"24092011363"}
{"id":3035519300,"url":"http://farm4.staticflickr.com/3173/3035519300_0044101ff3.jpg","path":"8ae/155/8ae155625e678a7367e1142462df5bd.jpg","date":"2007-09-16","year":2007,"month":9,"lon":-9.038314,"lat":52.960426,"tags":"ballyportry,candelabra,castle,ireland,mike,tesco","S2CellId":"89c6c62400000000","result":9148,"accuracy":0.016419163,"description":"%7C+%3Ca+href%3D%22http%3A%2F%2Ffarm4.static.flickr.com%2F3173%2F3035519300_bc2c763227_o.jpg%22%3E%2B+%2B%3C%2Fa%3E+%7C"}
{"id":5520093905,"url":"http://farm6.staticflickr.com/5057/5520093905_2649303cd0.jpg","path":"8ce/b09/8ceb095ef5e6423a347e5868e6f6.jpg","date":"2010-09-04","year":2010,"month":9,"lon":-9.318251,"lat":52.375454,"tags":"moth,plume+moth,pterophoridae","S2CellId":"864e640000000000","result":7620,"accuracy":0.13958451,"title":"plume+moth","description":"Emmelina+monodactyla"}
{"id":9538544106,"url":"http://farm8.staticflickr.com/7356/9538544106_f1cd01d8a1.jpg","path":"f7d/acb/f7dacb507d68ea7fd816f2d6445bf612.jpg","date":"2013-08-12","year":2013,"month":8,"lon":-9.901859,"lat":52.215668,"tags":"anascaultodingle,august2013,ireland","S2CellId":"6d318a5000000000","result":6817,"accuracy":0.031159885,"title":"Anascaul+to+Dingle"}
{"id":140964006,"url":"http://farm1.staticflickr.com/53/140964006_ac584b4481.jpg","path":"fb5/214/fb52149e93bbd69444b3eca91c36936.jpg","date":"2006-04-30","year":2006,"month":4,"lon":-9.371337,"lat":52.955257,"tags":"cliffs+of+moher,irlanda,moher","S2CellId":"485b400000000000","result":4823,"accuracy":0.37515613,"title":"Cliffs+of+Moher"}
{"id":193893023,"url":"http://farm1.staticflickr.com/66/193893023_722d5fcc56.jpg","path":"c6b/2c2/c6b2c2985bc32edd1f40d06adcbbb391.jpg","date":"2005-02-05","year":2005,"month":2,"lon":-9.32795,"lat":52.403046,"tags":"%28b****x%29,purt,upper","S2CellId":"4649000000000000","result":2812,"accuracy":0.07687283,"title":"ireland+january+2005+009","description":"Our+house+in+Purt%2C+from+the+High+Street."}
{"id":4005430274,"url":"http://farm3.staticflickr.com/2622/4005430274_8767e702c9.jpg","path":"749/f7f/749f7f413afa925bb32e47de264e3a45.jpg","date":"2009-07-15","year":2009,"month":7,"lon":-9.494812,"lat":52.026073,"tags":"abbey,abtei,ballylongford,cloghereen,county+kerry,friary,ireland,irland,killarney+national+park,kloster,m%C3%B6nchkloster,monastery,muckross+abbey,tamron+af+18-270mm+f%2F3.5-6.3","S2CellId":"488b000000000000","result":5763,"accuracy":0.021875422,"title":"Muckross+Abbey","description":"%3Ca+href%3D%22http%3A%2F%2Fde.wikipedia.org%2Fwiki%2FMuckross_Abbey%22+rel%3D%22nofollow%22%3EMuckross+Abbey%3C%2Fa%3E%0A%0A--+%0A%0A%3Ca+href%3D%22http%3A%2F%2Fen.wikipedia.org%2Fwiki%2FMuckross_Abbey%22+rel%3D%22nofollow%22%3EMuckross+Abbey%3C%2Fa%3E"}
{"id":2784101300,"url":"http://farm4.staticflickr.com/3029/2784101300_45d44433c8.jpg","path":"37d/97f/37d97fde487b1cced0aa2327b468bcd8.jpg","date":"2008-07-23","year":2008,"month":7,"lon":-9.980134,"lat":52.140045,"tags":"2008,dingle,family,ireland","S2CellId":"488c400000000000","result":5764,"accuracy":0.03203148,"title":"Inch+Strand"}
{"id":2452524812,"url":"http://farm4.staticflickr.com/3196/2452524812_e776d0f9be.jpg","path":"a53/688/a536883afffa964c44ac0caf6c11c67.jpg","date":"2008-04-13","year":2008,"month":4,"lon":-9.06387,"lat":52.061535,"tags":"ass,babes,bum,butt,carshow,carshow+girls,cork,drift,drifting,fast+car,ferrari,girls,gympants,impreza,ireland,irl,lycra,modified,modified+cars,modified+cars+carshow+drift+drifting+girls+models,modified+motors,news+of+the+world,notw,racing,s2000,score,score+angels,skyline,subaru,supra,sweatpants,tight,tuning,viper","S2CellId":"85d2010000000000","result":7483,"accuracy":0.80959797,"title":"KA6R7390-13-04-2008","description":"Modified+Motors+Cork+2008+-+Canon+EOS-1D+Mark+II%2C+f4%2C+1%2F160%E2%80%9D%2C+ISO+800%2C+73mm%2C+Auto"}
{"id":8186039644,"url":"http://farm9.staticflickr.com/8062/8186039644_620e495a44.jpg","path":"3cb/8a3/3cb8a3608b863676a01088d624519be.jpg","date":"2012-07-04","year":2012,"month":7,"lon":-9.558105,"lat":52.03813,"tags":"2012,county+kerry,europe,ireland,kerry,killarney+national+park,muckross,ring+of+kerry,summer,travel","S2CellId":"4889300000000000","result":5756,"accuracy":0.19466166,"title":"Muckross+Again"}
{"id":128604300,"url":"http://farm1.staticflickr.com/54/128604300_3b33eccfb8.jpg","path":"42f/e82/42fe822239a8d82821e379357d118d1.jpg","date":"2006-04-13","year":2006,"month":4,"lon":-9.424724,"lat":52.977253,"tags":"cliffs+of+moher,ireland,irlanda","S2CellId":"485b400000000000","result":4823,"accuracy":0.29471913,"title":"Cliffs+of+Moher+06"}
{"id":2375304320,"url":"http://farm3.staticflickr.com/2343/2375304320_e109bf5a9b.jpg","path":"7f2/89d/7f289d9483b0b866472956e0e92b3a.jpg","date":"2004-08-14","year":2004,"month":8,"lon":-9.544372,"lat":52.0871,"tags":"europe,ireland,kerry,pilgrimage","S2CellId":"484c000000000000","result":4819,"accuracy":0.23993458,"title":"Last+batch+139"}
{"id":4706749746,"url":"http://farm5.staticflickr.com/4008/4706749746_4fb67b39a6.jpg","path":"851/181/851181b6b0c84616d877fd9cabecd.jpg","date":"2010-06-08","year":2010,"month":6,"lon":-9.633636,"lat":52.039925,"tags":"county+kerry,gap+of+dunloe,ireland","S2CellId":"4889300000000000","result":5756,"accuracy":0.29423165,"title":"The+Gap+of+Dunloe%2C+co.Kerry%2C+Ireland"}
{"id":817154985,"url":"http://farm2.staticflickr.com/1152/817154985_2098008032.jpg","path":"3e5/85c/3e585c4b81c1b08b1361347b34a850.jpg","date":"2007-07-04","year":2007,"month":7,"lon":-9.65665,"lat":52.68096,"tags":"2007,clare,countyclare,holiday,ireland,july,kilkee","S2CellId":"89e4d00000000000","result":9371,"accuracy":0.01137954,"title":"hugh+batting"}
{"id":180267317,"url":"http://farm1.staticflickr.com/46/180267317_99e7bd6566.jpg","path":"8c8/36c/8c836c1565d4aaaa35736c566f46b5b.jpg","date":"2006-06-28","year":2006,"month":6,"lon":-9.168627,"lat":52.177464,"tags":"building,cart,cork,donkey,farming,ireland,kiskeam,milk+churn,mural,painting,pl%3Amurals%26m","S2CellId":"89c25896c0000000","result":8974,"accuracy":0.03870974,"title":"Mural+in+Kiskeam%2C+Co+Cork%2C+Ireland","description":"Mural+of+donkey%2C+cart%2C+milk+churns+and+farmer+on+gable+wall+in+Kiskeam."}
{"id":6269442533,"url":"http://farm7.staticflickr.com/6216/6269442533_08b3379758.jpg","path":"daa/183/daa1839a8850e425bdec1e019db3233.jpg","date":"2011-10-20","year":2011,"month":10,"lon":-9.964256,"lat":52.058823,"tags":"raw","S2CellId":"4845400000000000","result":4817,"accuracy":0.15080477,"title":"Beach%2C+Near+Rossbeigh+Beach+House"}
{"id":11078410445,"url":"http://farm6.staticflickr.com/5520/11078410445_d6c65f66f5.jpg","path":"541/7a3/5417a3e13e9428d13825a9f4c84b4667.jpg","date":"2012-07-29","year":2012,"month":7,"lon":-9.547399,"lat":52.015213,"tags":"ireland,killarney,killarney+national+park,torc+waterfall,waterfall","S2CellId":"4845400000000000","result":4817,"accuracy":0.22533405,"title":"Torc+Waterfall"}
{"id":9456094338,"url":"http://farm4.staticflickr.com/3676/9456094338_2e0b516431.jpg","path":"c37/df9/c37df9cd805efa617c2fb3cb7270.jpg","date":"2013-04-03","year":2013,"month":4,"lon":-9.983803,"lat":52.142773,"tags":"%C3%A9ire,18-105mm+f%2F3.5-5.6g+vr,atlantic,atlantic+ocean,coastline,county+kerry,d90,dingle,dingle+peninsula,driving,ireland,kerry,nikkor,nikon,nikon+d90,north+atlantic,ocean,peninsula,travel,water","S2CellId":"484c000000000000","result":4819,"accuracy":0.122194126,"title":"Into+the+Northern+Atlantic","description":"The+drive+around+Dingle+Peninsula+is+like+the+quiet%2C+little+sister+of+the+Ring+of+Kerry.+It+was+a+seriously+beautiful+drive+on+this+sunny+day."}
{"id":8052766185,"url":"http://farm9.staticflickr.com/8455/8052766185_0ae9f47edc.jpg","path":"25e/9e2/25e9e26d364cfc5e04deae14d8a6b9.jpg","date":"2012-09-09","year":2012,"month":9,"lon":-9.449143,"lat":52.9574,"tags":"cliffs,cliffs+of+moher,ireland,landscape,rock,stone,tower","S2CellId":"486bc00000000000","result":4929,"accuracy":0.04235307,"title":"window"}
{"id":710681129,"url":"http://farm2.staticflickr.com/1297/710681129_916f02eb82.jpg","path":"c8f/65f/c8f65ff1346213bde89736e9c88170.jpg","date":"2007-06-17","year":2007,"month":6,"lon":-9.430646,"lat":52.838448,"tags":"bicycle,cycling,ireland,irelandtrip2007,vacation","S2CellId":"489b000000000000","result":5779,"accuracy":0.0646893,"title":"P6172691.JPG"}
{"id":4593860437,"url":"http://farm2.staticflickr.com/1108/4593860437_befa42e6a2.jpg","path":"7f4/03d/7f403d4927d6f478a2fb147bf5bd3879.jpg","date":"2009-04-08","year":2009,"month":4,"lon":-9.424754,"lat":52.97146,"tags":"clare,holiday,ireland,uk","S2CellId":"485b400000000000","result":4823,"accuracy":0.65290195,"title":"090408-125443.jpg"}
{"id":7173629596,"url":"http://farm8.staticflickr.com/7076/7173629596_950388b132.jpg","path":"10b/230/10b23026312f681c58e47f82b75f9e2.jpg","date":"2008-06-25","year":2008,"month":6,"lon":-9.510297,"lat":52.05869,"tags":"killarney,landscape","S2CellId":"485ec00000000000","result":4836,"accuracy":0.10039807}
{"id":3271991161,"url":"http://farm4.staticflickr.com/3522/3271991161_00a4d0dc7c.jpg","path":"6eb/9d5/6eb9d5977cb926ee7ce93d8855e4.jpg","date":"2009-02-11","year":2009,"month":2,"lon":-9.490299,"lat":52.02926,"tags":"february,ireland,travel,winter","S2CellId":"4889300000000000","result":5756,"accuracy":0.22458401,"title":"P1010404"}
{"id":4037455177,"url":"http://farm4.staticflickr.com/3063/4037455177_9a07facb18.jpg","path":"e6f/57b/e6f57b5e7dd957f0ed44a1fa55b6b91f.jpg","date":"2009-10-15","year":2009,"month":10,"lon":-9.662781,"lat":52.684246,"tags":"holes,ir,ireland,kilkee,pollack","S2CellId":"9aab000000000000","result":9926,"accuracy":0.035736546,"title":"Starfish+alive+but+stranded","description":"Returned+to+pool"}
{"id":399378373,"url":"http://farm1.staticflickr.com/188/399378373_8954ebde5b.jpg","path":"734/922/73492264aff1d6af7c67da8aa191e.jpg","date":"2004-11-22","year":2004,"month":11,"lon":-9.425411,"lat":52.978725,"tags":"clare,cliffs,cliffs+of+moher,eire,fence,grass,ireland,ocean,overcast","S2CellId":"4873400000000000","result":5083,"accuracy":0.34943724,"title":"Fence"}
{"id":9538565318,"url":"http://farm6.staticflickr.com/5511/9538565318_2b03e6a79b.jpg","path":"f53/8bc/f538bc133fbc69da54cc2a3637eeca.jpg","date":"2013-08-12","year":2013,"month":8,"lon":-9.94997,"lat":52.178032,"tags":"anascaultodingle,august2013,ireland","S2CellId":"4889100000000000","result":5755,"accuracy":0.08238878,"title":"Anascaul+to+Dingle"}
{"id":5032942115,"url":"http://farm5.staticflickr.com/4108/5032942115_87850901ac.jpg","path":"1cd/77f/1cd77fdc21a8cbaadc7c91aca4badb.jpg","date":"2010-07-25","year":2010,"month":7,"lon":-9.503173,"lat":52.019543,"tags":"county+kerry,ireland,muckross+house","S2CellId":"487cb00000000000","result":5617,"accuracy":0.12288462,"title":"Muckross+House%2C+Lough+Leane+P1120188"}
{"id":229945640,"url":"http://farm1.staticflickr.com/74/229945640_1b12f82e19.jpg","path":"f46/b99/f46b99cc49ed8a2fadafcece0ec6524.jpg","date":"2006-07-15","year":2006,"month":7,"lon":-9.0618,"lat":52.0613,"tags":"ejc,ireland","S2CellId":"884dc00000000000","result":8408,"accuracy":0.025237283,"title":"EJC+Games+%2819%29"}
{"id":3730515858,"url":"http://farm3.staticflickr.com/2620/3730515858_42b291cda7.jpg","path":"8ab/63e/8ab63e9a306bf3349c539366badcbe2.jpg","date":"2009-06-08","year":2009,"month":6,"lon":-9.531156,"lat":52.041725,"tags":"2009,animali,campagna,cigno,county+kerry,esterno,germani+reali,giorno,ireland,killarney,killarney+national+park,lago,lower+lake,natura,noknownpeople,nopeople,palude,paolo_cst,papere,parco,uccelli,vacanze,viaggioirlanda2009","S2CellId":"48760e4000000000","result":5284,"accuracy":0.014898287,"title":"044+Cigni+e+germani"}
{"id":3165877879,"url":"http://farm4.staticflickr.com/3106/3165877879_737732db9e.jpg","path":"8ad/84d/8ad84d9d3a726f94b37d42a2a6998ce.jpg","date":"2008-12-30","year":2008,"month":12,"lon":-9.490406,"lat":52.028824,"tags":"cokerry,ireland,killarneynationalpark,muckrosshouse,ringofkerry","S2CellId":"5495f00000000000","result":6276,"accuracy":0.07006877,"title":"Muckross+House%2C+Co+Kerry%2C+Ireland","description":"%3Ca+href%3D%22http%3A%2F%2Fwww.muckross-house.ie%2F%22%3Ewww.muckross-house.ie%2F%3C%2Fa%3E%0A%0ASet+in+the+lovely+Killarney+National+Park%0AWeather+wasn%27t+so+lovely+this+day"}
{"id":140509410,"url":"http://farm1.staticflickr.com/45/140509410_0b4cb12bce.jpg","path":"7e3/4db/7e34dbdcc659b9a1791239ddb6d89dc.jpg","date":"2006-04-14","year":2006,"month":4,"lon":-9.48472,"lat":52.44827,"tags":"flowers,graves","S2CellId":"89b7b7c400000000","result":8874,"accuracy":0.024460364,"title":"IMG_7511.JPG"}
{"id":710919293,"url":"http://farm2.staticflickr.com/1161/710919293_9c230a793c.jpg","path":"fba/7c7/fba7c76104078ae8df1148c2a1f1f8c.jpg","date":"2007-06-22","year":2007,"month":6,"lon":-9.024968,"lat":52.89715,"tags":"bicycle,cycling,ireland,irelandtrip2007,vacation","S2CellId":"0b00000000000000","result":126,"accuracy":0.10059872,"title":"P6222838.JPG"}
{"id":3827460165,"url":"http://farm4.staticflickr.com/3502/3827460165_0c69ac26c0.jpg","path":"c4b/638/c4b638b3a12150b527939d26f7b3d15e.jpg","date":"2009-08-16","year":2009,"month":8,"lon":-9.830703,"lat":52.37932,"tags":"ballyheigue,beach,corner,dune,fine,future+shoot+location,ireland,kerry,marram,sand,sanddune","S2CellId":"54c1c00000000000","result":6304,"accuracy":0.03415295,"title":"Insert+Edgy+Model+Here"}
{"id":4458613549,"url":"http://farm3.staticflickr.com/2695/4458613549_cdddbb4602.jpg","path":"67a/f3d/67af3d796d4de2cf4d8d47936c548c3.jpg","date":"2007-06-12","year":2007,"month":6,"lon":-9.215126,"lat":52.5897,"tags":"%E2%80%9Cahenny,%E2%80%9Cashford,%E2%80%9Cathlone,%E2%80%9Cboston,%E2%80%9Cboyle,%E2%80%9Cbru,%E2%80%9Cbunratty,%E2%80%9Cbutterfly,%E2%80%9Ccarrick,%E2%80%9Ccliffs,%E2%80%9Cclonmel,%E2%80%9Cfoynes,%E2%80%9Cgarden,%E2%80%9Cira,%E2%80%9Cjameson,%E2%80%9Ckenmare,%E2%80%9Ckylemore,%E2%80%9Cladies,%E2%80%9Cmolls,%E2%80%9Cmolly,%E2%80%9Creeks,%E2%80%9Cring,%E2%80%9Ctrinity,%E2%80%9Cwaterford,abbey%E2%80%9D,boat,boinne,bridge%E2%80%9D,cashel,castle%E2%80%9D,center%E2%80%9D,circle%E2%80%9D,college%E2%80%9D,craggaunowen,crosses%E2%80%9D,crystal%E2%80%9D,distillery%E2%80%9D,dublin,dublinia,falconry,flying,folk,foxford,gap%E2%80%9D,garden%E2%80%9D,high,kerry%E2%80%9D,macroom,malone%E2%80%9D,memorial,moher%E2%80%9D,museum,museum%E2%80%9D,na,newgrange,park%E2%80%9D,rememberance%E2%80%9D,science%E2%80%9D,sneem,statue%E2%80%9D,stone,sur%E2%80%9D,view%E2%80%9D,westport","S2CellId":"488e400000000000","result":5768,"accuracy":0.4270673,"title":"2007+Ireland+N69+012"}
{"id":6808538133,"url":"http://farm8.staticflickr.com/7024/6808538133_5daac6057b.jpg","path":"a4e/ad5/a4ead524dc7cedf09444a8e3e65e4cd.jpg","date":"2011-07-28","year":2011,"month":7,"lon":-9.508838,"lat":52.061935,"tags":"ireland,irish,irlande","S2CellId":"487604d500000000","result":5250,"accuracy":0.01684393,"title":"2011-07-28+12.19.53"}
{"id":105540661,"url":"http://farm1.staticflickr.com/44/105540661_0ff3a5535b.jpg","path":"d3d/bc2/d3dbc2788a4d9e8af14412a4b07d39d7.jpg","date":"2005-08-10","year":2005,"month":8,"lon":-9.676208,"lat":52.680023,"tags":"clare,dooneen,illusion,ireland,kilkee,lonefigure,rock,scoreme36","S2CellId":"47e0400000000000","result":4527,"accuracy":0.10675513,"title":"Kilkee","description":"This+is+the+Atlantic+Ocean+from+the+west+coast+of+Ireland.%0A%0AOn+a+very+rare+calm+day.%0A%0AThere%27s+a+bit+of+an+illusion+here....%0AThis+foreground+rock+is+actually+not+much+bigger+than+your+mans+head."}
{"id":6077544547,"url":"http://farm7.staticflickr.com/6090/6077544547_bce96b6fde.jpg","path":"959/924/95992443e6c23604d6298de87b2f331.jpg","date":"2011-08-24","year":2011,"month":8,"lon":-9.353227,"lat":52.936016,"tags":"girl,ireland,lahinch,sea,surf,waves","S2CellId":"4860400000000000","result":4839,"accuracy":0.14931835,"title":"IMG_0778","description":"August+Wednesday+evening+surfing+in+Lahinch+%28+Co+Clare+Ireland+%29%2C+that%27s+the+dream"}
{"id":4038201726,"url":"http://farm3.staticflickr.com/2439/4038201726_f67b1b128c.jpg","path":"12f/82e/12f82eebda8d0e0243ea75f41c290d3.jpg","date":"2009-10-15","year":2009,"month":10,"lon":-9.662781,"lat":52.684246,"tags":"holes,ir,ireland,kilkee,pollack","S2CellId":"808f100000000000","result":7011,"accuracy":0.0446199,"title":"Pollack+Holes+Kilkee"}
{"id":4441506302,"url":"http://farm5.staticflickr.com/4066/4441506302_a9cf3ac4bb.jpg","path":"c45/9f2/c459f25ffe2c6b6be0d39338a9e46873.jpg","date":"2009-07-27","year":2009,"month":7,"lon":-9.704618,"lat":52.266422,"tags":"2009,andrew+bennett,county+kerry,eire,frame,holiday,ireland,irish+republic,july,justpentax,k20d,landscape,lightroom,pentax,pentax+k20d,smc+pentax-da+18-55mm+f3.5-5.6+al+ii,tralee,uk","S2CellId":"47edc00000000000","result":4703,"accuracy":0.36622655,"title":"view+in+Park","description":"Tralee%2C+County+Kerry%2C+Ireland"}
{"id":2811472121,"url":"http://farm4.staticflickr.com/3291/2811472121_118a13384a.jpg","path":"728/8fb/7288fb57b25df85f1d937e15fc2fbe.jpg","date":"2005-08-25","year":2005,"month":8,"lon":-9.975156,"lat":52.136227,"tags":"beach,dingle,holiday,inch,ireland,irland,strand,urlaub","S2CellId":"4845400000000000","result":4817,"accuracy":0.1521956,"title":"Ireland+2005","description":"Urlaub+in+Irland%0AHoliday+in+Ireland"}
{"id":505962460,"url":"http://farm1.staticflickr.com/206/505962460_15cf76f1c3.jpg","path":"e57/162/e571628f2a8ec1f4b45e5ad4759f4bd.jpg","date":"2004-02-21","year":2004,"month":2,"lon":-9.405541,"lat":52.18054,"tags":"fiddle,irish,music,session,traditional","S2CellId":"485b900000000000","result":4824,"accuracy":0.029111812,"title":"022_20","description":"Tom+Fleming%27s+Bar+in+Scartaglen"}
{"id":49451163,"url":"http://farm1.staticflickr.com/27/49451163_61a09bae11.jpg","path":"f66/a97/f66a97afbd9598ebe45dfbcabca1b9.jpg","date":"2004-05-12","year":2004,"month":5,"lon":-9.515533,"lat":52.068954,"tags":"county+kerry,ireland,ring+of+kerry","S2CellId":"488e400000000000","result":5768,"accuracy":0.036622204,"title":"Picture+044"}
{"id":903571271,"url":"http://farm2.staticflickr.com/1203/903571271_39d5fa6251.jpg","path":"a68/ea9/a68ea9624bc6fb60ddcc7e1aae79f94.jpg","date":"2007-07-16","year":2007,"month":7,"lon":-9.139906,"lat":52.987167,"tags":"county+clare,e%27ire,ireland","S2CellId":"3461000000000000","result":2114,"accuracy":0.03528695,"title":"A+live+stone+wall"}
{"id":2813545093,"url":"http://farm3.staticflickr.com/2010/2813545093_ef5aac14a1.jpg","path":"101/c67/101c675ed324d3c89ab146cf874acc7.jpg","date":"2008-05-22","year":2008,"month":5,"lon":-9.97992,"lat":52.140232,"tags":"beach,county+kerry,fast,inch,inch+strand,ireland,kerry,landsailing,sailing,wind","S2CellId":"47b4c00000000000","result":4026,"accuracy":0.1121216,"title":"Looks+like+great+fun%21%21","description":"There+appeared+to+be+a+whole+club+of+people+at+Inch+Strand%2C+the+day+we+were+there%2C+playing+in+the+wind+with+these+land+yachts.++It+looked+like+a+lot+of+fun%2C+though%2C+personally%2C+I+would+worry+about+braking.%0A%0AUPDATE%3A%0AThe+sport+is+called+LandSailing.++It+is+an+international+sport+and+events%2Fmeets+can+often+involve+races+and+competitions.++The+land+speed+record+for+a+%22land+yacht%22+is+116+mph+%28187.7kph%29++-+set+by+Bob+Dill+and+Bob+Schumacher+alternating+as+pilots+in+the+%3Cb%3E%22Iron+Duck%22%3C%2Fb%3E+a+solid+wing%2C+three+wheeled+landyacht+-+nothing+like+what+is+pictured+above.++The+record+was+set+on+March+20th+1999%2C+at+the+NALSA+America%27s+Landsailing+Cup+Regatta+at+Ivanpah+Dry+Lake+%2C+Primm%2C+NV.++Here%27s+a+link+to+a+picture+of+the+%3Ca+href%3D%22http%3A%2F%2Fwww.nalsa.org%2Fimages%2FIronDuck%2FAt+Speed.jpg%22%3EIron+Duck%3C%2Fa%3E."}
{"id":6157378581,"url":"http://farm7.staticflickr.com/6078/6157378581_0d8607b514.jpg","path":"c4e/4bb/c4e4bb63135937586e37d80e381fdf1.jpg","date":"2011-08-05","year":2011,"month":8,"lon":-9.494756,"lat":52.025856,"tags":"europe,ireland,killarney,muckross+abbey","S2CellId":"485d400000000000","result":4830,"accuracy":0.100321025,"title":"Muckross+Abbey%2C+Killarney"}
{"id":4774625261,"url":"http://farm5.staticflickr.com/4138/4774625261_a9a2840c41.jpg","path":"12b/ca5/12bca54ba41675d7822ee8bdec31e383.jpg","date":"2010-06-27","year":2010,"month":6,"lon":-9.753112,"lat":52.01368,"tags":"carantuohill,hags+glen,kerry","S2CellId":"4889300000000000","result":5756,"accuracy":0.33768064,"title":"Hags+Glen","description":"Carantuohill%2C+June+2010"}
{"id":3904396526,"url":"http://farm3.staticflickr.com/2661/3904396526_bd6efe3c5b.jpg","path":"e4b/ecd/e4becdf2d7cffd3c77360e5dba635c5.jpg","date":"2009-07-26","year":2009,"month":7,"lon":-9.835424,"lat":52.358932,"tags":"2009,55-300mm,ballyheige,banna,banna+rock,banna+strand,beach,county,county+kerry,ed,eire,f4-5.8,ireland,justpentax,k20d,kerry,lightroom,pentax,pentax+k20d,pentax-da,republic,republic+of+ireland,rock,smc,smc+pentax-da+55-300mm+f4-5.8+ed,strand,windy","S2CellId":"488b000000000000","result":5763,"accuracy":0.16044818,"title":"View+of+Black+Rock"}
{"id":3978756525,"url":"http://farm4.staticflickr.com/3497/3978756525_f82a495dd6.jpg","path":"fa2/3dc/fa23dc67878e690456cf21ab75fb67.jpg","date":"2009-07-15","year":2009,"month":7,"lon":-9.493856,"lat":52.018356,"tags":"cloghereen,county+kerry,dispute,horse,ireland,irland,jaunting+car,killarney+national+park,kutsche,no+nappies,official+dispute,pferd,tamron+af+18-270mm+f%2F3.5-6.3","S2CellId":"487c500000000000","result":5611,"accuracy":0.09079671,"title":"No+nappies%21"}
{"id":479217698,"url":"http://farm1.staticflickr.com/204/479217698_2d5a8e237b.jpg","path":"989/82d/98982d3868896852eef892fe216780.jpg","date":"2007-04-24","year":2007,"month":4,"lon":-9.504868,"lat":52.020123,"tags":"350d,canon+24-70mm+2.8+l,ireland,killarney+national+park","S2CellId":"486c500000000000","result":4932,"accuracy":0.036605883,"title":"Mossy+goodness"}
{"id":2451576709,"url":"http://farm3.staticflickr.com/2137/2451576709_068a197795.jpg","path":"34c/496/34c49632dac6a50a6749c12ebc65ce1.jpg","date":"2008-04-13","year":2008,"month":4,"lon":-9.06387,"lat":52.061535,"tags":"ass,bum,butt,carshow,carshow+girls,cork,drift,drifting,fast+car,ferrari,girls,impreza,ireland,irl,lycra,modified,modified+cars,modified+cars+carshow+drift+drifting+girls+models,modified+motors,news+of+the+world,racing,s2000,skyline,subaru,supra,tight,tuning,viper","S2CellId":"4cc91a5100000000","result":5890,"accuracy":0.26355517,"title":"KA6R6637-13-04-2008","description":"Modified+Motors+Cork+2008+-+Canon+EOS-1D+Mark+II%2C+f4%2C+1%2F160%E2%80%9D%2C+ISO+800%2C+23mm%2C+Auto"}
