{"id":2783654144,"url":"http://farm4.staticflickr.com/3018/2783654144_367e1736f3.jpg","path":"4e6/8fb/4e68fbf81b010b1416f4a9c95b28ee7.jpg","date":"2008-08-15","year":2008,"month":8,"lon":-106.541306,"lat":31.73293,"tags":"2008,digital,fellowship,friends,givingtime,helping,joshuaommen,life,lifechanging,love,mexico,mission,nikond40,north,people,trinity,trip,volunteers,work,working","S2CellId":"9105c84000000000","result":9586,"accuracy":0.05707339,"title":"hi+lol"}
{"id":2491932798,"url":"http://farm3.staticflickr.com/2167/2491932798_5ae7f7e1a3.jpg","path":"c52/bc2/c52bc23b5ca29af532eb9e959e5d57b.jpg","date":"2008-04-23","year":2008,"month":4,"lon":-106.48842,"lat":31.759918,"tags":"balcazar,hector","S2CellId":"872bb00000000000","result":7775,"accuracy":0.0065783453,"title":"IMG_8830"}
{"id":2425903315,"url":"http://farm3.staticflickr.com/2218/2425903315_177a9d45af.jpg","path":"ca1/557/ca1557db1c52ae1a6ffbc7b1d23b2439.jpg","date":"2008-03-28","year":2008,"month":3,"lon":-106.48842,"lat":31.759918,"tags":"carlos,franklin,kiva,mountains","S2CellId":"86d66c0000000000","result":7697,"accuracy":0.20704804,"title":"IMG_4963"}
{"id":2754587201,"url":"http://farm4.staticflickr.com/3081/2754587201_6c830beaab.jpg","path":"48c/897/48c897c9696f19443d4cab7a66529469.jpg","date":"2008-08-01","year":2008,"month":8,"lon":-106.48927,"lat":31.76218,"tags":"10+million+photos,el,paso","S2CellId":"86d5000000000000","result":7692,"accuracy":0.02459513,"title":"IMG_8705"}
{"id":2567579204,"url":"http://farm4.staticflickr.com/3096/2567579204_1497af3d89.jpg","path":"1ac/d4c/1acd4cefc48dded53bfbb897ddba585d.jpg","date":"2008-05-20","year":2008,"month":5,"lon":-106.496826,"lat":31.977428,"tags":"10+million+photos","S2CellId":"86dc000000000000","result":7706,"accuracy":0.028612599,"title":"IMG_4139"}
{"id":2774481612,"url":"http://farm4.staticflickr.com/3292/2774481612_3f9ded0f2d.jpg","path":"593/5be/5935be402ee7c692a374fd562c12c384.jpg","date":"2008-08-16","year":2008,"month":8,"lon":-106.541306,"lat":31.73293,"tags":"2008,church,d40,digital,fellowship,friends,fun,givingtime,helping,joshuaommen,life,lifechanging,love,mexico,mission,nikon,nikond40,north,people,trinity,trip,volunteers,work,working","S2CellId":"3994000000000000","result":2483,"accuracy":0.030953396,"title":"DSC_8574"}
{"id":2553860174,"url":"http://farm4.staticflickr.com/3022/2553860174_a72955756b.jpg","path":"ef2/373/ef2373cba5113c34b2a948457e7ecf92.jpg","date":"2008-05-19","year":2008,"month":5,"lon":-106.48799,"lat":31.759954,"tags":"10+million+photos","S2CellId":"12c9100000000000","result":838,"accuracy":0.100421816,"title":"IMG_3327"}
{"id":2551069554,"url":"http://farm4.staticflickr.com/3266/2551069554_b9037acef9.jpg","path":"fcf/dfc/fcfdfc327f367ef43536f1f39dc1.jpg","date":"2008-05-19","year":2008,"month":5,"lon":-106.48799,"lat":31.759954,"tags":"fareed,joe,pool","S2CellId":"80db100000000000","result":7313,"accuracy":0.07191084,"title":"IMG_2834"}
{"id":2438052066,"url":"http://farm4.staticflickr.com/3123/2438052066_7c77d35ec2.jpg","path":"8f6/5a4/8f65a4ee7fe6c8b7e8fe6d623c8ec5.jpg","date":"2008-04-04","year":2008,"month":4,"lon":-106.48842,"lat":31.759918,"tags":"behy,behy%27s+birthday","S2CellId":"4789100000000000","result":3632,"accuracy":0.008140531,"title":"IMG_5298"}
{"id":2440576708,"url":"http://farm4.staticflickr.com/3166/2440576708_a667c8c80e.jpg","path":"394/734/39473422f756692766336d62d4474b2b.jpg","date":"2008-04-12","year":2008,"month":4,"lon":-106.48842,"lat":31.759918,"tags":"balcazar,nicholas,nick,nico","S2CellId":"872b740000000000","result":7772,"accuracy":0.012563649,"title":"IMG_6052"}
{"id":2754439166,"url":"http://farm3.staticflickr.com/2263/2754439166_9cd5a328a8.jpg","path":"5ef/1d8/5ef1d876f2a0a977212c1b4b4489399.jpg","date":"2008-07-31","year":2008,"month":7,"lon":-106.48927,"lat":31.76218,"tags":"10+million+photos,dakota,el,joe,park,paso,shirt,south,utep","S2CellId":"8715000000000000","result":7727,"accuracy":0.07018334,"title":"IMG_8507"}
{"id":4925650786,"url":"http://farm5.staticflickr.com/4097/4925650786_a708bf2845.jpg","path":"44f/74a/44f74a1779a1ff36e3349d1adaeb9e5e.jpg","date":"2010-04-23","year":2010,"month":4,"lon":-106.44791,"lat":31.766874,"tags":"dilo+fuerte,leon,mexico,sayitaloud,world+youth+conference","S2CellId":"5d90000000000000","result":6336,"accuracy":0.041866653,"title":"WYC+%40Guanajuato"}
{"id":2749300914,"url":"http://farm4.staticflickr.com/3172/2749300914_12214167b9.jpg","path":"ac4/797/ac47971c1b5eadb9da7cbdf46189c422.jpg","date":"2008-07-28","year":2008,"month":7,"lon":-106.48927,"lat":31.76218,"tags":"basketball,el,franklin,high,joe,paso,robele,school,texas","S2CellId":"2190000000000000","result":1487,"accuracy":0.03751552,"title":"IMG_8039"}
{"id":370364109,"url":"http://farm1.staticflickr.com/41/370364109_d72c9d28b2.jpg","path":"96f/762/96f7622352ebcb0171c6b4628dbc2b7.jpg","date":"2007-01-23","year":2007,"month":1,"lon":-106.489105,"lat":31.76145,"tags":"going+racquetballing","S2CellId":"6ad6300000000000","result":6616,"accuracy":0.108839065,"title":"DSCN4788"}
{"id":2441912462,"url":"http://farm3.staticflickr.com/2290/2441912462_0322b894a2.jpg","path":"50c/c81/50cc81b84248bfe445244ab575fc52f.jpg","date":"2008-04-12","year":2008,"month":4,"lon":-106.48842,"lat":31.759918,"tags":"balcazar,hector","S2CellId":"5496400000000000","result":6277,"accuracy":0.0039151036,"title":"IMG_6261"}
{"id":8868848424,"url":"http://farm9.staticflickr.com/8535/8868848424_99e729abd9.jpg","path":"178/304/178304439a89c1828234673c596d63f.jpg","date":"2013-05-26","year":2013,"month":5,"lon":-106.43513,"lat":31.776855,"tags":"2,el+paso%2C+tx","S2CellId":"9662cec000000000","result":9889,"accuracy":0.01702792,"title":"El+Paso+Trip+%232"}
{"id":2549877552,"url":"http://farm4.staticflickr.com/3026/2549877552_823c7d4a02.jpg","path":"e5f/534/e5f534c5ecd18146238defadd60758f.jpg","date":"2008-05-19","year":2008,"month":5,"lon":-106.48799,"lat":31.759954,"tags":"fareed,feet,joe,pool","S2CellId":"1299500000000000","result":669,"accuracy":0.021468652,"title":"IMG_2652"}
{"id":2566692841,"url":"http://farm4.staticflickr.com/3096/2566692841_85efac35d4.jpg","path":"53e/eb3/53eeb39e181cf296d167345d03fae4c.jpg","date":"2008-05-20","year":2008,"month":5,"lon":-106.496826,"lat":31.977428,"tags":"10+million+photos","S2CellId":"8f73000000000000","result":9550,"accuracy":0.07350237,"title":"IMG_4072"}
{"id":2441694424,"url":"http://farm3.staticflickr.com/2197/2441694424_e414c78026.jpg","path":"c9f/cd0/c9fcd045baa47bb575b32e17a91ae88.jpg","date":"2008-04-12","year":2008,"month":4,"lon":-106.48842,"lat":31.759918,"tags":"balcazar,hector","S2CellId":"5490151000000000","result":6184,"accuracy":0.0044010654,"title":"IMG_6154"}
{"id":401657435,"url":"http://farm1.staticflickr.com/183/401657435_eec566679d.jpg","path":"3fb/a19/3fba198dfd35f46a109f9de81ac3f279.jpg","date":"2007-02-01","year":2007,"month":2,"lon":-106.489105,"lat":31.76145,"tags":"texas+vs+the+nation","S2CellId":"149d000000000000","result":1240,"accuracy":0.04393128,"title":"DSCN5208"}
{"id":2973449484,"url":"http://farm4.staticflickr.com/3004/2973449484_3e7a4de472.jpg","path":"40d/8d5/40d8d579ff737451862d248be5e6ddb9.jpg","date":"2008-10-25","year":2008,"month":10,"lon":-106.47709,"lat":31.743568,"tags":"2008,ccpn,centro+cutural+paso+del+norte,concierto,juarez,musica,saulo","S2CellId":"8e44294000000000","result":9470,"accuracy":0.1050651,"title":"Jugando+con+el+Anillo","description":"Ayer+mi+gran+amigo+Saulo+dio+un+excelente+concierto+en+el+CCPN.%0APara+mi+gusto%2C+el+es+uno+de+los+mas+grandes+artistas+locales%2C+y+el+mejor+trovador+de+Juarez.%0AEste+fue+el+primer+concierto+de+una+gira+que+empezara+por+todo+el+pais.+Me+da+mucho+gusto+que+finalmente+su+sueno+se+haga+realidad.%0A%0AFelicidades+Saulo%21%21%21"}
{"id":2553265836,"url":"http://farm4.staticflickr.com/3093/2553265836_f43f6c2267.jpg","path":"b26/d5c/b26d5c17a467d9b8f8ec16d7036c8aa.jpg","date":"2008-05-19","year":2008,"month":5,"lon":-106.48799,"lat":31.759954,"tags":"10+million+photos","S2CellId":"12c9100000000000","result":838,"accuracy":0.038704943,"title":"IMG_3213"}
{"id":2370704964,"url":"http://farm3.staticflickr.com/2287/2370704964_6cb666fd76.jpg","path":"748/9e6/7489e65c432f4986acc1deaf52d66095.jpg","date":"2008-03-06","year":2008,"month":3,"lon":-106.489105,"lat":31.76145,"tags":"guy","S2CellId":"88fd000000000000","result":8754,"accuracy":0.009592848,"title":"IMG_2609"}
{"id":2504018513,"url":"http://farm4.staticflickr.com/3147/2504018513_ec8736936b.jpg","path":"b6d/ef4/b6def4a292c533ee9046a3c994ce27a9.jpg","date":"2008-05-09","year":2008,"month":5,"lon":-106.48842,"lat":31.759918,"tags":"balcazar,nicholas,nick,nico","S2CellId":"808f7dc000000000","result":7021,"accuracy":0.014334045,"title":"IMG_9365"}
{"id":2549892978,"url":"http://farm4.staticflickr.com/3159/2549892978_3aea12fd37.jpg","path":"5f6/97e/5f697e662afe5bb16612aea5e4a4dd.jpg","date":"2008-05-19","year":2008,"month":5,"lon":-106.48799,"lat":31.759954,"tags":"fareed,feet,joe,pool","S2CellId":"0d1ac00000000000","result":238,"accuracy":0.043826394,"title":"IMG_2664"}
{"id":216647210,"url":"http://farm1.staticflickr.com/59/216647210_71bf9dac8e.jpg","path":"3dd/82e/3dd82e1569ea865759ca31903005e.jpg","date":"2006-08-15","year":2006,"month":8,"lon":-106.41732,"lat":31.7041,"tags":"color,pots,towers","S2CellId":"0dafeec000000000","result":629,"accuracy":0.026751036,"title":"Towers","description":"Multicolored+Pots"}
{"id":2548949433,"url":"http://farm4.staticflickr.com/3143/2548949433_fe506139d7.jpg","path":"5dd/ced/5ddcedd4666b95e221a3cb46d93ba81.jpg","date":"2008-05-19","year":2008,"month":5,"lon":-106.48799,"lat":31.759954,"tags":"fareed,feet,joe,pool","S2CellId":"1299500000000000","result":669,"accuracy":0.1851471,"title":"IMG_2574"}
{"id":2574188565,"url":"http://farm4.staticflickr.com/3026/2574188565_ec0fcd377b.jpg","path":"ee4/b1a/ee4b1a402477ab7aaa1bbd2bb3f953.jpg","date":"2008-06-03","year":2008,"month":6,"lon":-106.48799,"lat":31.759954,"tags":"10+million+photos","S2CellId":"872bb00000000000","result":7775,"accuracy":0.009564904,"title":"IMG_6298"}
{"id":2094240908,"url":"http://farm3.staticflickr.com/2351/2094240908_ae657a1b89.jpg","path":"82f/938/82f938907fbecb2514cafa4c8bcb81d5.jpg","date":"2007-11-25","year":2007,"month":11,"lon":-106.48927,"lat":31.76218,"tags":"alexander,nico","S2CellId":"8793840000000000","result":7915,"accuracy":0.09373135,"title":"DSCN4560"}
{"id":4479243721,"url":"http://farm3.staticflickr.com/2737/4479243721_d18b357a72.jpg","path":"fef/b39/fefb39222871c7a4e1715e0217cc11f.jpg","date":"2010-03-28","year":2010,"month":3,"lon":-106.52278,"lat":31.837221,"tags":"10+million+photos,mobile,upload","S2CellId":"89e4d00000000000","result":9371,"accuracy":0.018221745,"title":"03282010018"}
{"id":2825553935,"url":"http://farm4.staticflickr.com/3189/2825553935_a4d4274e55.jpg","path":"c0b/2b7/c0b2b7351b4b52dfe58212c23e67cd60.jpg","date":"2008-08-30","year":2008,"month":8,"lon":-106.47709,"lat":31.743568,"tags":"2008,30+agosto,juarez,lomas+de+poleo,palabras+de+arena,palabras+lomas+de+poleo,te+voy+a+contar+un+cuento","S2CellId":"145840d000000000","result":1206,"accuracy":0.111895025,"title":"Dejame+Colorear+tu+Mundo","description":"Mas+fotos+de+las+cuentacuentos.%0AEn+esta+ocasion+fuimo+a+Lomas+de+Poleo+%28una+colonia+marginada+en+Cd.+Juarez%29.+Tuvimos+una+excelente+asistencia%2C+y+mucha+atencion+de+los+ninos.%0AOtra+vez%2C+al+final+les+toco+pintar...+en+esta+ocasion%2C+una+copia+de+%22El+Grito%22"}
{"id":2780927509,"url":"http://farm4.staticflickr.com/3071/2780927509_3a5a7e6e87.jpg","path":"1f5/595/1f55952ce24ae361f1717c6282fcc776.jpg","date":"2008-08-14","year":2008,"month":8,"lon":-106.541306,"lat":31.73293,"tags":"2008,digital,fellowship,friends,givingtime,helping,joshuaommen,life,lifechanging,love,mexico,mission,nikond40,north,people,trinity,trip,volunteers,work,working","S2CellId":"809f000000000000","result":7130,"accuracy":0.08609252,"title":"lol"}
{"id":2773474615,"url":"http://farm4.staticflickr.com/3205/2773474615_b85ff3bc48.jpg","path":"63e/fa4/63efa4deb4fc5bbae0d7d0b94fee79ea.jpg","date":"2008-08-16","year":2008,"month":8,"lon":-106.541306,"lat":31.73293,"tags":"2008,church,d40,digital,fellowship,friends,fun,givingtime,helping,joshuaommen,life,lifechanging,love,mexico,mission,nikon,nikond40,north,people,trinity,trip,volunteers,work,working","S2CellId":"8f73000000000000","result":9550,"accuracy":0.23767596,"title":"DSC_8395"}
{"id":2574615855,"url":"http://farm4.staticflickr.com/3005/2574615855_2d73a1640f.jpg","path":"608/de0/608de0f559776974b13d5c769dd2f25.jpg","date":"2008-06-04","year":2008,"month":6,"lon":-106.48799,"lat":31.759954,"tags":"10+million+photos","S2CellId":"9526c00000000000","result":9799,"accuracy":0.009587935,"title":"IMG_6366"}
{"id":2411840466,"url":"http://farm3.staticflickr.com/2213/2411840466_d741758541.jpg","path":"236/09c/23609cc24c843c432892d4304870e.jpg","date":"2008-03-28","year":2008,"month":3,"lon":-106.50387,"lat":31.9404,"tags":"kiva","S2CellId":"54bec00000000000","result":6298,"accuracy":0.042156037,"title":"IMG_4451"}
{"id":2551046908,"url":"http://farm4.staticflickr.com/3051/2551046908_a7305f389d.jpg","path":"aa6/a86/aa6a866d1877871f88b3d1829f638ca.jpg","date":"2008-05-19","year":2008,"month":5,"lon":-106.48799,"lat":31.759954,"tags":"fareed,joe,pool","S2CellId":"80db100000000000","result":7313,"accuracy":0.04788473,"title":"IMG_2813"}
{"id":2096069735,"url":"http://farm3.staticflickr.com/2396/2096069735_a0c97028e6.jpg","path":"72a/8d3/72a8d35ffa9cac847e6d6754be2dbd8.jpg","date":"2007-12-01","year":2007,"month":12,"lon":-106.48927,"lat":31.76218,"tags":"gameroom","S2CellId":"87f1000000000000","result":8044,"accuracy":0.015485716,"title":"DSCN5041"}
{"id":2773997016,"url":"http://farm4.staticflickr.com/3023/2773997016_203b41d536.jpg","path":"e2c/37d/e2c37dd52c8abe82bbad387cd365f7.jpg","date":"2008-08-15","year":2008,"month":8,"lon":-106.541306,"lat":31.73293,"tags":"2008,church,d40,digital,fellowship,friends,fun,givingtime,helping,joshuaommen,life,lifechanging,love,mexico,mission,nikon,nikond40,north,people,trinity,trip,volunteers,work,working","S2CellId":"86cc000000000000","result":7689,"accuracy":0.01773395,"title":"DSC_8109"}
{"id":2448281760,"url":"http://farm3.staticflickr.com/2015/2448281760_4fe5abab95.jpg","path":"529/15f/52915fee79eb679525f1e89c97c39e2.jpg","date":"2008-04-15","year":2008,"month":4,"lon":-106.48842,"lat":31.759918,"tags":"balcazar,nicholas,nick,nico","S2CellId":"8644cc0000000000","result":7595,"accuracy":0.009662987,"title":"IMG_6335"}
{"id":4024810081,"url":"http://farm4.staticflickr.com/3496/4024810081_fe46c52c6e.jpg","path":"10b/022/10b0227ffa8e98f8a15e1d0b4a3c8c8.jpg","date":"2009-10-10","year":2009,"month":10,"lon":-106.51614,"lat":31.897125,"tags":"b%26w,clouds,el+paso,franklin,mountains,notdriving,transmountain+road","S2CellId":"86f4000000000000","result":7712,"accuracy":0.08971253,"title":"El+Paso"}
{"id":2440501050,"url":"http://farm4.staticflickr.com/3072/2440501050_dd9f0a4827.jpg","path":"e22/32c/e2232cab6eae7a8f0f8e8d1d3e3ba2b.jpg","date":"2008-04-12","year":2008,"month":4,"lon":-106.48842,"lat":31.759918,"tags":"balcazar,nicholas,nick,nico","S2CellId":"88f5010000000000","result":8705,"accuracy":0.0068706116,"title":"IMG_5900"}
{"id":2175833391,"url":"http://farm3.staticflickr.com/2237/2175833391_f6771253dd.jpg","path":"738/d2f/738d2fd5e6aa969861e4189ab9a134c.jpg","date":"2008-01-06","year":2008,"month":1,"lon":-106.59847,"lat":31.824024,"tags":"2008,bird,couch%27s+kingbird,dona+ana+co.%2C,flycatcher,kingbird,nm,passeriformes,passerine,tyrannidae,tyrannnus,tyrannnus+couchii,tyrant+flycatchers","S2CellId":"89e6d00000000000","result":9384,"accuracy":0.023845974,"title":"DSC_4445a","description":"Couch%27s+Kingbird+at+Sunland+Park%2C+Dona+Ana+Co.%2C+NM%2C+080106.++Tyrannnus+couchii."}
{"id":2411222571,"url":"http://farm4.staticflickr.com/3118/2411222571_8b8930cdbf.jpg","path":"f3c/22e/f3c22e40b1d9da8bf345b64baf8f325.jpg","date":"2008-03-28","year":2008,"month":3,"lon":-106.50387,"lat":31.9404,"tags":"carlos,kiva","S2CellId":"80c1000000000000","result":7138,"accuracy":0.06922019,"title":"IMG_4536"}
{"id":2551083656,"url":"http://farm4.staticflickr.com/3061/2551083656_0224ea7684.jpg","path":"6f2/524/6f2524e950672e36cad2b772f42d12.jpg","date":"2008-05-19","year":2008,"month":5,"lon":-106.48799,"lat":31.759954,"tags":"fareed,joe,pool","S2CellId":"80db100000000000","result":7313,"accuracy":0.10137673,"title":"IMG_2847"}
{"id":4621695135,"url":"http://farm5.staticflickr.com/4010/4621695135_df6b7d46c3.jpg","path":"6cb/618/6cb618d8d03ee129464f62e47082f2aa.jpg","date":"2010-05-19","year":2010,"month":5,"lon":-106.275,"lat":31.745,"tags":"nerium+oleander,poisonous+plants","S2CellId":"477f440000000000","result":3496,"accuracy":0.12757352,"title":"Oleander","description":"%3Ca+href%3D%22http%3A%2F%2Fen.wikipedia.org%2Fwiki%2FOleander%22+rel%3D%22nofollow%22%3Een.wikipedia.org%2Fwiki%2FOleander%3C%2Fa%3E"}
{"id":2528221209,"url":"http://farm3.staticflickr.com/2121/2528221209_16ea9eb72c.jpg","path":"457/814/457814fbd6191795654ef4d9c193e25.jpg","date":"2008-05-27","year":2008,"month":5,"lon":-106.45317,"lat":31.792625,"tags":"bee,rose,top20flowersandbugs","S2CellId":"8085874300000000","result":6973,"accuracy":0.0053089336,"title":"Feeding+Frenzy","description":"Municipal+Rose+Garden%0AEl+Paso%2C+Texas"}
{"id":2575444624,"url":"http://farm4.staticflickr.com/3018/2575444624_8b8c27f8c3.jpg","path":"477/056/4770566c6479f147dcc6369e356aede9.jpg","date":"2008-06-04","year":2008,"month":6,"lon":-106.48799,"lat":31.759954,"tags":"10+million+photos","S2CellId":"9526c00000000000","result":9799,"accuracy":0.0090212645,"title":"IMG_6370"}
{"id":2372729960,"url":"http://farm3.staticflickr.com/2287/2372729960_5e28596720.jpg","path":"a8a/51c/a8a51cd3bfd77521c792bd3c93f5ee.jpg","date":"2008-03-09","year":2008,"month":3,"lon":-106.489105,"lat":31.76145,"tags":"super,super+smash+bros.+brawl","S2CellId":"80c2c7d000000000","result":7208,"accuracy":0.020136701,"title":"IMG_2900"}
{"id":2492172257,"url":"http://farm4.staticflickr.com/3244/2492172257_cc2bd9a96e.jpg","path":"4ae/67a/4ae67a4f10bf2528d76c82123e41d8.jpg","date":"2008-05-05","year":2008,"month":5,"lon":-106.48842,"lat":31.759918,"tags":"el+paso,texas","S2CellId":"80c7000000000000","result":7223,"accuracy":0.04942059,"title":"IMG_9099"}
{"id":2757634165,"url":"http://farm4.staticflickr.com/3088/2757634165_765a83b7d6.jpg","path":"544/c9c/544c9cd7677d75cce51e295a276b12.jpg","date":"2008-08-02","year":2008,"month":8,"lon":-106.48927,"lat":31.76218,"tags":"alexander,el,joe,kiva,park,paso,texas","S2CellId":"14a8400000000000","result":1267,"accuracy":0.02628718,"title":"IMG_8816"}
{"id":5454919932,"url":"http://farm6.staticflickr.com/5133/5454919932_3cecc85014.jpg","path":"845/a6d/845a6d1bdc2047c85027cc3f814cb339.jpg","date":"2011-02-17","year":2011,"month":2,"lon":-106.493225,"lat":31.771376,"tags":"alone,animal+abuse,b%26w,bark,barking,black+and+white,depressing,desparate,digital,dog,el+paso.,eyes,longing,mangy,mistreated,neighbor,sad,somber","S2CellId":"4719000000000000","result":3230,"accuracy":0.008409901,"title":"Sad+Eyes"}
{"id":2773400945,"url":"http://farm4.staticflickr.com/3139/2773400945_3250933380.jpg","path":"a79/4e2/a794e22652f4d851e543704acced.jpg","date":"2008-08-15","year":2008,"month":8,"lon":-106.541306,"lat":31.73293,"tags":"2008,church,d40,digital,fellowship,friends,fun,givingtime,helping,joshuaommen,life,lifechanging,love,mexico,mission,nikon,nikond40,north,people,trinity,trip,volunteers,work,working","S2CellId":"89b3c00000000000","result":8819,"accuracy":0.017194208,"title":"DSC_8331"}
{"id":9776030514,"url":"http://farm6.staticflickr.com/5515/9776030514_0722fbd07b.jpg","path":"77d/df4/77ddf446c2965ff1f703e129f6760fe.jpg","date":"2013-09-14","year":2013,"month":9,"lon":-106.488,"lat":31.936,"tags":"biology,desertscapes,ecology,el,hiking,naturalist,outdoors,paso","S2CellId":"9114000000000000","result":9597,"accuracy":0.015245994,"title":"Celebration+of+Our+Mountains","description":"Tin+Mine+Hike%2C+9%2F14%2F2013"}
{"id":2485008847,"url":"http://farm4.staticflickr.com/3014/2485008847_46e0e5f980.jpg","path":"8f3/613/8f3613f7cce05442ef9c458c5ac405.jpg","date":"2008-04-21","year":2008,"month":4,"lon":-106.48842,"lat":31.759918,"tags":"carlos,shirt,tight","S2CellId":"8814b00000000000","result":8185,"accuracy":0.046210043,"title":"IMG_8494"}
{"id":2782746911,"url":"http://farm4.staticflickr.com/3114/2782746911_22eb72fbed.jpg","path":"cd5/862/cd5862906d1ca4411f614022f3bf52e0.jpg","date":"2008-08-15","year":2008,"month":8,"lon":-106.541306,"lat":31.73293,"tags":"2008,digital,fellowship,friends,givingtime,helping,joshuaommen,life,lifechanging,love,mexico,mission,nikond40,north,people,trinity,trip,volunteers,work,working","S2CellId":"88d0a631cabb5071","result":8563,"accuracy":0.1188631,"title":"DSC_7824"}
{"id":2748575095,"url":"http://farm4.staticflickr.com/3140/2748575095_d5db031946.jpg","path":"f3d/cb4/f3dcb461eb3f694d6d0aa133d71d60.jpg","date":"2008-07-28","year":2008,"month":7,"lon":-106.48927,"lat":31.76218,"tags":"el,franklin,high,joe,jump,paso,platform,robele,school,texas,track","S2CellId":"80db900000000000","result":7317,"accuracy":0.22539648,"title":"IMG_8125"}
{"id":6780208831,"url":"http://farm8.staticflickr.com/7160/6780208831_0a1fc40a08.jpg","path":"64b/924/64b924edcb7f4cd8a05f1f1927aae77.jpg","date":"2011-12-18","year":2011,"month":12,"lon":-106.06681,"lat":31.561693,"tags":"cattleman%27s+steakhouse,el+paso,ranch,rancho,steakhouse,texas","S2CellId":"86d7400000000000","result":7704,"accuracy":0.2686689,"description":"Cattleman%27s+Steakhouse.+Fabens%2C+TX."}
{"id":2437858482,"url":"http://farm4.staticflickr.com/3078/2437858482_b9f966eafe.jpg","path":"f5a/78e/f5a78eda71d9bdeaaf589ba0e6a691ea.jpg","date":"2008-04-06","year":2008,"month":4,"lon":-106.48876,"lat":31.754808,"tags":"2008,algorithm,arches,arcos,el+paso,journey,swigart,texas","S2CellId":"86f4000000000000","result":7712,"accuracy":0.08441456,"title":"El+Paso+020"}
{"id":383499353,"url":"http://farm1.staticflickr.com/158/383499353_0167a249b5.jpg","path":"997/d81/997d8128813af8b6c65ef25f6974e3f6.jpg","date":"2007-02-08","year":2007,"month":2,"lon":-106.48464,"lat":31.745794,"tags":"crossprocess,el,paso","S2CellId":"47a851c7c0000000","result":3932,"accuracy":0.0059599965,"title":"Cuadricula","description":"Un+crossprocess+que+me+dio+un+resultado+que+me+gusto+mucho"}
{"id":331562451,"url":"http://farm1.staticflickr.com/129/331562451_4644199035.jpg","path":"f30/222/f3022238e1cfee9e4a3674b926417.jpg","date":"2006-12-23","year":2006,"month":12,"lon":-106.48464,"lat":31.745794,"tags":"advantix,apx,juarez","S2CellId":"54866c0000000000","result":6114,"accuracy":0.057638597,"title":"Contrastes","description":"Esperando+el+camion%2C+quizas%3F%3F%3F%0D%0A%0D%0AWaiting+for+the+bus%2C+perhaps%3F%3F%3F"}
{"id":6704865141,"url":"http://farm8.staticflickr.com/7142/6704865141_6721f595ee.jpg","path":"451/5bf/4515bfae9215cd9a3977bc9a987d87.jpg","date":"2012-01-08","year":2012,"month":1,"lon":-106.32225,"lat":31.707724,"tags":"camera360,decor,elpaso,fauna,galaxys,pepper,plumage,samsung,texas,vibrant","S2CellId":"80dd2c0000000000","result":7370,"accuracy":0.0074910256,"title":"Little+Pepper+held+by+Andy","description":"Camera+360"}
{"id":2370370678,"url":"http://farm4.staticflickr.com/3025/2370370678_78b40d3f53.jpg","path":"a7e/966/a7e96631f8e287dfc4fcb732ff752f8f.jpg","date":"2008-03-04","year":2008,"month":3,"lon":-106.489105,"lat":31.76145,"tags":"balcazar","S2CellId":"0d379c0000000000","result":323,"accuracy":0.116606005,"title":"IMG_2168"}
{"id":12576977884,"url":"http://farm4.staticflickr.com/3810/12576977884_811185588d.jpg","path":"2d2/b49/2d2b498c33f3fdaa1d3369ba396b134.jpg","date":"2014-02-15","year":2014,"month":2,"lon":-106.51222,"lat":31.925833,"tags":"el+paso,franklin+mountains,texas","S2CellId":"873f000000000000","result":7805,"accuracy":0.06940726,"title":"IMG_20140215_132637826"}
{"id":159629549,"url":"http://farm1.staticflickr.com/46/159629549_48313c088c.jpg","path":"715/9b4/7159b424a44e78428170984a92264a4c.jpg","date":"2006-06-03","year":2006,"month":6,"lon":-106.50833,"lat":31.792387,"tags":"cameraphone,el+paso,shaddow","S2CellId":"88fd000000000000","result":8754,"accuracy":0.050950736,"title":"Shaddow+the+Beast"}
{"id":2130671168,"url":"http://farm3.staticflickr.com/2318/2130671168_6e21a63d71.jpg","path":"b89/38f/b8938fb1baa5df7f193d3642f197e053.jpg","date":"2007-12-18","year":2007,"month":12,"lon":-106.48927,"lat":31.76218,"tags":"joe","S2CellId":"80d9535400000000","result":7284,"accuracy":0.008526612,"title":"IMG_2562"}
{"id":2758464472,"url":"http://farm4.staticflickr.com/3179/2758464472_60fbe3f2e7.jpg","path":"43e/513/43e513565a65fe4e5c7378e86911a4.jpg","date":"2008-08-02","year":2008,"month":8,"lon":-106.48927,"lat":31.76218,"tags":"alexander,el,joe,kiva,park,paso,texas","S2CellId":"1495400000000000","result":1225,"accuracy":0.012769131,"title":"IMG_8801"}
{"id":2779282046,"url":"http://farm4.staticflickr.com/3238/2779282046_c215ee65fd.jpg","path":"758/604/758604b7cd070598bc4dcc1f7ce02c.jpg","date":"2008-08-14","year":2008,"month":8,"lon":-106.541306,"lat":31.73293,"tags":"2008,church,d40,digital,fellowship,friends,fun,givingtime,helping,joshuaommen,life,lifechanging,love,mexico,mission,nikon,nikond40,north,people,trinity,trip,volunteers,work,working","S2CellId":"8ebc000000000000","result":9502,"accuracy":0.06796487,"title":"DSC_7303"}
{"id":783318235,"url":"http://farm2.staticflickr.com/1179/783318235_c04ed5d628.jpg","path":"e65/2ae/e652aeb15bf1ee724812c9e1e8cb3fdc.jpg","date":"2007-07-12","year":2007,"month":7,"lon":-106.47815,"lat":31.80946,"tags":"el+paso,franklin+mountains,texas,wyler+aerial+tramway","S2CellId":"872b1c0000000000","result":7767,"accuracy":0.19631499,"title":"now+you+need+a+gozilla"}
{"id":8304804180,"url":"http://farm9.staticflickr.com/8214/8304804180_a49e06e225.jpg","path":"558/fb3/558fb33e7229e3b4ff163e6e3a342d7.jpg","date":"2012-12-24","year":2012,"month":12,"lon":-106.64763,"lat":31.870607,"tags":"amaro,instagram+app,iphoneography,square,square+format","S2CellId":"94ce510000000000","result":9701,"accuracy":0.29247972,"title":"Christmas+Eve+walk"}
{"id":9598564631,"url":"http://farm4.staticflickr.com/3792/9598564631_a7e40a1d4f.jpg","path":"5a4/cc6/5a4cc64c926363c77e1c6023fe5c60eb.jpg","date":"2013-08-16","year":2013,"month":8,"lon":-106.28079,"lat":31.698414,"tags":"art,desert,donald+judd,el+paso,excursion,highway,landscape,marfa,minimalism,sculpture,texas,tourism,trip,united+states","S2CellId":"80c8c5d000000000","result":7249,"accuracy":0.06848843,"title":"130815-16+Marfa+Excursion+-+47.jpg"}
{"id":2126258300,"url":"http://farm3.staticflickr.com/2043/2126258300_29dfe92892.jpg","path":"c92/fdb/c92fdba0a08aa46580bbc52d6da286.jpg","date":"2007-12-16","year":2007,"month":12,"lon":-106.48927,"lat":31.76218,"tags":"nico","S2CellId":"883b3c0000000000","result":8351,"accuracy":0.0111635635,"title":"IMG_1225"}
{"id":9266361665,"url":"http://farm4.staticflickr.com/3826/9266361665_5330003abd.jpg","path":"923/91b/92391bdee3b1489cc2d45c0e918bf1f.jpg","date":"2013-06-25","year":2013,"month":6,"lon":-106.48705,"lat":31.760088,"tags":"architecture%2Fart+deco,architecture%2Fmodernism","S2CellId":"865c590000000000","result":7661,"accuracy":0.32555774,"title":"The+Bassett+Tower+%28left%2C+designed+by+Trost+%26+Trost%29+and+El+Paso+Natural+Gas+Company+Building+%28right%29%3B+El+Paso%2C+Texas","description":"The+Bassett+Tower+%28left%2C+designed+by+Trost+%26+Trost%29+and+El+Paso+Natural+Gas+Company+Building+%28right%29%3B+El+Paso%2C+Texas"}
{"id":9776117493,"url":"http://farm3.staticflickr.com/2857/9776117493_ff82ac2d6a.jpg","path":"6e7/6d1/6e76d169e3d9b39ac48d819a5aafb28.jpg","date":"2013-09-14","year":2013,"month":9,"lon":-106.48867,"lat":31.936167,"tags":"biology,desertscapes,ecology,el,hiking,naturalist,outdoors,paso","S2CellId":"86f4000000000000","result":7712,"accuracy":0.44784382,"title":"Celebration+of+Our+Mountains","description":"Tin+Mine+Hike%2C+9%2F14%2F2013"}
{"id":8986636667,"url":"http://farm8.staticflickr.com/7418/8986636667_92f864d07b.jpg","path":"844/2bb/8442bb132c432f81ae642c7b09055f0.jpg","date":"2013-06-04","year":2013,"month":6,"lon":-106.445335,"lat":31.769333,"tags":"send+off","S2CellId":"6d318a3000000000","result":6816,"accuracy":0.03702974,"title":"2013+06+04_El+Paso+Send+Off_0989.JPG"}
{"id":2553100693,"url":"http://farm4.staticflickr.com/3064/2553100693_1cec84487d.jpg","path":"64c/315/64c315b3ead1a0254a42352d641dcd2a.jpg","date":"2008-05-19","year":2008,"month":5,"lon":-106.48799,"lat":31.759954,"tags":"10+million+photos","S2CellId":"151c400000000000","result":1379,"accuracy":0.032964278,"title":"IMG_3410"}
{"id":2779005174,"url":"http://farm4.staticflickr.com/3127/2779005174_fba4e65f8b.jpg","path":"882/d31/882d31e179c71558959ecf4a32592663.jpg","date":"2008-08-14","year":2008,"month":8,"lon":-106.541306,"lat":31.73293,"tags":"2008,church,d40,digital,fellowship,friends,fun,givingtime,helping,joshuaommen,life,lifechanging,love,mexico,mission,nikon,nikond40,north,people,trinity,trip,volunteers,work,working","S2CellId":"548ff00000000000","result":6177,"accuracy":0.40465114,"title":"DSC_7243"}
{"id":5129108702,"url":"http://farm2.staticflickr.com/1079/5129108702_2aa5dffc7b.jpg","path":"5fe/1d2/5fe1d2d217463fd69456233a5ba0.jpg","date":"2010-10-30","year":2010,"month":10,"lon":-106.25839,"lat":31.744371,"tags":"skull","S2CellId":"2bfc000000000000","result":1527,"accuracy":0.058284726,"title":"The+Desert+Is+A+Harsh+Mistress","description":"In+honor+of+Halloween."}
{"id":2568680685,"url":"http://farm4.staticflickr.com/3061/2568680685_ae249d6493.jpg","path":"a9d/18e/a9d18e714f8f661f98808619e51e31cf.jpg","date":"2008-05-21","year":2008,"month":5,"lon":-106.49408,"lat":31.977283,"tags":"10+million+photos","S2CellId":"86f4000000000000","result":7712,"accuracy":0.21149154,"title":"IMG_5114"}
{"id":2549090275,"url":"http://farm4.staticflickr.com/3048/2549090275_5198727fa2.jpg","path":"649/194/649194336ac8bfe7b51cc0104f72661a.jpg","date":"2008-05-19","year":2008,"month":5,"lon":-106.48799,"lat":31.759954,"tags":"fareed,feet,joe,pool","S2CellId":"0d1ac00000000000","result":238,"accuracy":0.07570817,"title":"IMG_2682"}
{"id":370341728,"url":"http://farm1.staticflickr.com/136/370341728_c5ed6b5a97.jpg","path":"159/26b/15926b10ed79a2fa52db6d2677919b.jpg","date":"2007-01-23","year":2007,"month":1,"lon":-106.489105,"lat":31.76145,"tags":"going+racquetballing","S2CellId":"6ad6300000000000","result":6616,"accuracy":0.09917406,"title":"DSCN4612"}
{"id":8480628444,"url":"http://farm9.staticflickr.com/8522/8480628444_def81b150a.jpg","path":"d9d/b3b/d9db3b9fea88dbbea8ce1de0f6c6417.jpg","date":"2013-01-11","year":2013,"month":1,"lon":-106.41162,"lat":31.80539,"tags":"3-1,certification,fort+bliss,gun,military,mp,non-leathal,oc,pepper,police,renegade,spray,stun,taser,texas,training,weapon","S2CellId":"808ff00000000000","result":7083,"accuracy":0.050380453,"title":"130115-A-6855S-025"}
{"id":12576689155,"url":"http://farm3.staticflickr.com/2871/12576689155_66c736b752.jpg","path":"cfe/282/cfe28224175657ed4b305785a52524f5.jpg","date":"2014-02-15","year":2014,"month":2,"lon":-106.503334,"lat":31.921665,"tags":"el+paso,franklin+mountains,texas","S2CellId":"54bec00000000000","result":6298,"accuracy":0.085335195,"title":"IMG_20140215_145039037"}
{"id":5241277045,"url":"http://farm6.staticflickr.com/5244/5241277045_db50a27ed8.jpg","path":"236/3d0/2363d0aa36fd1763188a84a4c215eb4.jpg","date":"2010-12-07","year":2010,"month":12,"lon":-106.3949,"lat":31.789377,"tags":"culminating,culminating_event,elpaso,plp","S2CellId":"0d19331000000000","result":217,"accuracy":0.050924554,"title":"El+Paso+PLP+Culminating+Event+-+06"}
{"id":482073191,"url":"http://farm1.staticflickr.com/230/482073191_302dd45185.jpg","path":"738/e47/738e4780b00afb4855996eb1a5ddf96.jpg","date":"2007-04-20","year":2007,"month":4,"lon":-106.04356,"lat":31.917782,"tags":"bouldering,climbing,hueco+tanks","S2CellId":"877c000000000000","result":7905,"accuracy":0.030324806,"title":"DSC01143"}
{"id":2782232154,"url":"http://farm4.staticflickr.com/3288/2782232154_f46a70ff8b.jpg","path":"bb6/b82/bb6b823d20d7d73a5e9815a2c46a58a.jpg","date":"2008-08-15","year":2008,"month":8,"lon":-106.541306,"lat":31.73293,"tags":"2008,digital,fellowship,friends,givingtime,helping,joshuaommen,life,lifechanging,love,mexico,mission,nikond40,north,people,trinity,trip,volunteers,work,working","S2CellId":"80d9300000000000","result":7274,"accuracy":0.02730467,"title":"DSC_7696"}
{"id":2571454003,"url":"http://farm4.staticflickr.com/3166/2571454003_c6f839b06c.jpg","path":"3c4/35b/3c435b2b5361b195eec0d5c034ffd3.jpg","date":"2008-05-28","year":2008,"month":5,"lon":-106.48799,"lat":31.759954,"tags":"10+million+photos","S2CellId":"80e82c0000000000","result":7394,"accuracy":0.028398095,"title":"IMG_5855"}
{"id":2109349068,"url":"http://farm3.staticflickr.com/2282/2109349068_4dbb42af92.jpg","path":"f66/8f6/f668f6842289b334e491732819d5feb0.jpg","date":"2007-12-13","year":2007,"month":12,"lon":-106.48181,"lat":31.744955,"tags":"2007,catedral,celebraciones,cultura,dia+de+guadalupe,guadalupe,juarez,mexico,tradiciones","S2CellId":"916dd70000000000","result":9619,"accuracy":0.103305414,"title":"Dia+de+Campo","description":"Este+senor+siempre+anda+en+el+centro.+De+hecho%2C+tengo+varias+fotos+de+el%2C+y+he+visto+a+otros+fotografos+que+tambien+lo+han+tomado.."}
{"id":2751313330,"url":"http://farm4.staticflickr.com/3040/2751313330_64087901d8.jpg","path":"531/c7a/531c7a39ac8c867ac77575628116d2.jpg","date":"2008-07-28","year":2008,"month":7,"lon":-106.48927,"lat":31.76218,"tags":"el,hector,joe,paso,texas","S2CellId":"8717000000000000","result":7728,"accuracy":0.004093159,"title":"IMG_8213"}
{"id":2567476800,"url":"http://farm4.staticflickr.com/3263/2567476800_b9049a6011.jpg","path":"17e/1be/17e1bef8bcab155b14e7367e8a46169.jpg","date":"2008-05-20","year":2008,"month":5,"lon":-106.496826,"lat":31.977428,"tags":"10+million+photos","S2CellId":"8140000000000000","result":7413,"accuracy":0.14616315,"title":"IMG_4260"}
{"id":3173437688,"url":"http://farm2.staticflickr.com/1104/3173437688_8fdf2d8233.jpg","path":"e66/a1b/e66a1b71addb8ed2d56ecc2bf7b64d9.jpg","date":"2008-12-30","year":2008,"month":12,"lon":-106.49417,"lat":31.883705,"tags":"border,diorama,elpaso,homies,immigration,museum,patrol","S2CellId":"4799db0000000000","result":3792,"accuracy":0.03277383,"title":"Homies+getting+deported","description":"At+the+Border+Patrol+Museum%2C+El+Paso%2C+Texas."}
{"id":2773762633,"url":"http://farm4.staticflickr.com/3198/2773762633_b2f5305835.jpg","path":"dc9/88c/dc988cbfa32aeb29675854e47c138a.jpg","date":"2008-08-17","year":2008,"month":8,"lon":-106.541306,"lat":31.73293,"tags":"2008,church,d40,digital,fellowship,friends,fun,givingtime,helping,joshuaommen,life,lifechanging,love,mexico,mission,nikon,nikond40,north,people,trinity,trip,volunteers,work,working","S2CellId":"0d39000000000000","result":327,"accuracy":0.03764106,"title":"DSC_8708"}
{"id":9613818320,"url":"http://farm3.staticflickr.com/2836/9613818320_0eb9dc3ec2.jpg","path":"318/d14/318d14c0ef941c292820fe9777db19.jpg","date":"2012-05-28","year":2012,"month":5,"lon":-106.30359,"lat":31.659218,"tags":"2012,asitrac,el+paso,mission,socorro,texas,travel,us,usa","S2CellId":"80e9500000000000","result":7405,"accuracy":0.031136625,"title":"Socorro+Mission%2C+El+Paso%2C+Texas"}
{"id":2754247779,"url":"http://farm4.staticflickr.com/3035/2754247779_cf8e4229d4.jpg","path":"c1a/26f/c1a26f3a6d5aaabd3f5e9656572760.jpg","date":"2008-08-01","year":2008,"month":8,"lon":-106.48927,"lat":31.76218,"tags":"10+million+photos,alexander,balcazar,returns","S2CellId":"80c8c3c000000000","result":7231,"accuracy":0.005794029,"title":"IMG_8560"}
{"id":2781732895,"url":"http://farm4.staticflickr.com/3146/2781732895_d0bd56df7e.jpg","path":"cdc/02f/cdc02f9cf6316e718a58331b74989ea2.jpg","date":"2008-08-07","year":2008,"month":8,"lon":-106.48927,"lat":31.76218,"tags":"call,el,hector,joe,paso,phone,texas","S2CellId":"46db000000000000","result":3081,"accuracy":0.003327569,"title":"IMG_8978"}
{"id":2569586728,"url":"http://farm4.staticflickr.com/3059/2569586728_b01cd1ba1c.jpg","path":"8d3/1a5/8d31a59264ff51e4f2a2a7e604546.jpg","date":"2008-05-21","year":2008,"month":5,"lon":-106.49408,"lat":31.977283,"tags":"10+million+photos","S2CellId":"1dd4000000000000","result":1461,"accuracy":0.02696654,"title":"IMG_5157"}
{"id":2775272363,"url":"http://farm4.staticflickr.com/3216/2775272363_8b59dd0456.jpg","path":"727/32c/72732cde16e6da71593c1d2961f3a9ad.jpg","date":"2008-08-13","year":2008,"month":8,"lon":-106.541306,"lat":31.73293,"tags":"2008,church,d40,digital,fellowship,friends,fun,givingtime,helping,joshuaommen,life,lifechanging,love,mexico,mission,nikon,nikond40,north,people,trinity,trip,volunteers,work,working","S2CellId":"80d9300000000000","result":7274,"accuracy":0.7941036,"title":"DSC_6918"}
{"id":4311546461,"url":"http://farm5.staticflickr.com/4029/4311546461_c6543ef5c6.jpg","path":"4e9/a8c/4e9a8c5d3732a7384f7d3e88526c53c.jpg","date":"2010-01-28","year":2010,"month":1,"lon":-106.2759,"lat":31.749626,"tags":"el+paso,natural+gas","S2CellId":"3442a83000000000","result":2033,"accuracy":0.0056488477,"title":"Natural+Gas","description":"Even+in+the+desert+at+4%2C000+feet+above+sea+level+this+is+an+amazingly+low+winter+price+for+a+3+bedroom+house+in+the+suburbs+which+is+heated+by+natural+gas.%0A%0AOf+course+the+house+is+well+sealed%2C+insulated%2C+and+has+triple+pane+windows."}
{"id":2575686715,"url":"http://farm4.staticflickr.com/3173/2575686715_399621f3c3.jpg","path":"d9c/eff/d9cefff56e6df9d1e1611a127b035b6.jpg","date":"2008-06-06","year":2008,"month":6,"lon":-106.488075,"lat":31.75999,"tags":"10+million+photos","S2CellId":"14a1bd3c00000000","result":1257,"accuracy":0.015657041,"title":"IMG_6524"}
{"id":2569871320,"url":"http://farm4.staticflickr.com/3028/2569871320_3cd42c4b56.jpg","path":"91e/d86/91ed8656c60782f141fd8147db9ce8.jpg","date":"2008-05-23","year":2008,"month":5,"lon":-106.48799,"lat":31.759954,"tags":"10+million+photos","S2CellId":"872b300000000000","result":7768,"accuracy":0.06632049,"title":"IMG_5388"}
{"id":342038008,"url":"http://farm1.staticflickr.com/138/342038008_a54f68ac79.jpg","path":"804/fde/804fde949b789b9e3b95e162a0c43d32.jpg","date":"2006-12-23","year":2006,"month":12,"lon":-106.44224,"lat":31.852217,"tags":"christmas,el+paso,family,home,texas","S2CellId":"48795f0000000000","result":5486,"accuracy":0.1336724,"title":"DSCN1059.JPG"}
{"id":2369849115,"url":"http://farm3.staticflickr.com/2138/2369849115_7d8a9cc4e9.jpg","path":"573/314/573314dfc321dd79e2d6de4a25e3dae.jpg","date":"2008-03-06","year":2008,"month":3,"lon":-106.489105,"lat":31.76145,"tags":"guy","S2CellId":"00a6990000000000","result":54,"accuracy":0.015295323,"title":"IMG_2576"}
{"id":2463773952,"url":"http://farm4.staticflickr.com/3117/2463773952_a46d52307e.jpg","path":"6a2/a92/6a2a92ddf11bcb846a9c5e841cad3fe.jpg","date":"2008-04-19","year":2008,"month":4,"lon":-106.48842,"lat":31.759918,"tags":"alexander,balcazar,nico","S2CellId":"8084100000000000","result":6905,"accuracy":0.031128109,"title":"IMG_7869"}
{"id":2553231518,"url":"http://farm4.staticflickr.com/3004/2553231518_92318f6314.jpg","path":"f85/25a/f8525a3febd7e74c79aa89a391cc3d.jpg","date":"2008-05-19","year":2008,"month":5,"lon":-106.48799,"lat":31.759954,"tags":"10+million+photos","S2CellId":"151c400000000000","result":1379,"accuracy":0.048762668,"title":"IMG_3130"}
{"id":2550979326,"url":"http://farm4.staticflickr.com/3165/2550979326_bac5ef8e2d.jpg","path":"321/5bd/3215bd219bccabd0d58a5435649918d9.jpg","date":"2008-05-19","year":2008,"month":5,"lon":-106.48799,"lat":31.759954,"tags":"fareed,pool","S2CellId":"80c2c7d000000000","result":7208,"accuracy":0.082320996,"title":"IMG_2748"}
{"id":2779631360,"url":"http://farm4.staticflickr.com/3110/2779631360_95347c6da4.jpg","path":"c06/db8/c06db837d2efbe2a9684f44f4e38b08.jpg","date":"2008-08-14","year":2008,"month":8,"lon":-106.541306,"lat":31.73293,"tags":"2008,church,d40,digital,fellowship,friends,fun,givingtime,helping,joshuaommen,life,lifechanging,love,mexico,mission,nikon,nikond40,north,people,trinity,trip,volunteers,work,working","S2CellId":"864ed00000000000","result":7641,"accuracy":0.22701377,"title":"DSC_7377"}
{"id":2846266751,"url":"http://farm4.staticflickr.com/3120/2846266751_09317e217c.jpg","path":"9d7/35c/9d735cd693db44282a549a28bd702da4.jpg","date":"2008-09-07","year":2008,"month":9,"lon":-106.47709,"lat":31.743568,"tags":"2008,juarez,palabras+de+arena,palabras+parque+central,parque+central,septiembre+6,te+voy+a+contar+un+cuento","S2CellId":"30cc000000000000","result":1621,"accuracy":0.020211916,"title":"Hermanos","description":"La+siguiente+tanda+de+las+cuentacuentos.+%0AEsta+vez+fue+en+domingo%2C+y+fuimos+al+Parque+Central.%0AAl+principio+no+habia+nada+de+gente%2C+pero+poco+a+poco+fueron+llegando+bastantes+ninos."}
{"id":2521869250,"url":"http://farm4.staticflickr.com/3164/2521869250_fd11997b65.jpg","path":"595/ce9/595ce9728492c5fa0d66c373b527955.jpg","date":"2008-05-17","year":2008,"month":5,"lon":-106.48842,"lat":31.759918,"tags":"el+paso,outside,texas","S2CellId":"80c2bac000000000","result":7165,"accuracy":0.013855913,"title":"IMG_1780"}
{"id":2370366864,"url":"http://farm3.staticflickr.com/2191/2370366864_c3d7a6f30d.jpg","path":"728/504/728504ca3854bcbe643825fc88f39b.jpg","date":"2008-03-04","year":2008,"month":3,"lon":-106.489105,"lat":31.76145,"tags":"guitar,nico,spanish","S2CellId":"0d379c0000000000","result":323,"accuracy":0.3828759,"title":"IMG_2164","description":"nico+playing+his+new+guitar"}
{"id":3047886397,"url":"http://farm4.staticflickr.com/3019/3047886397_4e9058127b.jpg","path":"358/dcb/358dcbe13015dee28b1334c9975ce4.jpg","date":"2008-11-21","year":2008,"month":11,"lon":-106.4855,"lat":31.740648,"tags":"2008,camiones,cuentacuentos+urbanas,juarez,noviembre+9,palabras+de+arena,palabras+ruteras,ruteras,te+voy+a+contar+un+cuento,transporte+urbano","S2CellId":"478df00000000000","result":3674,"accuracy":0.0056514586,"title":"Cuentacuentos+Urbanas","description":"En+esta+ocasion+los+cuentacuentos+nos+fuimos+a+pasear+por+las+%22Ruteras%22%2C+que+es+como+se+conoce+al+transporte+urbano+en+Cd.+Juarez.%0ALa+experiencia+estuvo+muy+padre.+En+general+la+gente+lo+tomaba+muy+bien...+y+en+un+camion+hasta+nos+aplaudieron+al+bajar%21%21%21%0ALeyendo+la+%22publicidad%22+de+las+cuentacuentos."}
{"id":6916177846,"url":"http://farm6.staticflickr.com/5115/6916177846_b0851edaef.jpg","path":"12f/f93/12ff936e31e88d2bdc48e86b7aedcbad.jpg","date":"2011-05-27","year":2011,"month":5,"lon":-106.316414,"lat":31.869247,"tags":"212th,4,bliss,cq,el,fib,fort,iphone,omacbook,paso,pro,sunrise,texas","S2CellId":"4652340000000000","result":2846,"accuracy":0.011033006,"title":"212th+FiB+CQ+Area","description":"Taking+a+picture+of+the+sunrise+over+East+Fort+Bliss%2C+Texas."}
{"id":2552400305,"url":"http://farm4.staticflickr.com/3067/2552400305_18cf17bf2f.jpg","path":"b2a/022/b2a022a7e63157236742412f94f9c9b.jpg","date":"2008-05-19","year":2008,"month":5,"lon":-106.48799,"lat":31.759954,"tags":"10+million+photos","S2CellId":"9526c00000000000","result":9799,"accuracy":0.013452864,"title":"IMG_3101"}
{"id":3419802693,"url":"http://farm4.staticflickr.com/3611/3419802693_60b3df1cb5.jpg","path":"6d2/160/6d2160b42dceec56814faaff519b91b4.jpg","date":"2009-04-04","year":2009,"month":4,"lon":-106.4855,"lat":31.740648,"tags":"2009,abril,avenida+juarez,centro,expo,exposicion,fotoclub,fotografos,juarez,tomar+la+calle","S2CellId":"47e61d1ec0000000","result":4564,"accuracy":0.06788576,"title":"Duque","description":"Fotos+tomadas+durante+la+exposicion+efimera+%22Tomar+la+Calle%22+que+se+llevo+a+cabo+en+la+Ave.+Juarez."}
{"id":3695873980,"url":"http://farm4.staticflickr.com/3550/3695873980_062d6856d1.jpg","path":"49a/7e1/49a7e176bd30d784ebcef6d3d4c04c.jpg","date":"2008-03-21","year":2008,"month":3,"lon":-106.29861,"lat":31.79939,"tags":"1yr.,b-day,crown,old","S2CellId":"880fd2c000000000","result":8164,"accuracy":0.044989165,"title":"1+yr+old+b-day+boy","description":"Jamie+made+him+a+b-day+crown+-+it+didn%27t+stay+on+for+long+but+he+looks+so+happy+and+cute+-+it%27s+a+tradition+in+her+family+so+she+wanted+to+make+him+one."}
{"id":2567766716,"url":"http://farm4.staticflickr.com/3054/2567766716_5a502ea920.jpg","path":"f6c/67e/f6c67e68557b5a5931851e138bd4f8.jpg","date":"2008-05-20","year":2008,"month":5,"lon":-106.49614,"lat":31.97692,"tags":"kiva","S2CellId":"4010000000000000","result":2650,"accuracy":0.027755432,"title":"IMG_4263"}
{"id":2568177212,"url":"http://farm4.staticflickr.com/3035/2568177212_f2536a40ec.jpg","path":"c7a/064/c7a064b2187fcaaa2db5e994897d86.jpg","date":"2008-05-20","year":2008,"month":5,"lon":-106.49803,"lat":31.977793,"tags":"el,franklin,mountains,paso,texas","S2CellId":"86d66c0000000000","result":7697,"accuracy":0.14018276,"title":"IMG_4394"}
{"id":176626118,"url":"http://farm1.staticflickr.com/73/176626118_d80d2ed77c.jpg","path":"ad2/43f/ad243fbc1f65c65f7340be649b3c25b.jpg","date":"2006-06-18","year":2006,"month":6,"lon":-106.43935,"lat":31.894201,"tags":"auto-x,boxster,d50,el+paso,racing","S2CellId":"80cf000000000000","result":7266,"accuracy":0.17068458,"title":"Cohen+Stadium+Auto-X+23"}
{"id":2369839929,"url":"http://farm3.staticflickr.com/2382/2369839929_4084dd64b6.jpg","path":"564/298/564298795e8019b3783249c86294c2c.jpg","date":"2008-03-05","year":2008,"month":3,"lon":-106.489105,"lat":31.76145,"tags":"guy","S2CellId":"88fd000000000000","result":8754,"accuracy":0.010487269,"title":"IMG_2560"}
