{"id":4854509183,"url":"http://farm5.staticflickr.com/4116/4854509183_150031e6f7.jpg","path":"dd4/538/dd4538e1e180b63354a1d8c55e43d9ce.jpg","date":"2010-07-22","year":2010,"month":7,"lon":-2.960785,"lat":58.825924,"tags":"lumix+g+vario+14-45%2Ff3.5-5.6","S2CellId":"89b6100000000000","result":8824,"accuracy":0.021579416,"title":"Flossie+in+Tomb+of+the+Eagles"}
{"id":3020565482,"url":"http://farm4.staticflickr.com/3219/3020565482_b29bc2fbd5.jpg","path":"e35/2c6/e352c6c33cc3e17ed2b548283c9edf.jpg","date":"2007-05-16","year":2007,"month":5,"lon":-2.823143,"lat":58.885845,"tags":"2007,beach,em,gracesque,orkney,scotland","S2CellId":"4865b00000000000","result":4878,"accuracy":0.06344699,"title":"scotland-may07a+030"}
{"id":881922837,"url":"http://farm2.staticflickr.com/1410/881922837_a7763c477f.jpg","path":"8e8/a1e/8e8a1ee82b2f60affa63c32307232c8.jpg","date":"2007-07-08","year":2007,"month":7,"lon":-2.959972,"lat":58.981777,"tags":"church,europe,orkney,scotland","S2CellId":"47b2100000000000","result":4009,"accuracy":0.06569289,"title":"IMG_0739","description":"St.+Magnus+Cathedral%2C+Kirkwall"}
{"id":491782707,"url":"http://farm1.staticflickr.com/199/491782707_8cc2229730.jpg","path":"fbd/2aa/fbd2aa5fd1528a18a80f652f5ff69ff.jpg","date":"2007-04-24","year":2007,"month":4,"lon":-2.900476,"lat":58.881588,"tags":"orkney","S2CellId":"489b000000000000","result":5779,"accuracy":0.7939813,"title":"Orkney%2C+Block+Ships"}
{"id":6082012723,"url":"http://farm7.staticflickr.com/6080/6082012723_bc20872380.jpg","path":"d0d/c7b/d0dc7b53162bfda602e4421e1c04e5b.jpg","date":"2011-07-14","year":2011,"month":7,"lon":-2.90348,"lat":58.882164,"tags":"boat,defence,orcadian,orkney,scotland,ship,sunken,war","S2CellId":"489b000000000000","result":5779,"accuracy":0.46197256,"title":"Mast+of+one+of+the+Sunken+Ships+in+Scapa+Flow"}
{"id":881877351,"url":"http://farm2.staticflickr.com/1073/881877351_50cae092b4.jpg","path":"d1e/cd8/d1ecd832ed38bbcb09c907296ff4da.jpg","date":"2007-07-07","year":2007,"month":7,"lon":-2.958388,"lat":58.985058,"tags":"church,europe,orkney,scotland","S2CellId":"487eb00000000000","result":5660,"accuracy":0.60478294,"title":"IMG_0719","description":"St.+Magnus+Cathedral%2C+Kirkwall"}
{"id":4650378790,"url":"http://farm5.staticflickr.com/4014/4650378790_a2c744e2af.jpg","path":"3a4/898/3a4898c127301232c7562410a72d18c8.jpg","date":"2010-05-21","year":2010,"month":5,"lon":-2.95309,"lat":58.970367,"tags":"orkney,scotland,sp550uz","S2CellId":"47c4100000000000","result":4245,"accuracy":0.008965134,"title":"Highland+Park+distillery"}
{"id":6081930855,"url":"http://farm7.staticflickr.com/6198/6081930855_bd207a0f1b.jpg","path":"e65/7d4/e657d4bddd958496c2ebd46656e09.jpg","date":"2011-07-14","year":2011,"month":7,"lon":-2.931118,"lat":58.834515,"tags":"boat,defence,orcadian,orkney,scotland,ship,sunken,war","S2CellId":"489b000000000000","result":5779,"accuracy":0.88502663,"title":"Scapa+Flow+and+a+Churchill+Barrier"}
{"id":8686130516,"url":"http://farm9.staticflickr.com/8537/8686130516_6e1dcfd23a.jpg","path":"a6c/15e/a6c15e457f8b259358fda6a758b5e4.jpg","date":"2013-03-27","year":2013,"month":3,"lon":-2.959553,"lat":58.986214,"tags":"harbour,industrial,kirkwall,lr4,mono+conversion","S2CellId":"486109c000000000","result":4848,"accuracy":0.04146358,"title":"PJD+Challenge+Shoot%2C+Kirkwall+Trip+March+28-56.jpg"}
{"id":6082471800,"url":"http://farm7.staticflickr.com/6189/6082471800_76d8205d9a.jpg","path":"144/dbf/144dbfb710609183623a77815f6430b1.jpg","date":"2011-07-14","year":2011,"month":7,"lon":-2.909574,"lat":58.83802,"tags":"boat,defence,orcadian,orkney,scotland,ship,sunken,war","S2CellId":"89fb400000000000","result":9399,"accuracy":0.0497748,"title":"Sunken+Ship","description":"Ships+sunk+as+part+of+the+defences+of+Scapa+Flow"}
{"id":270476686,"url":"http://farm1.staticflickr.com/101/270476686_4b2ac187a4.jpg","path":"1cd/032/1cd0326d721727fd76b4e8bceb4148c.jpg","date":"2005-07-03","year":2005,"month":7,"lon":-2.925796,"lat":58.741398,"tags":"cybershot,dsc-s75,north+sea,orkney,scotland,seacoast,sony","S2CellId":"0d31c00000000000","result":305,"accuracy":0.30516234,"title":"Tomb+of+the+Eagles-19.jpg"}
