{"id":7581934892,"url":"http://farm9.staticflickr.com/8432/7581934892_ea8199bfbf.jpg","path":"b63/174/b631747969060f1d014ac75112b4d6.jpg","date":"2012-07-05","year":2012,"month":7,"lon":9.998833,"lat":58.975,"tags":"2012+sommerferie,sommerferie+2012","S2CellId":"4caec00000000000","result":5835,"accuracy":0.06192791,"title":"Lokal+berggyltfisker"}
{"id":520590651,"url":"http://farm1.staticflickr.com/208/520590651_46616eb17a.jpg","path":"aa1/ceb/aa1ceb95328b42b74ac7e3aec9e95c3.jpg","date":"2005-06-10","year":2005,"month":6,"lon":9.397044,"lat":58.879234,"tags":"krager%C3%B8","S2CellId":"463a400000000000","result":2769,"accuracy":0.13307112,"title":"s%C3%B8rlandsidyll"}
{"id":4129378482,"url":"http://farm3.staticflickr.com/2645/4129378482_7f20aab1ff.jpg","path":"5f5/094/5f509428efe655a396ac54a02afd473.jpg","date":"2009-11-21","year":2009,"month":11,"lon":9.975414,"lat":58.985096,"tags":"brunlanes,jaros%C5%82aw,norway","S2CellId":"4805400000000000","result":4753,"accuracy":0.026148276,"title":"Jaros%C5%82aw+at+beach"}
{"id":2767366027,"url":"http://farm4.staticflickr.com/3160/2767366027_09921c6284.jpg","path":"f0a/db2/f0adb28ba61022f21668e43cc0516a40.jpg","date":"2008-08-13","year":2008,"month":8,"lon":9.547462,"lat":58.8348,"tags":"%C3%B8m%C3%B8,2008,hyttetur,jomfruland,sommerfest","S2CellId":"3466400000000000","result":2115,"accuracy":0.17194138,"title":"DSC_4645"}
{"id":5704567715,"url":"http://farm4.staticflickr.com/3407/5704567715_ca5425d7b4.jpg","path":"9a5/e55/9a5e55c0fbea773f1c26ba5e331ef9f2.jpg","date":"2011-05-07","year":2011,"month":5,"lon":9.587769,"lat":58.86644,"tags":"ferry,jomfruland,norway","S2CellId":"4b5f000000000000","result":5826,"accuracy":0.17275721,"title":"Leaving"}
{"id":6037971499,"url":"http://farm7.staticflickr.com/6188/6037971499_57654e2a25.jpg","path":"ffe/562/ffe562177ef3cbe04243698cc9c94.jpg","date":"2011-07-29","year":2011,"month":7,"lon":9.125166,"lat":58.644333,"tags":"bicicletta,lyng%C3%B8r,norvegia,travel,viaggi","S2CellId":"45df000000000000","result":2759,"accuracy":0.2451505,"title":"Lyng%C3%B8r"}
{"id":2735735589,"url":"http://farm4.staticflickr.com/3285/2735735589_b55b1c648c.jpg","path":"f7d/758/f7d758de3d83f667e33b5bd678b42eec.jpg","date":"2008-07-22","year":2008,"month":7,"lon":9.914817,"lat":58.983727,"tags":"norge,norway","S2CellId":"4659400000000000","result":2884,"accuracy":0.05190066,"title":"P7220005"}
{"id":3963040323,"url":"http://farm4.staticflickr.com/3430/3963040323_3751ca116f.jpg","path":"c8d/4f9/c8d4f9859550f6e63fe919d5d96cdfc.jpg","date":"2009-09-27","year":2009,"month":9,"lon":9.835166,"lat":58.96968,"tags":"brunlanes,m%C3%B8len,norway,sunset","S2CellId":"48cf000000000000","result":5786,"accuracy":0.1095018,"title":"M%C3%B8len"}
{"id":170865747,"url":"http://farm1.staticflickr.com/78/170865747_cd34af08c3.jpg","path":"fbd/7cc/fbd7cc74f8ac8468c3b80174d162de4.jpg","date":"2006-06-19","year":2006,"month":6,"lon":9.228515,"lat":58.721886,"tags":"eirik+stavelin,rain,ris%C3%B8r,stavelin,summer,water","S2CellId":"8085790000000000","result":6916,"accuracy":0.015936008,"title":"Rain+on+water","description":"I+sat+in+the+familiy+boat%2C+wating+for+the+rain+to+stop.+I+had+my+camera+with+a+300mm+lense+and+a+tripod%2C+and+iPod+%3A%29+I+sat+for+about+an+hour+waiting%2C+the+rain+didn%27t+stop%2C+but+at+least+I+took+some+pictures.."}
{"id":9440570023,"url":"http://farm8.staticflickr.com/7389/9440570023_c05e654cb8.jpg","path":"c6b/f29/c6bf29a3f34ff9df298217b834a0f723.jpg","date":"2013-08-04","year":2013,"month":8,"lon":9.240487,"lat":58.71808,"tags":"agder,colin+archer,festival,for,norwegian,norwegian+society+for+sea+rescue,redningsselskapet,redningssk%C3%B8yte,rescue,ris%C3%B8r,ris%C3%B8r+treb%C3%A5tfestival,rs,rs+147+inge+steensland,sea,society","S2CellId":"465f840000000000","result":2912,"accuracy":0.14481653,"title":"Ris%C3%B8r+Treb%C3%A5tfestival+-+Minnemarkering+RS+24+%22Ris%C3%B8r%22","description":"Ris%C3%B8r+Treb%C3%A5tfestival+2013+-+2.-4.+august.+%0AFor+100+%C3%A5rsiden+gikk+Redningssk%C3%B8yta+RS+24+%22Ris%C3%B8r%22+ut+fra+Ris%C3%B8r+i+et+forykende+uv%C3%A6r+for+%C3%A5+v%C3%A6re+p%C3%A5+sj%C3%B8en+vis+noen+trengte+den.+RS+24+%22Ris%C3%B8r%22+kom+aldri+tilbake+og+mannskap+p%C3%A5+4+forsvant+med+sk%C3%B8yta.%0AS%C3%B8ndag+4.august+under+Treb%C3%A5tfestivalen+ble+det+holdt+en+minnemarkering+for+de+omkomne.+Hvor+en+krans+ble+kastet+p%C3%A5+sj%C3%B8en.+Tilstedet+p%C3%A5+sermonien+var+de+to+gamle+redningssk%C3%B8ytene%2C+RS+28+%22Sandefjord%22+og+RS+30+%22Ris%C3%B8r+%7C%7C%22%2C+samt+dagens+redningssk%C3%B8yte+som+er+stasjonert+i+Arendal%2C+RS+147+%22Inge+Steensland%22."}
{"id":5809227844,"url":"http://farm3.staticflickr.com/2157/5809227844_6a49546d03.jpg","path":"521/4a6/5214a616b95379976461423a387925ce.jpg","date":"2011-04-25","year":2011,"month":4,"lon":9.600505,"lat":58.866013,"tags":"canon+60d,jomfruland,krager%C3%B8,kragero","S2CellId":"6d2b000000000000","result":6808,"accuracy":0.016969971}
{"id":5759726204,"url":"http://farm6.staticflickr.com/5302/5759726204_bfbdae17a1.jpg","path":"f49/baa/f49baa409773434cc68e510e2732241.jpg","date":"2011-05-25","year":2011,"month":5,"lon":9.411503,"lat":58.864655,"tags":"b%C3%A5ter,havn,krager%C3%B8,norge,telemark","S2CellId":"4647000000000000","result":2811,"accuracy":0.05793546,"title":"20110525-DSC00435","description":"Jeg+ruslet+rundt+nede+ved+havna+og+tok+en+del+bilder"}
{"id":5038857381,"url":"http://farm5.staticflickr.com/4146/5038857381_cdc592c5e6.jpg","path":"9cc/082/9cc082f4cf5ca0eb8ae7e95025b96349.jpg","date":"2010-09-30","year":2010,"month":9,"lon":9.425014,"lat":58.866795,"tags":"krager%C2%BF,krager%C3%B8,norge,telemark","S2CellId":"549015c000000000","result":6194,"accuracy":0.078596435,"title":"Views+from+Krager%C3%B8"}
{"id":7678956480,"url":"http://farm9.staticflickr.com/8026/7678956480_0f3c26103b.jpg","path":"6e6/361/6e636105694f28145539b34afcf2c.jpg","date":"2012-07-10","year":2012,"month":7,"lon":9.756374,"lat":58.99328,"tags":"familietur,fyr,havet,lang%C3%B8ytangen,langesund,sj%C3%B8en,telemark","S2CellId":"4763000000000000","result":3311,"accuracy":0.16163002,"title":"Langesund"}
{"id":2674015029,"url":"http://farm4.staticflickr.com/3039/2674015029_8b9ef16a0a.jpg","path":"88c/5fe/88c5fe4fc98a925029ee5fa96e262357.jpg","date":"2008-07-16","year":2008,"month":7,"lon":9.837746,"lat":58.96812,"tags":"m%C3%B8len","S2CellId":"4860400000000000","result":4839,"accuracy":0.073651046,"title":"IMG_7484"}
{"id":3672920470,"url":"http://farm4.staticflickr.com/3399/3672920470_c94d322f05.jpg","path":"142/36c/14236c52add62e4e6d9cee06eca9329.jpg","date":"2009-06-26","year":2009,"month":6,"lon":9.350395,"lat":58.76001,"tags":"coast,coastal,dusk,ocean,sea,sky","S2CellId":"4cad000000000000","result":5833,"accuracy":0.10792651,"title":"Ocean+Dusk"}
{"id":5038864789,"url":"http://farm5.staticflickr.com/4148/5038864789_cb6dfb6bb0.jpg","path":"f1d/291/f1d291301647efa56a659ed6f1cd28d9.jpg","date":"2010-09-30","year":2010,"month":9,"lon":9.413534,"lat":58.86816,"tags":"krager%C2%BF,krager%C3%B8,norge,telemark","S2CellId":"463a400000000000","result":2769,"accuracy":0.03589176,"title":"Views+from+Krager%C3%B8"}
{"id":5759174929,"url":"http://farm3.staticflickr.com/2410/5759174929_beca4e8e35.jpg","path":"daf/628/daf628b6c5acf53caf6b77389e715d9d.jpg","date":"2011-05-25","year":2011,"month":5,"lon":9.411503,"lat":58.864655,"tags":"b%C3%A5ter,havn,krager%C3%B8,norge,telemark","S2CellId":"4cad000000000000","result":5833,"accuracy":0.03216439,"title":"20110525-DSC00408","description":"Jeg+ruslet+rundt+nede+ved+havna+og+tok+en+del+bilder"}
{"id":6008056969,"url":"http://farm7.staticflickr.com/6130/6008056969_e11aa15fd9.jpg","path":"f2c/b12/f2cb1236ce74241df767798622811146.jpg","date":"2011-07-30","year":2011,"month":7,"lon":9.600505,"lat":58.866013,"tags":"canon+60d,jomfruland,krager%C3%B8,kragero,ta%CC%8Arnene","S2CellId":"52af000000000000","result":5972,"accuracy":0.12756184,"title":"Ta%CC%8Arnet"}
{"id":5039468852,"url":"http://farm5.staticflickr.com/4151/5039468852_c5a26fdccf.jpg","path":"331/c75/331c75efcbc4626e12722484228fb3.jpg","date":"2010-09-30","year":2010,"month":9,"lon":9.39964,"lat":58.850754,"tags":"krager%C2%BF,krager%C3%B8,norge,telemark","S2CellId":"4cad000000000000","result":5833,"accuracy":0.013190087,"title":"Views+from+Krager%C3%B8"}
{"id":5759179273,"url":"http://farm4.staticflickr.com/3286/5759179273_cd991e6205.jpg","path":"9f3/4d8/9f34d87041b7aae364b8b5287ddd5d33.jpg","date":"2011-05-25","year":2011,"month":5,"lon":9.411503,"lat":58.864655,"tags":"b%C3%A5ter,havn,krager%C3%B8,norge,telemark","S2CellId":"487f100000000000","result":5666,"accuracy":0.043911602,"title":"20110525-DSC00418","description":"Jeg+ruslet+rundt+nede+ved+havna+og+tok+en+del+bilder"}
