{"id":7238464008,"url":"http://farm9.staticflickr.com/8143/7238464008_15e36033dc.jpg","path":"7c6/8b0/7c68b0a9512dd41fc3070dc3cb0b748.jpg","date":"2012-05-20","year":2012,"month":5,"lon":-79.73817,"lat":34.191853,"tags":"2012+mayfly,florence,may+fly+air+show,sc","S2CellId":"4878440000000000","result":5451,"accuracy":0.09692841,"title":"bdia1","description":"Black+Diamond+Group"}
{"id":5455586899,"url":"http://farm6.staticflickr.com/5254/5455586899_1a80dac9d1.jpg","path":"638/2ff/6382ff246886e6d49544c45687d61178.jpg","date":"2011-02-17","year":2011,"month":2,"lon":-79.37167,"lat":34.793736,"tags":"150,747,airport,boeing,cessna,kmeb,laurinburg,maxton,meb,n45588,northwest,scrap,yard","S2CellId":"89b6440000000000","result":8829,"accuracy":0.028240854,"title":"KMEB+Scrap+Yard+Pics+2-17-2011+%28MOBILE+PIC%29","description":"Picture+of+the+Scrap+Yard+of+old+Northwest+Airline+planes...there+is+actually+alot+of+history+here+in+the+scrap+yard."}
{"id":445310893,"url":"http://farm1.staticflickr.com/243/445310893_2c45f76d42.jpg","path":"731/bfa/731bfad6449fd6fd17f5e53fb88a1016.jpg","date":"2007-04-03","year":2007,"month":4,"lon":-79.30841,"lat":34.501465,"tags":"sc","S2CellId":"88dd900000000000","result":8636,"accuracy":0.030266734,"title":"P1100379","description":"The+greatest+%5Bread%3A+tackiest%5D+place+on+earth."}
{"id":5826046419,"url":"http://farm6.staticflickr.com/5036/5826046419_4c818e5a9f.jpg","path":"9fa/d5d/9fad5da50f3432c3d13acc2e1bedabc.jpg","date":"2011-06-11","year":2011,"month":6,"lon":-79.30964,"lat":34.498722,"tags":"border,of,sob,south,the","S2CellId":"871b000000000000","result":7733,"accuracy":0.02007272,"title":"SOB","description":"Quick+stop+at+South+Of+The+Border%2C+on+our+way+to+orlando..."}
{"id":12060518526,"url":"http://farm6.staticflickr.com/5502/12060518526_f84cf3fa47.jpg","path":"257/62d/25762da69efd367e09e042111939b.jpg","date":"2013-12-28","year":2013,"month":12,"lon":-79.30847,"lat":34.49871,"tags":"2013,december+2013,south+carolina,south+of+the+border","S2CellId":"52b7000000000000","result":5997,"accuracy":0.019572074,"title":"South+Of+The+Border","description":"Pedro%27s+Myrtle+Beach+Shop+at+South+Of+The+Border."}
{"id":14182963,"url":"http://farm1.staticflickr.com/14/14182963_f3db20af1a.jpg","path":"c39/f48/c39f48f35f1f3aff705b8f957bb1a337.jpg","date":"2005-05-13","year":2005,"month":5,"lon":-79.76507,"lat":34.19408,"tags":"ackack,drive-in,findleastinteresting,florence,restaurant,sc,sign,southcarolina","S2CellId":"862c000000000000","result":7533,"accuracy":0.015090077,"title":"301+menu","description":"Not+for+vegetarians.%0A%0AFlorence%2C+SC"}
{"id":7999869787,"url":"http://farm9.staticflickr.com/8175/7999869787_9dbbf26df5.jpg","path":"99d/ef0/99def0e89287bf8d88ecb2b8eab33f9.jpg","date":"2012-09-18","year":2012,"month":9,"lon":-79.17491,"lat":34.554497,"tags":"air+conditioned,kool+cigarettes,main+street,mappingmain,mcdonald,north+carolina,robeson+county,the+britt+co.","S2CellId":"9689f00000000000","result":9911,"accuracy":0.007982984,"title":"It%27s+Kool+Inside","description":"On+the+door+of+the+Britt+Company+in+McDonald%2C+North+Carolina"}
{"id":87596535,"url":"http://farm1.staticflickr.com/41/87596535_204967737f.jpg","path":"aa7/fa8/aa7fa83f398df77eff4f3ee5864ff032.jpg","date":"2006-01-13","year":2006,"month":1,"lon":-79.30914,"lat":34.499996,"tags":"ackack,i-95,pedro%27s,roadside+attraction,sob,sotb,south+carolina,south+of+the+border,tourist+trap","S2CellId":"80c8c3c000000000","result":7231,"accuracy":0.036783822,"title":"pedro%27s","description":"Everything+at+%3Ca+href%3D%22http%3A%2F%2Fwww.roadtripamerica.com%2Fplaces%2Fsouthof.htm%22+target%3D%22_blank%22%3ESOtB%3C%2Fa%3E+is+called+%22Pedro%27s%22+..."}
{"id":3332818545,"url":"http://farm4.staticflickr.com/3571/3332818545_cb790eaa2d.jpg","path":"6d2/3b4/6d23b4be56a6637e1fc81936f0bf4796.jpg","date":"2009-03-03","year":2009,"month":3,"lon":-79.87876,"lat":34.205982,"tags":"florence,sc","S2CellId":"95bb000000000000","result":9829,"accuracy":0.037759647,"title":"DSC_0151"}
{"id":3435186667,"url":"http://farm4.staticflickr.com/3587/3435186667_911030cc97.jpg","path":"c53/7cb/c537cb16698d5f6492cd7d6f8c945e.jpg","date":"2009-04-11","year":2009,"month":4,"lon":-79.825516,"lat":34.167023,"tags":"1995,95,impreza,l,poser,road,rs25,sand,sti,subaru,t3hwit,unpaved,wannabe,wrx","S2CellId":"47c3f64000000000","result":4240,"accuracy":0.02848808,"title":"DSC09361"}
{"id":4003155756,"url":"http://farm3.staticflickr.com/2534/4003155756_078bdcd6ab.jpg","path":"fae/bf3/faebf3daadf235147c82186231ec3fd.jpg","date":"2009-10-07","year":2009,"month":10,"lon":-79.69916,"lat":34.88373,"tags":"amtrak,depot,hamlet,north+carolina,seaboard,station,trains","S2CellId":"880e240000000000","result":8108,"accuracy":0.023362376,"title":"2009-10-07+13-07-30+-+0002"}
{"id":7749789338,"url":"http://farm9.staticflickr.com/8283/7749789338_ecb5c5472b.jpg","path":"fb7/77f/fb777f5c975eb48a12f8f9337bc525.jpg","date":"2011-11-08","year":2011,"month":11,"lon":-79.31382,"lat":34.494816,"tags":"abandoned,abandoned+buildings,abandoned+hotels,abandoned+motels,south+of+the+border,south+of+the+border+hotel,south+of+the+border+motel,urban+exploring","S2CellId":"472c000000000000","result":3253,"accuracy":0.048606068,"title":"IMG_6171"}
{"id":4664431177,"url":"http://farm5.staticflickr.com/4005/4664431177_b9ca887cd3.jpg","path":"212/11d/21211d2d67dcf9bf75e884fd7aaae316.jpg","date":"2010-05-31","year":2010,"month":5,"lon":-79.30983,"lat":34.498554,"tags":"sc,south+of+the+border","S2CellId":"95a3340000000000","result":9818,"accuracy":0.008647933,"description":"South+of+the+Border"}
{"id":12237150336,"url":"http://farm8.staticflickr.com/7351/12237150336_b19ba23c58.jpg","path":"ae1/146/ae11462484d80a4192c9222bd1f711b.jpg","date":"2014-01-31","year":2014,"month":1,"lon":-79.30891,"lat":34.499676,"tags":"instagram+app,iphoneography,square,square+format","S2CellId":"5371740000000000","result":6053,"accuracy":0.012076862,"title":"At+least+Pedro%27s+enjoying+the+snow%21"}
