{"id":2940938343,"url":"http://farm4.staticflickr.com/3154/2940938343_1c82e3093b.jpg","path":"e18/d47/e18d47edf689cd953030da3d4d6ef5.jpg","date":"2008-10-11","year":2008,"month":10,"lon":100.01953,"lat":15.029685,"tags":"bangkok","S2CellId":"88d0a631cabb5071","result":8563,"accuracy":0.018063806,"title":"%40BKK"}
{"id":2369064814,"url":"http://farm3.staticflickr.com/2135/2369064814_66a39d57cc.jpg","path":"f6c/5d8/f6c5d8ffd85ea6e5f53a463a9f76fb71.jpg","date":"2008-03-28","year":2008,"month":3,"lon":101.9581,"lat":17.30074,"tags":"bonnie,caroline,erawan+falls+2+tanya,ian,juilia,robin","S2CellId":"8edc000000000000","result":9506,"accuracy":0.107659526,"title":"100_0504"}
{"id":6042875093,"url":"http://farm7.staticflickr.com/6205/6042875093_f7f4046d5e.jpg","path":"17c/51c/17c51cbf1ffc18c89f1aa7aca9592d8.jpg","date":"2011-02-08","year":2011,"month":2,"lon":99.70121,"lat":17.016819,"tags":"%CF%84%CE%B1%CF%8A%CE%BB%CE%AC%CE%BD%CE%B4%CE%B7,%D1%82%D0%B0%D0%B8%D0%BB%D0%B0%D0%BD%D0%B4,%D8%AA%D8%A7%D9%8A%D9%84%D8%A7%D9%86%D8%AF,%E0%A4%A5%E0%A4%BE%E0%A4%88%E0%A4%B2%E0%A5%88%E0%A4%A3%E0%A5%8D%E0%A4%A1,%E0%B8%9B%E0%B8%A3%E0%B8%B0%E0%B9%80%E0%B8%97%E0%B8%A8%E0%B9%84%E0%B8%97%E0%B8%A2,%E3%82%BF%E3%82%A4%E7%8E%8B%E5%9B%BD,%E6%B3%B0%E5%9B%BD,lan,ruins,sukhothai,sukhothai+historical+park,tail%C3%A0ndia,tail%C3%A2ndia,tailandia,tajlandia,tayland,temple,th%C3%A1i,tha%C3%AFlande,thaif%C3%B6ld,thailand,thailandia,thaimaa,world+heritage+site","S2CellId":"30df000000000000","result":1644,"accuracy":0.19333343,"title":"Sukhothai"}
{"id":4501802146,"url":"http://farm3.staticflickr.com/2614/4501802146_76ae110a0f.jpg","path":"ba2/fe8/ba2fe88b6056ab1f1214dd5a28f8011.jpg","date":"2010-03-29","year":2010,"month":3,"lon":101.0014,"lat":15.0329,"tags":"koh+kood,thailand,travel","S2CellId":"312f000000000000","result":1733,"accuracy":0.029330954,"title":"Ao+Salad++-+Streetfront+shop"}
{"id":8560873283,"url":"http://farm9.staticflickr.com/8386/8560873283_a12e2a6733.jpg","path":"ada/bbe/adabbe45906d2a51852692ce7e6add.jpg","date":"2013-03-16","year":2013,"month":3,"lon":100.131584,"lat":15.695402,"tags":"lonchura+punctulata","S2CellId":"88d0a631cabb5071","result":8563,"accuracy":0.28233904,"title":"Scaly+Breasted+Munia","description":"16th+March+2013+Bueng+Boraphet%2C+Thailand"}
{"id":7675344564,"url":"http://farm9.staticflickr.com/8014/7675344564_bd46c93342.jpg","path":"18f/4e2/18f4e2e1d8a1a47689b84b9a707965ba.jpg","date":"2012-06-14","year":2012,"month":6,"lon":99.788055,"lat":17.432825,"tags":"historical,park,satchanalai,si,thailand","S2CellId":"30e2740000000000","result":1651,"accuracy":0.9433903}
{"id":2645197767,"url":"http://farm4.staticflickr.com/3190/2645197767_325035f352.jpg","path":"45b/ee1/45bee17aee7a49777beae88a52a6b3ea.jpg","date":"2008-07-06","year":2008,"month":7,"lon":100.09987,"lat":17.628971,"tags":"temple,thathanon,uttaradit,wat","S2CellId":"311d400000000000","result":1726,"accuracy":0.044766225,"title":"IMG_0884"}
{"id":8592778810,"url":"http://farm9.staticflickr.com/8252/8592778810_0f771cbd85.jpg","path":"bc4/eb1/bc4eb1227bacd8b1413c69bda46a5f.jpg","date":"2013-03-27","year":2013,"month":3,"lon":100.27316,"lat":16.795912,"tags":"70617,f11-41%2F31","S2CellId":"8091400000000000","result":7086,"accuracy":0.014703444,"title":"F11-41%2F31+-+70617","description":"Lockheed+T.33A+on+display+as+a+gate+guard+at+the+Royal+Thai+Air+Force+Base%2C46th+Wing+at+Phitsanulok-PHS%2CThailand%2C26%2F03%2F13."}
{"id":6043415612,"url":"http://farm7.staticflickr.com/6196/6043415612_c3579db7c3.jpg","path":"ba8/6d9/ba86d94aa5d0368043b4bd3bcecde843.jpg","date":"2011-02-07","year":2011,"month":2,"lon":99.70507,"lat":17.021292,"tags":"%CF%84%CE%B1%CF%8A%CE%BB%CE%AC%CE%BD%CE%B4%CE%B7,%D1%82%D0%B0%D0%B8%D0%BB%D0%B0%D0%BD%D0%B4,%D8%AA%D8%A7%D9%8A%D9%84%D8%A7%D9%86%D8%AF,%E0%A4%A5%E0%A4%BE%E0%A4%88%E0%A4%B2%E0%A5%88%E0%A4%A3%E0%A5%8D%E0%A4%A1,%E0%B8%9B%E0%B8%A3%E0%B8%B0%E0%B9%80%E0%B8%97%E0%B8%A8%E0%B9%84%E0%B8%97%E0%B8%A2,%E3%82%BF%E3%82%A4%E7%8E%8B%E5%9B%BD,%E6%B3%B0%E5%9B%BD,lan,sukhothai,sukhothai+historical+park,tail%C3%A0ndia,tail%C3%A2ndia,tailandia,tajlandia,tayland,th%C3%A1i,tha%C3%AFlande,thaif%C3%B6ld,thailand,thailandia,thaimaa,world+heritage+site","S2CellId":"94ce59f000000000","result":9723,"accuracy":0.12477823,"title":"Sukhothai"}
{"id":196807555,"url":"http://farm1.staticflickr.com/61/196807555_bca2b09bd4.jpg","path":"e72/bf3/e72bf34f7be9cec1a6ff2b257682f11.jpg","date":"2006-07-07","year":2006,"month":7,"lon":101.27197,"lat":15.749962,"tags":"chiang+mai,elephant,show,thailand","S2CellId":"30d9000000000000","result":1623,"accuracy":0.13457586,"title":"squished"}
{"id":578892629,"url":"http://farm2.staticflickr.com/1341/578892629_48dcecf92e.jpg","path":"618/c1d/618c1de810bdf3948f587329102533.jpg","date":"2007-02-10","year":2007,"month":2,"lon":99.74573,"lat":17.011484,"tags":"architecture,historic+sites,religious+sites,si+satchanalai,thailand,travel","S2CellId":"312f000000000000","result":1733,"accuracy":0.018866187,"title":"View+from+Wat+Khao+Suwanakiri","description":"Wat+Khao+Suwanakiri"}
{"id":1354140912,"url":"http://farm2.staticflickr.com/1186/1354140912_81d2aa5c15.jpg","path":"ee2/078/ee2078186166b37831b394facd83246.jpg","date":"2007-09-08","year":2007,"month":9,"lon":99.702126,"lat":17.016737,"tags":"architecture,asia,buddha,buddhism,buddhist,d200,facebook,g.v.+admin%27s+hall+of+fame,girls,global+city,global+village,group,image,invited+photo%28s%29+only,itsa+beautiful+%28g.v.%29,nikon,people,photography,portrait,religion,smiles,statue,stone,sukhothai,taiger808,temple,temples,thai,thailand,tourism,wat,wat+si+chum,young","S2CellId":"13258b0000000000","result":991,"accuracy":0.045215987,"title":"Thailand%3A+Being+photogenic+at+Wat+Si+Chum%2C+Sukhothai"}
{"id":290472154,"url":"http://farm1.staticflickr.com/101/290472154_a1a37586b6.jpg","path":"7b3/c96/7b3c962fac8d93b984cc49d3d3dba25.jpg","date":"2006-11-04","year":2006,"month":11,"lon":99.72565,"lat":17.008202,"tags":"sukhothai,thailand","S2CellId":"87e5000000000000","result":8030,"accuracy":0.011982733,"title":"Some+cows+having+a+snack"}
{"id":6836324899,"url":"http://farm8.staticflickr.com/7006/6836324899_6d570c127e.jpg","path":"d5b/9d0/d5b9d0ccf9af02ef25445e826a4b36e.jpg","date":"2012-01-14","year":2012,"month":1,"lon":99.320724,"lat":15.608233,"tags":"conservation,extinction,patrol,protection,ranger,thailand,tiger,training,wildlife","S2CellId":"8831c00000000000","result":8299,"accuracy":0.54848826,"title":"WB_120114_2235","description":"Examining+and+recording+an+illegal+camp+site%0A%0A%28Regional+Smart+Patrol+Training+for+Tiger+Conservation+in+Huai+Kha+Khaeng+Wildlife+Sanctuary%2C+Thailand%29"}
{"id":6330874627,"url":"http://farm7.staticflickr.com/6222/6330874627_6d6ba5fcb0.jpg","path":"65c/864/65c864854aa5f22ec61abe759bf491dc.jpg","date":"2011-10-07","year":2011,"month":10,"lon":101.68945,"lat":17.287708,"tags":"buddha,chiang+mai,painting,temple,thailand","S2CellId":"94ce59f000000000","result":9723,"accuracy":0.004718187,"title":"DSCN3765"}
{"id":8781730666,"url":"http://farm8.staticflickr.com/7309/8781730666_e55f9d81fb.jpg","path":"c15/5fe/c155fe71d0a2faf1366a7c1e7d3d4291.jpg","date":"2012-10-06","year":2012,"month":10,"lon":99.71183,"lat":17.018667,"tags":"photo+stream","S2CellId":"8f75000000000000","result":9551,"accuracy":0.01582012,"title":"Sukhothai","description":"Sukhothai"}
{"id":8209267167,"url":"http://farm9.staticflickr.com/8342/8209267167_88858384df.jpg","path":"3a2/21e/3a221e283dd6fa37b1c1320492ee3b0.jpg","date":"2012-11-23","year":2012,"month":11,"lon":99.70926,"lat":17.017557,"tags":"sukhothai,thailand,wat+traphang+thung","S2CellId":"312f000000000000","result":1733,"accuracy":0.1566033,"title":"Thailand+Sukhothai%3A+Wat+Traphang+Thung"}
{"id":196815099,"url":"http://farm1.staticflickr.com/65/196815099_bd7d093f30.jpg","path":"4e6/5ae/4e65aed2ee1c5bfb9f7451743889bc7.jpg","date":"2006-07-06","year":2006,"month":7,"lon":101.27197,"lat":15.749962,"tags":"chiang+mai,thailand,zach,zachhale","S2CellId":"47e61d1ec0000000","result":4564,"accuracy":0.08946934,"title":"So+cute."}
{"id":2369063030,"url":"http://farm4.staticflickr.com/3283/2369063030_79b12f30fe.jpg","path":"ee2/840/ee28404991c8752da550169382d126b2.jpg","date":"2008-03-28","year":2008,"month":3,"lon":101.9581,"lat":17.30074,"tags":"bonnie,caroline,erawan+falls+2+tanya,ian,juilia,robin","S2CellId":"1335300000000000","result":1126,"accuracy":0.03808727,"title":"100_0488"}
{"id":578886171,"url":"http://farm2.staticflickr.com/1115/578886171_823700783e.jpg","path":"606/351/606351196ce97dc5b3182a769d717825.jpg","date":"2007-02-10","year":2007,"month":2,"lon":99.74573,"lat":17.011484,"tags":"animals,people,si+satchanalai,thailand,travel","S2CellId":"30da3f0000000000","result":1637,"accuracy":0.1297058,"title":"Feeding+Time","description":"Wat+Chang+Lom"}
{"id":8380988213,"url":"http://farm9.staticflickr.com/8331/8380988213_3c3fb60733.jpg","path":"b82/386/b82386ab2817cbf048de877f72b21229.jpg","date":"2013-01-01","year":2013,"month":1,"lon":99.7205,"lat":17.020348,"tags":"family,legendha+resort,new+years+eve,poppy,sky+lantern,steve,sukhothai,viggo","S2CellId":"14a8400000000000","result":1267,"accuracy":0.016183801,"title":"Preparing+a+Sky+Lantern"}
{"id":8512323794,"url":"http://farm9.staticflickr.com/8085/8512323794_075c3e971f.jpg","path":"bcf/9f7/bcf9f7835d6ac7627aed521c55498aa.jpg","date":"2013-02-15","year":2013,"month":2,"lon":99.70789,"lat":17.017252,"tags":"sukhothai","S2CellId":"30e2740000000000","result":1651,"accuracy":0.20473124,"title":"DSC_0300"}
{"id":1350547657,"url":"http://farm2.staticflickr.com/1021/1350547657_15270619eb.jpg","path":"7e7/1f7/7e71f7b368868210e2f5e6c8a3d5ba.jpg","date":"2006-09-09","year":2006,"month":9,"lon":99.526344,"lat":16.483498,"tags":"%E0%B8%81%E0%B8%B3%E0%B9%81%E0%B8%9E%E0%B8%87%E0%B9%80%E0%B8%9E%E0%B8%8A%E0%B8%A3,kamphaengphet","S2CellId":"3663000000000000","result":2397,"accuracy":0.25351503,"title":"CIMG3722"}
{"id":290479184,"url":"http://farm1.staticflickr.com/102/290479184_9f0100ca32.jpg","path":"23c/8df/23c8df475a10f88d5efe437e583156ff.jpg","date":"2006-11-05","year":2006,"month":11,"lon":99.72565,"lat":17.008202,"tags":"sukhothai,thailand","S2CellId":"30e2740000000000","result":1651,"accuracy":0.57162964,"title":"Looking+for+the+headless+Buddha"}
{"id":83307596,"url":"http://farm1.staticflickr.com/36/83307596_42cd34f36d.jpg","path":"349/57b/34957b21ee542d19578dacb4fe25432d.jpg","date":"2006-01-03","year":2006,"month":1,"lon":99.75088,"lat":17.010498,"tags":"ruins,sukhothai,thailand,wat","S2CellId":"85f4000000000000","result":7498,"accuracy":0.09265609,"title":"SANY0105"}
{"id":2773403111,"url":"http://farm4.staticflickr.com/3118/2773403111_32d8661c57.jpg","path":"e3c/991/e3c991db93ce956f83989d38ebfd231.jpg","date":"2008-08-01","year":2008,"month":8,"lon":101.711426,"lat":17.43451,"tags":"kali,mahavidja,puja,retreat,thailand,yoga","S2CellId":"3bc4000000000000","result":2563,"accuracy":0.19838394,"title":"20080801_01_Preparation"}
{"id":2410560457,"url":"http://farm4.staticflickr.com/3015/2410560457_3c7126e95e.jpg","path":"c28/ba8/c28ba8cff8f7b441794bc9384cf08e17.jpg","date":"2008-02-22","year":2008,"month":2,"lon":100.01953,"lat":15.760536,"tags":"home,nakhon+sawan","S2CellId":"6018540000000000","result":6449,"accuracy":0.056570783,"title":"DSC00823"}
{"id":578891659,"url":"http://farm2.staticflickr.com/1083/578891659_36d9bf722b.jpg","path":"cab/6e0/cab6e0ef56735cfaa28fde345a189833.jpg","date":"2007-02-10","year":2007,"month":2,"lon":99.74573,"lat":17.011484,"tags":"architectural+detail,architecture,art%2C+relief,historic+sites,religious+sites,si+satchanalai,thailand,travel","S2CellId":"877c000000000000","result":7905,"accuracy":0.0109508475,"title":"Wat+Khao+Suwanakiri"}
{"id":5944417470,"url":"http://farm7.staticflickr.com/6010/5944417470_b71447b736.jpg","path":"db2/de8/db2de8879d1e3b39c19d1a124abd9.jpg","date":"2011-07-06","year":2011,"month":7,"lon":99.88426,"lat":17.032166,"tags":"b105,sukhothai,tailandia","S2CellId":"30c4000000000000","result":1620,"accuracy":0.07076602,"title":"P1050735"}
{"id":292878863,"url":"http://farm1.staticflickr.com/115/292878863_32acb6cbbd.jpg","path":"ca1/3b2/ca13b2b17f99654f161bf159e68ce11.jpg","date":"2006-11-07","year":2006,"month":11,"lon":99.32739,"lat":16.425547,"tags":"kampheng+phet,thailand","S2CellId":"3ba4000000000000","result":2539,"accuracy":0.043635856,"title":"From+Mr.+Charin%27s+Country+House"}
{"id":578902547,"url":"http://farm2.staticflickr.com/1107/578902547_e805fd5f38.jpg","path":"76d/714/76d714178dfbff19b944c363f84831.jpg","date":"2007-02-11","year":2007,"month":2,"lon":99.74573,"lat":17.011484,"tags":"architecture,historic+sites,religious+sites,sukhothai,thailand,travel","S2CellId":"3110150000000000","result":1708,"accuracy":0.11249829,"title":"Walls","description":"Wat+Si+Sawai"}
{"id":292908818,"url":"http://farm1.staticflickr.com/108/292908818_e0b8696621.jpg","path":"7a3/947/7a394761a2b39056876d75298a60e696.jpg","date":"2006-11-07","year":2006,"month":11,"lon":99.32739,"lat":16.425547,"tags":"kampheng+phet,thailand","S2CellId":"3b0c000000000000","result":2533,"accuracy":0.0650705,"title":"The+View+from+Above"}
{"id":8204204695,"url":"http://farm9.staticflickr.com/8344/8204204695_afbc21142e.jpg","path":"dcf/f8b/dcff8b9e642fc87073358aaf4e82796.jpg","date":"2012-10-09","year":2012,"month":10,"lon":100.26126,"lat":16.816217,"tags":"phitsanulok,thailand","S2CellId":"00a6990000000000","result":54,"accuracy":0.027389271,"title":"Phitsanulok%2C+Thailand%3A+Aerobics+on+the+Streets"}
{"id":1350534107,"url":"http://farm2.staticflickr.com/1136/1350534107_c84053581f.jpg","path":"cfe/f35/cfef359f351dc98c8ca5a2e9b277571.jpg","date":"2006-09-09","year":2006,"month":9,"lon":100.26741,"lat":16.826067,"tags":"%E0%B8%9E%E0%B8%B4%E0%B8%A9%E0%B8%93%E0%B8%B8%E0%B9%82%E0%B8%A5%E0%B8%81,%E0%B8%A7%E0%B8%B1%E0%B8%94%E0%B8%9E%E0%B8%A3%E0%B8%B0%E0%B8%A8%E0%B8%A3%E0%B8%B5%E0%B8%A3%E0%B8%B1%E0%B8%95%E0%B8%99%E0%B8%A1%E0%B8%AB%E0%B8%B2%E0%B8%98%E0%B8%B2%E0%B8%95%E0%B8%B8,phitsanuloke","S2CellId":"30e2990400000000","result":1658,"accuracy":0.17247277,"title":"CIMG3678"}
{"id":377683697,"url":"http://farm1.staticflickr.com/136/377683697_1d9c7baca6.jpg","path":"71f/025/71f0254c7a72fe8548bcdfa7f966ac84.jpg","date":"2005-12-27","year":2005,"month":12,"lon":99.70178,"lat":17.018295,"tags":"ancient,flower,lake,lillies,lilly,lilly+pad,old,pad,pond,red,religion,religious,temple,thai,thailand,water","S2CellId":"311016c000000000","result":1710,"accuracy":0.089232154,"title":"Lillies","description":"Lillies+at+ruinous+temple%2C+Sukothai%2C+Thailand"}
{"id":196812046,"url":"http://farm1.staticflickr.com/69/196812046_0134ccf95a.jpg","path":"4b1/a64/4b1a64fc73faa99b761d8ac3891e778.jpg","date":"2006-07-09","year":2006,"month":7,"lon":101.27197,"lat":15.749962,"tags":"chiang+rai,hotel,sign,thailand","S2CellId":"30e2993000000000","result":1662,"accuracy":0.06332182,"title":"Wang+Come+Hotel","description":"Possibly+one+of+the+worst+possible+names+for+a+hotel."}
{"id":6322640432,"url":"http://farm7.staticflickr.com/6221/6322640432_e5c3a5a0d5.jpg","path":"215/890/215890992cde9bcb2d7f4a70eca44d23.jpg","date":"2011-10-29","year":2011,"month":10,"lon":99.527336,"lat":16.4725,"tags":"2011,charity,spiceroads,thailand,ttoh,worldvision","S2CellId":"0d30c00000000000","result":303,"accuracy":0.122529775,"title":"P1010636","description":"TTOH+2011"}
{"id":2667975854,"url":"http://farm4.staticflickr.com/3038/2667975854_ebe2fd5426.jpg","path":"99d/151/99d15147c2ed5f512d67ed6154ffb82f.jpg","date":"2008-07-14","year":2008,"month":7,"lon":99.754654,"lat":17.014849,"tags":"archaeological,archaeology,chedi,city,heritage,hin,historic,northern,park,ruins,saphan,site,stupa,sukhothai,temple,thailand,unesco,urban,wat,wihaan,world","S2CellId":"2cb0000000000000","result":1530,"accuracy":0.1618282,"title":"IMG_0585","description":"from+Wat+Saphan+Hin%2C+Sukhothai+Historical+Park"}
{"id":7766618872,"url":"http://farm9.staticflickr.com/8436/7766618872_e700b36697.jpg","path":"ffc/93f/ffc93fda10e158f288107168438485.jpg","date":"2012-03-11","year":2012,"month":3,"lon":100.046745,"lat":17.98031,"tags":"railway,thailand,train","S2CellId":"0d4e300000000000","result":411,"accuracy":0.0074795624,"title":"Night+train"}
