{"id":2094059204,"url":"http://farm3.staticflickr.com/2251/2094059204_bc55662684.jpg","path":"a22/275/a222752e0ce8080fe64c4d310aa44b5.jpg","date":"2007-10-20","year":2007,"month":10,"lon":85.65216,"lat":27.79778,"tags":"asia,brian%27s+photos,nepal","S2CellId":"3994000000000000","result":2483,"accuracy":0.054489575,"title":"CIMG3095"}
{"id":12367648285,"url":"http://farm8.staticflickr.com/7398/12367648285_964b8c102a.jpg","path":"372/868/3728681e43eb7be3ab3d5e7391308ad2.jpg","date":"2010-02-19","year":2010,"month":2,"lon":85.29862,"lat":27.692427,"tags":"budddhism,canon5d,central+region,kathmandu,nepal,zeiss","S2CellId":"858f000000000000","result":7441,"accuracy":0.025270673,"title":"20100223_nepNik-59"}
{"id":305849428,"url":"http://farm1.staticflickr.com/108/305849428_12de7eb16c.jpg","path":"cda/ca6/cdaca60917bae5d61f873718dab7da.jpg","date":"2005-08-30","year":2005,"month":8,"lon":85.315186,"lat":27.706783,"tags":"asia,hinduism,kathmandu,nepal,pashupatinath,pilgrimage,shiva,travel","S2CellId":"4749000000000000","result":3293,"accuracy":0.032702047}
{"id":2496378441,"url":"http://farm3.staticflickr.com/2324/2496378441_9e6c86c958.jpg","path":"2e9/823/2e9823a68d10683833e310f82f461d3e.jpg","date":"2007-10-19","year":2007,"month":10,"lon":85.36398,"lat":27.722218,"tags":"5988,american,buddhist,center,compassion,dagchen,dagchen+rinpoche,dagchen+sakya,family,famous,gongma+dagchen+rinpoche,group+photo,guru,hh+jigdal+dagchen+sakya,his,his+holiness+jigdal+dagchen+sakya,holiness,jd+sakya,jigdal,jigdal+dagchen+sakya,lam+dre,lama,leader,mahayana,monks,national+geographic,nepal,nuns,on+the+steps+of+tharlam+monastery+of+tibetan+buddhism+in+boudha,one+photo-weekly+contest,outside+of+kathmandu,peace,person,personage,sakya,teacher,teaching,tibetan,tibetan+buddhism,tibetan+buddhist,tibetan+buddhist+entourage%3A+the+sakya+family+middle+row","S2CellId":"398c000000000000","result":2482,"accuracy":0.14445162,"title":"Tibetan+Buddhist+Entourage%3A+The+Sakya+Family+middle+row%2C+His+Holiness+Jigdal+Dagchen+Sakya%2C+center%2C+monks%2C+nuns%2C+on+the+steps+of+Tharlam+Monastery+of+Tibetan+Buddhism+in+Boudha%2C+outside+of+Kathmandu%2C+Nepal","description":"Celebrating+Lamdre%2C+His+Holiness+Jigdal+Dagchen+Sakya+and+some+family+members+with+lamas%2C+monks%2C+nuns%2C+students%2C+on+the+steps+of+Tharlam+Monastery+in+Boudha%2C+outside+of+Kathmandu%2C+Nepal.+Note+-+only+the+Sakya+Family+members+who+were+in+Boudha+at+the+time+are+photographed+here+with+many+students%2C+lamas%2C+monks%2C+nuns%2C+and+laity."}
{"id":8480903493,"url":"http://farm9.staticflickr.com/8528/8480903493_962fdc9512.jpg","path":"57c/6e1/57c6e1e6b7d3cf2d6753f672b8e7fcf6.jpg","date":"2012-10-15","year":2012,"month":10,"lon":85.324936,"lat":27.713512,"tags":"15-oct-2012,cow,kathmandu,madhyamanchal,nepal,npl,sacred+animal","S2CellId":"1030000000000000","result":645,"accuracy":0.07392216,"title":"Sacred+roadblock","description":"Sacred+roadblock%2C+Kathmandu"}
{"id":4929971590,"url":"http://farm5.staticflickr.com/4118/4929971590_5226f87939.jpg","path":"40f/51e/40f51e8fecff8c763ad767b762755dc9.jpg","date":"2010-08-26","year":2010,"month":8,"lon":85.74801,"lat":27.89608,"tags":"beetle,coleoptera,coleoptera-us,falcifer,insect,kaefer,nepal,onthophagus,onthophagus+falcifer,scarabaeidae","S2CellId":"4873a10000000000","result":5088,"accuracy":0.115530975,"title":"Onthophagus+%28s.str.%29+falcifer+Harold%2C+1880+male","description":"Familie%3A+Scarabaeidae%0AGroesse%3A+8%2C7+mm%0AFundort%3A+Nepal%2C+Bagmati%2C+Sindhupalchok%2C+Dubhachauer-Sarmatang%2C+1600-2500+m%0Aleg.+M.Brancucci%2C+1989%3B+det.+J.Scheuern%2C+1990%0APhoto%3A+U.Schmidt%2C+2010"}
{"id":2333981346,"url":"http://farm3.staticflickr.com/2246/2333981346_4762674fc5.jpg","path":"f11/07f/f1107ff5dc1b7b27f83102c1596e210.jpg","date":"2007-11-15","year":2007,"month":11,"lon":85.522385,"lat":27.581633,"tags":"monastery,nepal,rinpoche,thrangu,tibetan","S2CellId":"3724000000000000","result":2419,"accuracy":0.08181605,"title":"IMG_2151"}
{"id":9116950420,"url":"http://farm4.staticflickr.com/3753/9116950420_d0cfb774e1.jpg","path":"59f/a59/59fa59695b8cc02e9c52147b9657bbd9.jpg","date":"2013-06-23","year":2013,"month":6,"lon":85.31024,"lat":27.715527,"tags":"brannan,instagram+app,iphoneography,square,square+format","S2CellId":"2e7a500000000000","result":1582,"accuracy":0.020566365,"title":"Nepali+street+life.."}
{"id":8010099509,"url":"http://farm9.staticflickr.com/8308/8010099509_434b64f6d7.jpg","path":"6ab/a86/6aba86954eb55ffa2bf1d861384c4a69.jpg","date":"2012-09-21","year":2012,"month":9,"lon":85.30834,"lat":27.705404,"tags":"kathmandu,mkihr,nepal","S2CellId":"39eb190000000000","result":2494,"accuracy":0.6685319,"title":"DSC00581","description":"DSC00581"}
{"id":4660877008,"url":"http://farm5.staticflickr.com/4001/4660877008_688d196ccc.jpg","path":"67f/e4e/67fe4e4d9781fbdeb93e9e60e45c2ba.jpg","date":"2010-04-19","year":2010,"month":4,"lon":85.31401,"lat":27.707733,"tags":"2010,500d,april,canon,nepal,rebel+t1i,travelogue","S2CellId":"39eb190000000000","result":2494,"accuracy":0.09992502,"title":"street+3"}
{"id":458537389,"url":"http://farm1.staticflickr.com/217/458537389_e44e7483a7.jpg","path":"ef2/838/ef283876d130dcddc3bf4779b70f75a.jpg","date":"2006-09-06","year":2006,"month":9,"lon":85.32567,"lat":27.673,"tags":"nepal,patan,viajeindiaynepal","S2CellId":"47b3100000000000","result":4017,"accuracy":0.07275132,"title":"A+golpe+de+soplete","description":"Map+it%3A+%3Ca+href%3D%22http%3A%2F%2Fwww.robogeo.com%2FFlickr2Map%2F%22%3EGoogle+Earth%3C%2Fa%3E+%7C+%3Ca+href%3D%22http%3A%2F%2Fwww.robogeo.com%2FFlickr2Map%2F%3Ftype%3Dmap%22+target%3D%22_blank%22%3EStreet%3C%2Fa%3E+%7C+%3Ca+href%3D%22http%3A%2F%2Fwww.robogeo.com%2FFlickr2Map%2F%3Ftype%3Dmap%26view%3Dsatellite%22+target%3D%22_blank%22%3ESatellite%3C%2Fa%3E+%7C+%3Ca+href%3D%22http%3A%2F%2Fwww.robogeo.com%2FFlickr2Map%2F%3Ftype%3Dmap%26view%3Dhybrid%22+target%3D%22_blank%22%3EHybrid%3C%2Fa%3E+%7C+%3Ca+href%3D%22http%3A%2F%2Fwww.robogeo.com%2FFlickr2Map%2F%3Ftype%3Dnautical%22+target%3D%22_blank%22%3ENautical%3C%2Fa%3E"}
{"id":8083390140,"url":"http://farm9.staticflickr.com/8472/8083390140_c0eff0c3f3.jpg","path":"fcd/b8c/fcdb8c8d826f292c6f242f43e9f4b86.jpg","date":"2012-10-10","year":2012,"month":10,"lon":85.358536,"lat":27.70343,"tags":"airport,kathmandu,tribhuvan","S2CellId":"47d87c4000000000","result":4429,"accuracy":0.15252659,"title":"Tribhuvan+Airport%2C+Kathmandu+%28NP%29%2C+2012"}
{"id":127963386,"url":"http://farm1.staticflickr.com/53/127963386_087d6b60ea.jpg","path":"c11/945/c1194572e535510ac421fa0d898b26.jpg","date":"2006-04-13","year":2006,"month":4,"lon":85.311584,"lat":27.70724,"tags":"asia,child,children,clouds,everest,eyes,girl,himalaya,kathmandu,landscape,mountain,mountains,prayer,smile,sunrise,sunset,temple,travel,woman","S2CellId":"132f61b700000000","result":1108,"accuracy":0.112616286,"title":"spawning+wishes"}
{"id":3433655618,"url":"http://farm4.staticflickr.com/3372/3433655618_4a3e862f01.jpg","path":"90a/df2/90adf2a3c6d9a3fa80ae5f7945681f5.jpg","date":"2009-04-09","year":2009,"month":4,"lon":85.25391,"lat":27.790491,"tags":"%E4%B8%96%E7%95%8C%E5%AE%97%E6%95%99%E5%8D%9A%E7%89%A9%E9%A4%A8,%E4%BD%9B%E6%95%99,%E5%8A%A0%E5%BE%B7%E6%BB%BF%E9%83%BD,%E5%8B%9D%E6%A8%82%E9%87%91%E5%89%9B,%E5%8F%B0%E7%81%A3,%E5%99%B6%E9%99%80%E6%B3%95%E6%95%99,%E5%9D%90%E5%BA%8A%E5%A4%A7%E5%85%B8,%E5%AF%86%E5%8B%92%E6%97%A5%E5%B7%B4,%E5%AF%8C%E8%B2%B4%E9%87%91%E4%BD%9B,%E5%B0%BC%E6%B3%8A%E7%88%BE,%E5%B0%BC%E6%B3%8A%E7%88%BE%E9%96%89%E9%97%9C%E4%B8%AD%E5%BF%83,%E5%BF%83%E9%81%93,%E5%BF%83%E9%81%93%E5%B8%AB%E7%88%B6,%E5%BF%83%E9%81%93%E6%B3%95%E5%B8%AB,%E5%BF%83%E9%81%93%E6%B3%95%E5%B8%ABblog,%E5%BF%83%E9%81%93%E9%83%A8%E8%90%BD%E6%A0%BC,%E6%84%9B%E8%88%87%E5%92%8C%E5%B9%B3%E5%9C%B0%E7%90%83%E5%AE%B6,%E6%AF%97%E7%9B%A7%E4%BB%81%E6%B3%A2%E5%88%87,%E6%B0%B8%E6%BB%87%E4%BB%81%E6%B3%A2%E5%88%87,%E7%81%8C%E9%A0%82,%E7%84%A1%E5%B8%B8,%E7%A6%8F%E9%9A%86,%E7%A6%AA%E4%BF%AE,%E7%AB%B9%E5%B7%B4%E6%B3%95%E7%8E%8B,%E8%B2%9D%E7%91%AA%E5%99%B6%E6%B3%A2%E7%AB%B9%E5%B7%B4%E6%B3%95%E7%8E%8B,%E9%87%8B%E5%BF%83%E9%81%93,%E9%87%91%E5%89%9B%E4%BA%A5%E6%AF%8D,%E9%9D%88%E9%B7%B2%E5%B1%B1%E7%84%A1%E7%94%9F%E9%81%93%E5%A0%B4,093,buddha.asia,gflp,hsintao","S2CellId":"39eb190000000000","result":2494,"accuracy":0.07502099,"title":"NEPAL","description":"%E9%87%91%E5%89%9B%E4%BA%A5%E6%AF%8D"}
{"id":8085544309,"url":"http://farm9.staticflickr.com/8465/8085544309_1807b1e122.jpg","path":"cd7/de7/cd7de756dce1dbcdbf5431efb8283c61.jpg","date":"2012-10-09","year":2012,"month":10,"lon":85.290665,"lat":27.71488,"tags":"1009,2012,201210,20121009,october","S2CellId":"3770000000000000","result":2436,"accuracy":0.13024734,"title":"IMG_3815"}
{"id":8874451330,"url":"http://farm3.staticflickr.com/2875/8874451330_cace2a23fd.jpg","path":"6c5/59f/6c559f674b8d14697796b98be761f2fd.jpg","date":"2013-01-24","year":2013,"month":1,"lon":85.28895,"lat":27.71684,"tags":"for+portfolio,kathmandu,monkey,nepal,temple","S2CellId":"2dd23d0000000000","result":1544,"accuracy":0.080606304,"title":"Monkey+Temple"}
{"id":6858917762,"url":"http://farm8.staticflickr.com/7108/6858917762_6260098950.jpg","path":"a5b/328/a5b328d4869168b7ea45ba2ca52b35f1.jpg","date":"2012-03-11","year":2012,"month":3,"lon":85.4295,"lat":27.671333,"tags":"bhaktapur,nepal","S2CellId":"39eb190000000000","result":2494,"accuracy":0.47419778,"title":"Nepal","description":"nepal"}
{"id":9400650252,"url":"http://farm8.staticflickr.com/7335/9400650252_cbef6dd477.jpg","path":"4e7/515/4e7515972f618a947a0f785db8e3365.jpg","date":"2013-07-30","year":2013,"month":7,"lon":85.36201,"lat":27.721933,"tags":"2013,boudhanath,july,nepal","S2CellId":"39eb190000000000","result":2494,"accuracy":0.43147308,"title":"Window+of+Old+age%21","description":"One+of+the+most+tragic+things+I+know+about+human+nature+is+that+all+of+us+tend+to+put+off+living.+We+are+all+dreaming+of+some+magical+rose+garden+over+the+horizon+instead+of+enjoying+the+roses+that+are+blooming+outside+our+windows+today.%0A%0A-+Dale+Carnegie"}
{"id":1748853203,"url":"http://farm3.staticflickr.com/2179/1748853203_1da9472f77.jpg","path":"8f1/9bc/8f19bc72dfd53f11946135c72df1949b.jpg","date":"2007-09-11","year":2007,"month":9,"lon":85.3006,"lat":27.720003,"tags":"asia,curiosas,kathmandu,nepal,sociedad","S2CellId":"2dd23d0000000000","result":1544,"accuracy":0.13644943,"title":"La+siesta","description":"Quien+dijo+que+era+espa%C3%B1ola%3F"}
{"id":374445062,"url":"http://farm1.staticflickr.com/132/374445062_ef71617361.jpg","path":"866/831/866831d6e97a13228f9e8e8c5dce95b.jpg","date":"2007-01-13","year":2007,"month":1,"lon":85.286865,"lat":27.720003,"tags":"2007,nepal,patan","S2CellId":"39eb190000000000","result":2494,"accuracy":0.87896556,"title":"IMG_2258"}
{"id":2993605687,"url":"http://farm4.staticflickr.com/3183/2993605687_fbf977886a.jpg","path":"ffa/95d/ffa95d5afdac43f7e83b31fb676afb78.jpg","date":"2008-10-01","year":2008,"month":10,"lon":85.428185,"lat":27.67206,"tags":"bhaktapur,ceramics,city,historic,kathmandu,nepal","S2CellId":"39eb190000000000","result":2494,"accuracy":0.53539795,"title":"Bhaktapur-6","description":"People+make+ceramics+in+Bhaktapur%2C+Kathmandu%2C+Nepal.++They+work+out+in+the+plaza+and+lay+all+the+ceramics+out+to+dry+before+firing+them."}
{"id":3012972108,"url":"http://farm4.staticflickr.com/3037/3012972108_52b632cd1b.jpg","path":"af8/2ed/af82ed7e5914e526e7128aeea4547ff.jpg","date":"2008-11-03","year":2008,"month":11,"lon":85.31742,"lat":27.6833,"tags":"n%C3%A9pal,patan","S2CellId":"39eb190000000000","result":2494,"accuracy":0.6016406,"title":"P1030281"}
{"id":3098179305,"url":"http://farm4.staticflickr.com/3246/3098179305_e6077120c6.jpg","path":"79a/2d9/79a2d97c3e3de4285b1831da9a6cb2.jpg","date":"2008-11-21","year":2008,"month":11,"lon":85.295105,"lat":27.72122,"tags":"beer,kathmandu,mt.+everest,nepal,new+orleans+cafe","S2CellId":"47c3c38400000000","result":4200,"accuracy":0.0055080946,"title":"Everest","description":"It+all+started+with+a+good+local+beer%21"}
{"id":7061154741,"url":"http://farm8.staticflickr.com/7208/7061154741_5d1d70e0e7.jpg","path":"df6/a64/df6a643280effc37adf4111f77f12a2.jpg","date":"2012-04-06","year":2012,"month":4,"lon":85.26368,"lat":27.60548,"tags":"d5100,food,nepal,travel,vacations","S2CellId":"30d4000000000000","result":1622,"accuracy":0.058224503,"title":"DSC_0088+-+2012-04-06+at+09-41-36"}
{"id":3994990500,"url":"http://farm4.staticflickr.com/3512/3994990500_40c24e1809.jpg","path":"554/767/5547679c3d7470684e4d47b499482a35.jpg","date":"2009-10-01","year":2009,"month":10,"lon":85.96802,"lat":27.996826,"tags":"border,china,everest+base+camp,friendship+bridge,himalaya,nepal,street,street+photography,tibet,travel,travel+photography","S2CellId":"3468840000000000","result":2159,"accuracy":0.07330714,"title":"Friendship+Bridge"}
{"id":4515827766,"url":"http://farm5.staticflickr.com/4046/4515827766_f217bd3dd8.jpg","path":"458/837/458837d8d4bcae646c996b6a8fd616b4.jpg","date":"2010-03-08","year":2010,"month":3,"lon":85.3418,"lat":27.705872,"tags":"kathmandu,nepal,olympus+e620,simonsimages","S2CellId":"3770000000000000","result":2436,"accuracy":0.051021297,"title":"P3080139a","description":"Pigeons+and+sacred+cows%2C+Durbar+Square+Kathmandu"}
{"id":4587138238,"url":"http://farm5.staticflickr.com/4062/4587138238_f9745a4ebc.jpg","path":"c85/7e1/c857e1cf865c28b7d1be817b01b3bbd.jpg","date":"2009-09-11","year":2009,"month":9,"lon":85.4266,"lat":27.678663,"tags":"asia,bhaktapur,kathmandu,nepal,valley","S2CellId":"39eb1b0000000000","result":2495,"accuracy":0.66801846,"title":"Bhaktapur%2C+Nepal"}
{"id":6538642331,"url":"http://farm8.staticflickr.com/7172/6538642331_02174eb8cf.jpg","path":"f53/2f4/f532f44430364df8f6e6812fc4db5dd2.jpg","date":"2011-10-29","year":2011,"month":10,"lon":85.432434,"lat":27.667717,"tags":"2011,bhaktapur,d700,g%C3%B6ran+h%C3%B6glund,himalaya,kartl%C3%A4sarn,kartlasarn,nepal,nikon,v%C3%A4rldens+resor","S2CellId":"398c000000000000","result":2482,"accuracy":0.15833886,"title":"Bhaktapur+in+Nepal"}
{"id":3432860201,"url":"http://farm4.staticflickr.com/3641/3432860201_c275246413.jpg","path":"ac2/647/ac2647c4108e4d3b1425249b6b56f9e7.jpg","date":"2009-04-09","year":2009,"month":4,"lon":85.25391,"lat":27.790491,"tags":"%E4%B8%96%E7%95%8C%E5%AE%97%E6%95%99%E5%8D%9A%E7%89%A9%E9%A4%A8,%E4%BD%9B%E6%95%99,%E5%8A%A0%E5%BE%B7%E6%BB%BF%E9%83%BD,%E5%8B%9D%E6%A8%82%E9%87%91%E5%89%9B,%E5%8F%B0%E7%81%A3,%E5%99%B6%E9%99%80%E6%B3%95%E6%95%99,%E5%9D%90%E5%BA%8A%E5%A4%A7%E5%85%B8,%E5%AF%86%E5%8B%92%E6%97%A5%E5%B7%B4,%E5%AF%8C%E8%B2%B4%E9%87%91%E4%BD%9B,%E5%B0%BC%E6%B3%8A%E7%88%BE,%E5%B0%BC%E6%B3%8A%E7%88%BE%E9%96%89%E9%97%9C%E4%B8%AD%E5%BF%83,%E5%BF%83%E9%81%93,%E5%BF%83%E9%81%93%E5%B8%AB%E7%88%B6,%E5%BF%83%E9%81%93%E6%B3%95%E5%B8%AB,%E5%BF%83%E9%81%93%E6%B3%95%E5%B8%ABblog,%E5%BF%83%E9%81%93%E9%83%A8%E8%90%BD%E6%A0%BC,%E6%84%9B%E8%88%87%E5%92%8C%E5%B9%B3%E5%9C%B0%E7%90%83%E5%AE%B6,%E6%AF%97%E7%9B%A7%E4%BB%81%E6%B3%A2%E5%88%87,%E6%B0%B8%E6%BB%87%E4%BB%81%E6%B3%A2%E5%88%87,%E7%81%8C%E9%A0%82,%E7%84%A1%E5%B8%B8,%E7%A6%8F%E9%9A%86,%E7%A6%AA%E4%BF%AE,%E7%AB%B9%E5%B7%B4%E6%B3%95%E7%8E%8B,%E8%B2%9D%E7%91%AA%E5%99%B6%E6%B3%A2%E7%AB%B9%E5%B7%B4%E6%B3%95%E7%8E%8B,%E9%87%8B%E5%BF%83%E9%81%93,%E9%87%91%E5%89%9B%E4%BA%A5%E6%AF%8D,%E9%9D%88%E9%B7%B2%E5%B1%B1%E7%84%A1%E7%94%9F%E9%81%93%E5%A0%B4,093,buddha.asia,gflp,hsintao","S2CellId":"486f100000000000","result":4978,"accuracy":0.009568919,"title":"NEPAL"}
{"id":2094099506,"url":"http://farm3.staticflickr.com/2281/2094099506_0ee7db20b7.jpg","path":"b1b/89b/b1b89b320372c3d1d72ad21c7557929.jpg","date":"2007-10-20","year":2007,"month":10,"lon":85.65216,"lat":27.79778,"tags":"asia,brian%27s+photos,nepal","S2CellId":"36cc000000000000","result":2408,"accuracy":0.15960255,"title":"CIMG3205"}
{"id":5574403034,"url":"http://farm6.staticflickr.com/5135/5574403034_0621e1dc0a.jpg","path":"7db/0ca/7db0ca83b74274dc9977c42395cf64.jpg","date":"2011-03-26","year":2011,"month":3,"lon":85.34944,"lat":27.70984,"tags":"2011,asia,kathmandu,nepal,panorama,pashupatinath+temple","S2CellId":"39eb190000000000","result":2494,"accuracy":0.5452125,"title":"Pashupathinath_Panorama1","description":"A+panorama+shot+that+takes+in+the+bulk+of+the+temple+complex.++Pashupatinath%2C+the+oldest+Hindu+temple+in+Nepal%2C+is+on+the+UNESCO+World+Heritage+list.%0A%0AA+nice+panorama+shot+can+also+be+found+here%3A+%3Ca+href%3D%22http%3A%2F%2Fen.wikipedia.org%2Fwiki%2FFile%3APashupati_dec_20_2009.jpg%22+rel%3D%22nofollow%22%3Een.wikipedia.org%2Fwiki%2FFile%3APashupati_dec_20_2009.jpg%3C%2Fa%3E."}
{"id":4128596749,"url":"http://farm3.staticflickr.com/2595/4128596749_38368ba7c3.jpg","path":"5e4/3da/5e43da8dff75cb40e25dc8556254397.jpg","date":"2009-10-12","year":2009,"month":10,"lon":85.582794,"lat":27.571054,"tags":"2009,nepal,rundreise","S2CellId":"3770000000000000","result":2436,"accuracy":0.40515277,"title":"M%C3%B6nch+bei+Gebetsm%C3%BChlen"}
{"id":5241597466,"url":"http://farm6.staticflickr.com/5243/5241597466_ccb1f827c9.jpg","path":"2a5/9ea/2a59eacc27993fc9a64d852e22e6011.jpg","date":"2010-11-01","year":2010,"month":11,"lon":85.29065,"lat":27.714794,"tags":"monkey,nepal","S2CellId":"398c000000000000","result":2482,"accuracy":0.02059657,"title":"Pensive+monkey"}
{"id":8010717638,"url":"http://farm9.staticflickr.com/8298/8010717638_821d112991.jpg","path":"acd/a9c/acda9c9e2493ffaf5f1f352e24261ad.jpg","date":"2012-09-22","year":2012,"month":9,"lon":85.397354,"lat":27.727943,"tags":"central,kathmandu,mkihr,nepal","S2CellId":"88fd000000000000","result":8754,"accuracy":0.25692585,"title":"DSC00630","description":"DSC00630"}
{"id":2076977701,"url":"http://farm3.staticflickr.com/2135/2076977701_85b6d77111.jpg","path":"b8e/435/b8e4359478a39f9da2475be97771ccd.jpg","date":"2007-10-07","year":2007,"month":10,"lon":85.36398,"lat":27.722218,"tags":"3811,blessing,bodha,boudha,buddhism,buddhist,buddhists,empowerment,enlightenment,initiation,kathmandu,lam+dre,micheala,nepal,path,practice,religion,religious,result,sakya,spiritual,tibetan,tibetan+buddhist,tradition,traditional","S2CellId":"8589400000000000","result":7437,"accuracy":0.20191203,"title":"Micheala%2C+Bodha%2C+Kathmandu%2C+Nepal"}
{"id":2873027462,"url":"http://farm4.staticflickr.com/3004/2873027462_6ee8014d83.jpg","path":"cd5/180/cd518051cb63bd17b255e78bd5969c3.jpg","date":"2004-12-21","year":2004,"month":12,"lon":85.314156,"lat":27.722359,"tags":"asia,capital,espiritual,himalayas,hinduismo,kathmandu,nepal,templo","S2CellId":"39eb190000000000","result":2494,"accuracy":0.8273908,"title":"Kathmandu%2C+Nepal","description":"2004"}
{"id":551892293,"url":"http://farm2.staticflickr.com/1143/551892293_d450e992cc.jpg","path":"444/8a0/4448a00bff3fdccc229caeeb19a6f50.jpg","date":"2006-10-01","year":2006,"month":10,"lon":85.314674,"lat":27.707087,"tags":"changu_narayan,kathmandu,nepal","S2CellId":"39eb190000000000","result":2494,"accuracy":0.3794689,"title":"Changu+Narayan"}
{"id":374442722,"url":"http://farm1.staticflickr.com/178/374442722_d4e5f414e7.jpg","path":"c74/6f1/c746f1e0bbd2a5cc47e0f1eb166d7ec0.jpg","date":"2007-01-13","year":2007,"month":1,"lon":85.286865,"lat":27.720003,"tags":"2007,nepal,patan","S2CellId":"39eb190000000000","result":2494,"accuracy":0.44789535,"title":"IMG_2248"}
{"id":5535593468,"url":"http://farm6.staticflickr.com/5257/5535593468_64fafa493b.jpg","path":"576/7b7/5767b7ba41707278a6cd1fef6bcc294.jpg","date":"2010-07-27","year":2010,"month":7,"lon":85.290504,"lat":27.714924,"tags":"kathmandu,nepal,saylluiiis,swayambunath","S2CellId":"39eb190000000000","result":2494,"accuracy":0.0627331,"title":"Swayambhunath+Kathmandu+View"}
{"id":8625916542,"url":"http://farm9.staticflickr.com/8524/8625916542_480c66c387.jpg","path":"361/6c9/3616c904749d229846fbb2f7612c19c.jpg","date":"2013-02-26","year":2013,"month":2,"lon":85.35267,"lat":27.719334,"tags":"asia,boudhanath,earth+asia,girl,iphone,kathmandu,nepal,street+photography,woman","S2CellId":"38d0000000000000","result":2441,"accuracy":0.15678783,"title":"IMG_2563"}
{"id":8083462754,"url":"http://farm9.staticflickr.com/8329/8083462754_c04f66e6ac.jpg","path":"fb4/77c/fb477ce85433fa42b5fbdbedd7fe5916.jpg","date":"2012-10-11","year":2012,"month":10,"lon":85.307014,"lat":27.704418,"tags":"kathmandu,nepal","S2CellId":"39eb190000000000","result":2494,"accuracy":0.3585483,"title":"Kathmandu+%28NP%29%2C+2012"}
{"id":124674399,"url":"http://farm1.staticflickr.com/1/124674399_f24d219266.jpg","path":"dd1/ca0/dd1ca0733c88c6b9d625447ada90cdf6.jpg","date":"2006-04-07","year":2006,"month":4,"lon":85.311584,"lat":27.70724,"tags":"asia,child,children,clouds,everest,eyes,girl,himalaya,kathmandu,landscape,mountain,mountains,prayer,smile,sunrise,sunset,temple,travel,woman","S2CellId":"40b5000000000000","result":2687,"accuracy":0.011540521,"title":"locked+out"}
{"id":2705335063,"url":"http://farm4.staticflickr.com/3130/2705335063_da665a3e5e.jpg","path":"a3c/396/a3c396622ebbf59d824f5f818ad367b.jpg","date":"2008-07-18","year":2008,"month":7,"lon":85.42694,"lat":27.678663,"tags":"bakthapur,bhaktapur,nepal","S2CellId":"39eb190000000000","result":2494,"accuracy":0.103574425,"title":"Bakthapur+Kid+7"}
{"id":1813231712,"url":"http://farm3.staticflickr.com/2222/1813231712_558f46ef57.jpg","path":"446/629/446629c8a5fdf8bc2b517d9fdd9bd17f.jpg","date":"2007-10-26","year":2007,"month":10,"lon":85.3175,"lat":27.702,"tags":"2007,asia,food+%26+drinks,himalaya,kathmandu,magical-world,market,nepal,original,spice,travel,world+trip","S2CellId":"390cfc0000000000","result":2454,"accuracy":0.023854936,"title":"Spices+on+a+market+in+Kathmandu"}
{"id":3182028105,"url":"http://farm4.staticflickr.com/3512/3182028105_f89fe61161.jpg","path":"72a/4fa/72a4fa20a9ce85ab26463c61c96d897e.jpg","date":"2009-01-09","year":2009,"month":1,"lon":85.3109,"lat":27.713015,"tags":"market,nepal+khatmandu+khumbu+everest+imja+tse+island+peak+hindu+buddha+ama+dablam","S2CellId":"398c000000000000","result":2482,"accuracy":0.074475765,"title":"Kathmandu+market","description":"Nepal+2008"}
{"id":8081579841,"url":"http://farm9.staticflickr.com/8052/8081579841_0ff2b0785a.jpg","path":"bfc/4df/bfc4dffeab9cd1b940d55652ada79fe.jpg","date":"2012-10-05","year":2012,"month":10,"lon":85.34893,"lat":27.709665,"tags":"1005,2012,201210,20121005,october","S2CellId":"39eb190000000000","result":2494,"accuracy":0.8179488,"title":"IMG_1934"}
{"id":10006118883,"url":"http://farm6.staticflickr.com/5453/10006118883_b225bd8fbb.jpg","path":"69c/f29/69cf2980aaa3fb62a0709ec0a0ed8e5b.jpg","date":"2012-03-18","year":2012,"month":3,"lon":85.90374,"lat":27.599466,"tags":"child,nepal,student","S2CellId":"39b0000000000000","result":2485,"accuracy":0.1167421,"title":"Chhyarpa_21__DSC7355"}
{"id":757907054,"url":"http://farm2.staticflickr.com/1178/757907054_6716e9549c.jpg","path":"459/11a/45911a49eeedc5355e67993aaf98a62.jpg","date":"2007-07-08","year":2007,"month":7,"lon":85.24841,"lat":27.805067,"tags":"everst,mount,nepal","S2CellId":"80c8c3c000000000","result":7231,"accuracy":0.015722316,"title":"Nepalese+trekkers","description":"Nepal+2000"}
{"id":6989935688,"url":"http://farm8.staticflickr.com/7042/6989935688_62d92fbb62.jpg","path":"1c0/a7d/1c0a7dc9b7b2857d39b972bfb33574c.jpg","date":"2012-04-27","year":2012,"month":4,"lon":85.311584,"lat":27.7081,"tags":"2012,nepal,pashupatinath","S2CellId":"0d1ecb0000000000","result":244,"accuracy":0.14399616,"title":"Pashupatinath"}
{"id":370975874,"url":"http://farm1.staticflickr.com/127/370975874_d354f06506.jpg","path":"b0d/e37/b0de374ebdb388b6a96c13472a5cb886.jpg","date":"2007-01-03","year":2007,"month":1,"lon":85.286865,"lat":27.720003,"tags":"2007,kathmandu,nepal","S2CellId":"3143000000000000","result":1758,"accuracy":0.07910129,"title":"IMG_0884"}
{"id":8654200103,"url":"http://farm9.staticflickr.com/8244/8654200103_13556a270b.jpg","path":"584/175/5841756c94f580627c5f256dbe82a14.jpg","date":"2013-04-16","year":2013,"month":4,"lon":85.31218,"lat":27.707367,"tags":"instagram+app,iphoneography,square,square+format","S2CellId":"3994000000000000","result":2483,"accuracy":0.16710763,"title":"%23annapurna+%23Moutain+%23nepal+%23sightseeing+%23breathtaking"}
{"id":5790443227,"url":"http://farm3.staticflickr.com/2701/5790443227_17e5168fb9.jpg","path":"a63/af1/a63af1ffc413c4bfc2abd7ca41e4b7.jpg","date":"2011-04-30","year":2011,"month":4,"lon":85.36237,"lat":27.722017,"tags":"boudhanath,kathmandu,nepal","S2CellId":"39b0000000000000","result":2485,"accuracy":0.056209512,"title":"L1001713.jpg","description":"The+man+who+sold+me+some+really+awesome+bananas"}
{"id":374475759,"url":"http://farm1.staticflickr.com/168/374475759_620083c085.jpg","path":"e7e/d7f/e7ed7f75c2aaad905cc0f9907634d3.jpg","date":"2007-01-13","year":2007,"month":1,"lon":85.286865,"lat":27.720003,"tags":"2007,nepal,patan","S2CellId":"0d2464e400000000","result":260,"accuracy":0.14825615,"title":"IMG_2395"}
{"id":2928616582,"url":"http://farm4.staticflickr.com/3234/2928616582_2217328435.jpg","path":"70c/ade/70cadefd479ac0cd8277534eaeb5b61c.jpg","date":"2008-05-08","year":2008,"month":5,"lon":85.311584,"lat":27.70724,"tags":"asia,child,children,clouds,everest,eyes,girl,himalaya,kathmandu,landscape,mountain,mountains,prayer,smile,sunrise,sunset,temple,travel,woman","S2CellId":"8f75000000000000","result":9551,"accuracy":0.018181743,"title":"P5080072"}
{"id":5034016961,"url":"http://farm5.staticflickr.com/4130/5034016961_e0507067c5.jpg","path":"cd6/045/cd60454cf6f820ae2ad4bf15aeb75.jpg","date":"2010-07-30","year":2010,"month":7,"lon":85.33253,"lat":27.714533,"tags":"kathmandu,nepal,saylluiiis","S2CellId":"0d47100000000000","result":398,"accuracy":0.054945163,"title":"INDNEP---0357","description":"Kathmandu+nepal"}
{"id":295659162,"url":"http://farm1.staticflickr.com/118/295659162_4c8236ffa4.jpg","path":"ebf/3b9/ebf3b9d618297425cb4cd4cf43f4e9e8.jpg","date":"2005-08-27","year":2005,"month":8,"lon":85.31484,"lat":27.706099,"tags":"buddhism,buddhist+temples,himalayan+art,jana+bahal,kathmandu,nepal,seto+macchendranath","S2CellId":"3ae3400000000000","result":2524,"accuracy":0.046249542,"title":"PICT0688a"}
{"id":2076041241,"url":"http://farm3.staticflickr.com/2116/2076041241_a4f1e9ccd0.jpg","path":"30d/e76/30de7696bc21bc64792429a08a6ebd.jpg","date":"2007-10-07","year":2007,"month":10,"lon":85.36398,"lat":27.722218,"tags":"blessing,boudha,buddhism,buddhist,buddhists,empowerment,enlightenment,initiation,kathmandu,lam+dre,nepal,path,practice,religion,religious,result,sakya,spiritual,tibetan,tibetan+buddhist,tradition,traditional","S2CellId":"39e4000000000000","result":2487,"accuracy":0.07712885,"title":"DSC_3459"}
{"id":7061043729,"url":"http://farm6.staticflickr.com/5441/7061043729_f416fe26de.jpg","path":"f0b/d44/f0bd44ad9e85088a7b57a572ba0e76a.jpg","date":"2012-04-03","year":2012,"month":4,"lon":85.30941,"lat":27.705235,"tags":"d5100,food,nepal,travel,vacations","S2CellId":"398c000000000000","result":2482,"accuracy":0.093054496,"title":"Photo+043"}
{"id":5790276624,"url":"http://farm4.staticflickr.com/3177/5790276624_1405509a63.jpg","path":"f93/f2e/f93f2e41e1b796d368b9eee6d6edc95.jpg","date":"2011-04-19","year":2011,"month":4,"lon":85.32566,"lat":27.659887,"tags":"kathmandu,nepal,patan","S2CellId":"47ba500000000000","result":4074,"accuracy":0.045459013,"title":"L1000964.jpg","description":"Patan+museum"}
{"id":383786917,"url":"http://farm1.staticflickr.com/185/383786917_2bc4a97db4.jpg","path":"696/fc9/696fc9e04624e51a66794e8eefeecd7e.jpg","date":"2006-01-13","year":2006,"month":1,"lon":85.31536,"lat":27.708303,"tags":"nepal","S2CellId":"1453000000000000","result":1198,"accuracy":0.011150883,"title":"F1000002"}
{"id":523376364,"url":"http://farm1.staticflickr.com/229/523376364_b70d61a5b5.jpg","path":"12b/ee4/12bee4d49da26d48f19c911506858c.jpg","date":"2007-05-25","year":2007,"month":5,"lon":85.35315,"lat":27.711798,"tags":"ananta,ananta+bhadra+lamichhane,anantab,bhadra,drink,drinking,juice,just+a+topic,justatopic.com,kathmandu,lamichhane,mango,monkey,nepal,nepalese,nepali,real,www.justatopic.com","S2CellId":"88d0a631cabb5071","result":8563,"accuracy":0.14730959,"title":"Cooling+with+Juice","description":"A+monkey%2C+near+by+Pashupati+area+in+Kathmandu%2C+drinking+mango++juice."}
{"id":5828732320,"url":"http://farm6.staticflickr.com/5196/5828732320_f9ca4c4ace.jpg","path":"108/fe3/108fe37c89459de7bbc01af33f40b8.jpg","date":"2011-04-29","year":2011,"month":4,"lon":85.30351,"lat":27.699335,"tags":"durbar+square,nepal","S2CellId":"39b0000000000000","result":2485,"accuracy":0.12770626,"title":"L1001689.jpg"}
{"id":8530141462,"url":"http://farm9.staticflickr.com/8092/8530141462_25f9e24f20.jpg","path":"b0e/380/b0e380b523d062175cd7fed42fbaec9.jpg","date":"2013-02-27","year":2013,"month":2,"lon":85.32746,"lat":27.706251,"tags":"asia,boudha,boudhanat,child,earth+asia,kathmandu,nepal,shanty,slum","S2CellId":"3129000000000000","result":1730,"accuracy":0.05089834,"title":"The+kiosk"}
{"id":2366147472,"url":"http://farm3.staticflickr.com/2016/2366147472_bc66c07feb.jpg","path":"879/f2f/879f2f20aa3c2fb6c1a495b2d4668562.jpg","date":"2008-03-14","year":2008,"month":3,"lon":85.585724,"lat":27.644682,"tags":"hymalaya,nepal,nepali+village,thejollynomad","S2CellId":"7c06c00000000000","result":6897,"accuracy":0.07307117,"title":"Picture+148"}
{"id":5574404064,"url":"http://farm6.staticflickr.com/5070/5574404064_3766a312a7.jpg","path":"454/f14/454f147bf3e1458253424a8e30f092f8.jpg","date":"2011-03-26","year":2011,"month":3,"lon":85.34765,"lat":27.70967,"tags":"2011,asia,kathmandu,nepal,pashupatinath+temple","S2CellId":"39eb190000000000","result":2494,"accuracy":0.2126082,"title":"Pashupatinath_024"}
{"id":481130151,"url":"http://farm1.staticflickr.com/179/481130151_461dee43cc.jpg","path":"4d8/735/4d8735fe40ff49cdb2853bb1d7d276e4.jpg","date":"2007-03-20","year":2007,"month":3,"lon":85.308495,"lat":27.710583,"tags":"kathmandu,nepal","S2CellId":"0da5000000000000","result":612,"accuracy":0.029722597,"title":"Surrounded..+by+Iranians%21","description":"%28l-r%29+Mohammad+%28the+cyclist%29%2C+Majeed+%28photographer%29%2C+Me%2C+and...+well..+two+other+Iranians.%0A%0ATaken+at+Majeed%27s+photo+exhibit+on+Isfahan.%0A%0AGot+the+handmade+tablecloth+as+a+present+%28apparantly+for+merely+being+American%2FIsraeli+and+not+hating+them+immediately%29"}
{"id":2131972046,"url":"http://farm3.staticflickr.com/2221/2131972046_e1b5073bb7.jpg","path":"fd8/510/fd85107cc2cdb7abcc1e4335aee7f7e.jpg","date":"2007-11-02","year":2007,"month":11,"lon":85.36398,"lat":27.722218,"tags":"boudha,buddhism,buddhist,buddhists,culture,empowerment,he+zaya+sakya,initiation,kathmandu,lam+dre,lineage,monastery,nepal,photo+by+byomo+kusum+sangh,photo+by+hemant+gurung,practice,religion,religious,sakya,spiritual,sprul+sku,tharlam,tharlam+monastery,tibetan,tibetan+buddhism,tibetan+buddhist,zaya+sakya","S2CellId":"4707000000000000","result":3128,"accuracy":0.21832544,"title":"HE+Zaya+Vajra+Sakya%2C+Tharlam+Monastery%2C+Boudha%2C+Kathmandu%2C+Nepal","description":"Photo+by+Hemant+Gurung+and+Byomo+Kusum+Sangh+Boudha%2C+Kathmandu%2C+Nepal."}
{"id":4128624891,"url":"http://farm3.staticflickr.com/2517/4128624891_ffc054b2be.jpg","path":"a34/c1e/a34c1e9f429c251477b037f08840828e.jpg","date":"2009-10-12","year":2009,"month":10,"lon":85.56729,"lat":27.577412,"tags":"2009,nepal,rundreise","S2CellId":"36cc000000000000","result":2408,"accuracy":0.46499643,"title":"Reisanbau"}
{"id":3811394423,"url":"http://farm4.staticflickr.com/3562/3811394423_9dd2b3e3c8.jpg","path":"29e/078/29e078865adedc29324de38d7ac84458.jpg","date":"2009-08-11","year":2009,"month":8,"lon":85.4,"lat":27.6,"tags":"animalia,beetle,cerambycidae,coleoptera,coleoptera-us,exocentrus,exocentrus+ravillus,insect,k%C3%A4fer,kaefer,nepal,ravillus,s%C3%BCdasien,southasia","S2CellId":"4873a10000000000","result":5088,"accuracy":0.16220294,"title":"Exocentrus+ravillus+Holzschuh%2C+1984","description":"Family%3A+Cerambycidae%0ASize%3A+6+mm%0ALocation%3A+Nepal%2C+Kathmandu+Valley%2C+Godavari%2C+Phulchoki%0Aleg+det.+C.Holzschuh%2C+1983%0APhoto%3A+U.Schmidt+2008"}
{"id":1395480018,"url":"http://farm2.staticflickr.com/1063/1395480018_9754ef2b2e.jpg","path":"9a2/239/9a223946517ee1ffc5be5a498fe8144c.jpg","date":"2007-09-17","year":2007,"month":9,"lon":85.314674,"lat":27.71043,"tags":"nepal","S2CellId":"2dd2100000000000","result":1538,"accuracy":0.04825742,"title":"Dakshin+Kali","description":"Kathmandu%2C+September+2007"}
{"id":8085639257,"url":"http://farm9.staticflickr.com/8333/8085639257_1720927377.jpg","path":"1bf/827/1bf827d9b5451e297316d62bd24e1.jpg","date":"2012-10-09","year":2012,"month":10,"lon":85.42816,"lat":27.672052,"tags":"1009,2012,201210,20121009,october","S2CellId":"39eb190000000000","result":2494,"accuracy":0.62432176,"title":"IMG_3636"}
{"id":1160291103,"url":"http://farm2.staticflickr.com/1392/1160291103_b7a2f03fe1.jpg","path":"ac5/28d/ac528d20529a1bb39490216a588974.jpg","date":"2007-08-18","year":2007,"month":8,"lon":85.31433,"lat":27.709366,"tags":"2007,airlines,kathmandu,nepal,royal","S2CellId":"88e77e4000000000","result":8673,"accuracy":0.0057561975,"title":"Nepal+Kathmandu+2007","description":"%3Cb%3EKathmandu---Hong+Kong%3A+KTM---HKG%3C%2Fb%3E%0AI%27ve+booked+air+ticket+for+21.08.2007+hoping+not+to+be+my+last+fly..."}
{"id":2705407223,"url":"http://farm4.staticflickr.com/3246/2705407223_63f3296633.jpg","path":"814/887/81488754a858a22d13181f552f2f349.jpg","date":"2008-07-18","year":2008,"month":7,"lon":85.42694,"lat":27.678663,"tags":"bakthapur,bhaktapur,nepal","S2CellId":"398c000000000000","result":2482,"accuracy":0.094825044,"title":"Bakthapur+Bazaar+Locals"}
{"id":2872625135,"url":"http://farm4.staticflickr.com/3049/2872625135_e2e7c9829d.jpg","path":"c61/59c/c6159c02a8cc393a60d56fe252bd39.jpg","date":"2004-12-04","year":2004,"month":12,"lon":85.30145,"lat":27.72084,"tags":"buda,budismo,kathmandu,katmandu,monkey,nepal,pablo,religion,stupa,swayambunath,taibi,temple","S2CellId":"4781500000000000","result":3531,"accuracy":0.09717034,"title":"Swayambunath+Stupa+%28Monkey+Temple%29","description":"Kathmandu%2C+Nepal+%282004%29"}
{"id":8134096286,"url":"http://farm9.staticflickr.com/8325/8134096286_c4410ac53c.jpg","path":"c89/654/c8965459f3a6717dda8a2d853d90a06e.jpg","date":"2012-10-04","year":2012,"month":10,"lon":85.30652,"lat":27.70424,"tags":"kathmandu,katmandou,katmandu,madhyamanchal,march%C3%A9,market,mercado,mercat+market+mercado,nepal,night,noche,npl","S2CellId":"0dafee7000000000","result":628,"accuracy":0.0330251,"title":"Night+Market","description":"Kathmandu"}
{"id":5573592358,"url":"http://farm6.staticflickr.com/5101/5573592358_9f053f1a58.jpg","path":"654/645/6546457eeaca9c473fba5f734ab256e.jpg","date":"2011-03-26","year":2011,"month":3,"lon":85.36195,"lat":27.721443,"tags":"2011,asia,boudanath+stupa,flag,kathmandu,nepal","S2CellId":"39eb1b0000000000","result":2495,"accuracy":0.2401911,"title":"Boudanath+Stupa_020"}
{"id":3012126519,"url":"http://farm4.staticflickr.com/3218/3012126519_06b061e1f2.jpg","path":"4f2/919/4f29195ca1ed562d28b52e70172461f9.jpg","date":"2008-11-03","year":2008,"month":11,"lon":85.31742,"lat":27.6833,"tags":"n%C3%A9pal,patan","S2CellId":"39eb190000000000","result":2494,"accuracy":0.8356375,"title":"P1030261"}
{"id":4173655047,"url":"http://farm5.staticflickr.com/4039/4173655047_c81408a0bc.jpg","path":"448/e94/448e945c6e1ae31a101b9bf222392539.jpg","date":"2009-10-23","year":2009,"month":10,"lon":85.33596,"lat":27.729664,"tags":"nepal","S2CellId":"39eb190000000000","result":2494,"accuracy":0.10503001,"title":"Wall","description":"%C2%A9+Copyright+2009+-+LiseLuvs%0A%3Ca+href%3D%22http%3A%2F%2Fwww.liseluvs.com%22+rel%3D%22nofollow%22%3ELiseLuvs%3C%2Fa%3E%0A%3Ca+href%3D%22mailto%3Aliseluvs%40gmail.com%22+rel%3D%22nofollow%22%3EContact+Me%3C%2Fa%3E"}
{"id":8568872690,"url":"http://farm9.staticflickr.com/8365/8568872690_00fe6b955b.jpg","path":"a03/4c4/a034c42c9889b0b972f8c9cd3f8bbbf5.jpg","date":"2013-01-21","year":2013,"month":1,"lon":85.4278,"lat":27.71633,"tags":"bhaktapur+district,changu+narayan,dalbera,n%C3%A9pal,narayan,narayana,temple,vall%C3%A9e+de+katmandou,vishnou,vishnu","S2CellId":"00a5000000000000","result":49,"accuracy":0.0077239783,"title":"Carte+du+site+de+Changu+Narayan","description":"Ce+site+est+class%C3%A9+sur+la+liste+du+patrimoine+mondial+de+l%27UNESCO%0A%0AArticle+de+Wikipedia+sur+Changu+Narayan%0A%3Ca+href%3D%22http%3A%2F%2Fen.wikipedia.org%2Fwiki%2FChangu_Narayan%22+rel%3D%22nofollow%22%3Een.wikipedia.org%2Fwiki%2FChangu_Narayan%3C%2Fa%3E"}
{"id":3889336703,"url":"http://farm3.staticflickr.com/2470/3889336703_df7f8ee247.jpg","path":"36a/610/36a610bcb43de139c76628ee7c8ce.jpg","date":"2009-05-01","year":2009,"month":5,"lon":85.3175,"lat":27.702,"tags":"goat,morning,nepal,thamel","S2CellId":"398c000000000000","result":2482,"accuracy":0.09019194,"title":"Kathmandu%2C+8am"}
{"id":5534361970,"url":"http://farm6.staticflickr.com/5018/5534361970_686317bc01.jpg","path":"882/956/882956a7ef69714267eabe51aaad7f14.jpg","date":"2011-01-13","year":2011,"month":1,"lon":85.32491,"lat":27.673052,"tags":"durbar+square,nepal,patan,travel,vacation","S2CellId":"39eb190000000000","result":2494,"accuracy":0.037395466,"title":"IMG_0600"}
{"id":6455878943,"url":"http://farm8.staticflickr.com/7170/6455878943_62739a1812.jpg","path":"72d/7f0/72d7f068a3a624685576b7fd4883e6f.jpg","date":"2011-11-28","year":2011,"month":11,"lon":85.314674,"lat":27.70321,"tags":"asia,city,girl,kathmandu,nepal,new+road,schoolgirl,woman","S2CellId":"3770000000000000","result":2436,"accuracy":0.17710315,"title":"IMG_4239"}
{"id":2333129817,"url":"http://farm3.staticflickr.com/2137/2333129817_3f0cde0034.jpg","path":"ade/99c/ade99c98db834e04527421f50fc416b.jpg","date":"2007-11-15","year":2007,"month":11,"lon":85.522385,"lat":27.581633,"tags":"monastery,nepal,rinpoche,thrangu,tibetan","S2CellId":"39eb190000000000","result":2494,"accuracy":0.28291017,"title":"IMG_2121"}
{"id":5406671235,"url":"http://farm6.staticflickr.com/5300/5406671235_0aa4dd7cc5.jpg","path":"859/6bd/8596bd1887e4a756ba1d72688c6e2c5.jpg","date":"2011-02-01","year":2011,"month":2,"lon":85.32643,"lat":27.679138,"tags":"kathmandu,nepal,patan","S2CellId":"12aebd0000000000","result":789,"accuracy":0.01908392,"title":"Top+notch+Health+care"}
{"id":8842884010,"url":"http://farm8.staticflickr.com/7284/8842884010_42419607c5.jpg","path":"10c/b21/10cb21d45919f125b8cc3e8f3be16987.jpg","date":"2013-03-28","year":2013,"month":3,"lon":85.312256,"lat":27.713606,"tags":"kathmandu,madhyamanchal,nepal,npl,thamel","S2CellId":"54906ab300000000","result":6212,"accuracy":0.019620867,"title":"More+feet+at+Rum+Doodle","description":"Map+it%3A+%3Ca+href%3D%22http%3A%2F%2Fwww.robogeo.com%2FFlickr2Map%2F%22+rel%3D%22nofollow%22%3EGoogle+Earth%3C%2Fa%3E+%7C+%3Ca+href%3D%22http%3A%2F%2Fwww.robogeo.com%2FFlickr2Map%2F%3Ftype%3Dmap%22+target%3D%22_blank%22+rel%3D%22nofollow%22%3EStreet%3C%2Fa%3E+%7C+%3Ca+href%3D%22http%3A%2F%2Fwww.robogeo.com%2FFlickr2Map%2F%3Ftype%3Dmap%26view%3Dsatellite%22+target%3D%22_blank%22+rel%3D%22nofollow%22%3ESatellite%3C%2Fa%3E+%7C+%3Ca+href%3D%22http%3A%2F%2Fwww.robogeo.com%2FFlickr2Map%2F%3Ftype%3Dmap%26view%3Dhybrid%22+target%3D%22_blank%22+rel%3D%22nofollow%22%3EHybrid%3C%2Fa%3E+%7C+%3Ca+href%3D%22http%3A%2F%2Fwww.robogeo.com%2FFlickr2Map%2F%3Ftype%3Dnautical%22+target%3D%22_blank%22+rel%3D%22nofollow%22%3ENautical%3C%2Fa%3E%0A%0ATaken+in+Kathmandu%2C+Nepal+with+a+NIKON+CORPORATION+NIKON+D3100+%2818.0+mm%2C+1%2F200+sec%2C+F4.0%29."}
{"id":2219970669,"url":"http://farm3.staticflickr.com/2197/2219970669_03fb9ab01f.jpg","path":"5c7/c83/5c7c83bd11f85a964d3f6a2cbe2ed517.jpg","date":"2011-03-14","year":2011,"month":3,"lon":85.311714,"lat":27.700989,"tags":"*favorites+natural+colors+and+lights,artbook,artofimages,bridot,enfants,favorites+pictures,katmandou,n%C3%A9pal,platinumphoto,portrait,portraits,r%C3%A9mi+bridot,rubyphotographer,updatecollection,vall%C3%A9e+de+katmandou,villes,voyages","S2CellId":"398c000000000000","result":2482,"accuracy":0.04776249,"title":"025nepal","description":"Fillette%0ABuy+at+Darqroom%3A+%3Ca+href%3D%22http%3A%2F%2Fremibridot.darqroom.com%2Fphoto%2Fgrands-format-38920%2F025nepal.jpg-1907655%22+rel%3D%22nofollow%22%3Eremibridot.darqroom.com%2Fphoto%2Fgrands-format-38920%2F025nepa...%3C%2Fa%3E"}
{"id":5661563019,"url":"http://farm6.staticflickr.com/5188/5661563019_fa19b991cc.jpg","path":"15f/670/15f670d54a9fac627ddf31af540936a.jpg","date":"2011-04-27","year":2011,"month":4,"lon":85.3155,"lat":27.705547,"tags":"kathmandu,nepal,nepali","S2CellId":"39eb190000000000","result":2494,"accuracy":0.36475965,"title":"The+magic"}
{"id":7061180389,"url":"http://farm8.staticflickr.com/7278/7061180389_b09dacdde0.jpg","path":"90d/0eb/90d0ebd26e7820a9aafae5ffff4cbdc.jpg","date":"2012-04-07","year":2012,"month":4,"lon":85.306335,"lat":27.704254,"tags":"d5100,food,nepal,travel,vacations","S2CellId":"310b000000000000","result":1702,"accuracy":0.011567447,"title":"DSC_0193+-+2012-04-07+at+12-33-24"}
{"id":3468838916,"url":"http://farm4.staticflickr.com/3149/3468838916_0e5a306e24.jpg","path":"e37/1a1/e371a14dcf5b81c79ac18978ea9e8ac.jpg","date":"2008-09-08","year":2008,"month":9,"lon":85.38997,"lat":27.720982,"tags":"cloth,dhaka,kathmandu,nepal,spinning-wheel,textile","S2CellId":"0d0b000000000000","result":163,"accuracy":0.025061073,"title":"Spinning+wheel+3"}
{"id":461611430,"url":"http://farm1.staticflickr.com/209/461611430_db44abd351.jpg","path":"b61/48a/b6148af554af791424dcd67a2cf5b8b.jpg","date":"2007-04-13","year":2007,"month":4,"lon":85.315445,"lat":27.703363,"tags":"golden+temple,nepal","S2CellId":"39eb190000000000","result":2494,"accuracy":0.12794606,"title":"_DSC1313"}
{"id":2847926135,"url":"http://farm4.staticflickr.com/3059/2847926135_644a394aa0.jpg","path":"c8e/032/c8e032d7a747e6ac2fb4134843bc486c.jpg","date":"2008-09-11","year":2008,"month":9,"lon":85.31719,"lat":27.70629,"tags":"birds,clouds,sky,sunset","S2CellId":"88d0a631cabb5071","result":8563,"accuracy":0.05889645,"title":"Moment","description":"Sky+above+Ratnapark......."}
{"id":4170615739,"url":"http://farm3.staticflickr.com/2654/4170615739_36985955ac.jpg","path":"19d/a5f/19da5f55e84dd4d2941db2326e057.jpg","date":"2009-10-02","year":2009,"month":10,"lon":85.315704,"lat":27.711798,"tags":"everest+base+camp,little+girls,tibet,travel+photography","S2CellId":"38b0000000000000","result":2440,"accuracy":0.046724997,"title":"Under+Orla%27s+Spell"}
{"id":2366140382,"url":"http://farm3.staticflickr.com/2176/2366140382_6e4cdacf91.jpg","path":"873/327/873327b920ddc4c9b78a9b88ebf1b9b.jpg","date":"2008-03-14","year":2008,"month":3,"lon":85.585724,"lat":27.644682,"tags":"hymalaya,nepal,nepali+village,thejollynomad","S2CellId":"8e6c000000000000","result":9486,"accuracy":0.015841072,"title":"Picture+143"}
{"id":8081596250,"url":"http://farm9.staticflickr.com/8471/8081596250_c5ed9edd59.jpg","path":"7bd/09a/7bd09a61c8d73abb62f4ebe745acbf0.jpg","date":"2012-10-05","year":2012,"month":10,"lon":85.52335,"lat":27.722792,"tags":"1005,2012,201210,20121005,october","S2CellId":"878f000000000000","result":7910,"accuracy":0.012863075,"title":"IMG_1875"}
{"id":2087954558,"url":"http://farm3.staticflickr.com/2068/2087954558_e8d59464f6.jpg","path":"3bd/630/3bd63099794bbaa2bcec5216286d6c.jpg","date":"2007-10-19","year":2007,"month":10,"lon":85.36398,"lat":27.722218,"tags":"5946,american,boudha,buddhism,buddhist,coming,compassion,dagchen,dagchen+rinpoche,dagchen+sakya,empowerment,enlightenment,famous,gongma+dagchen+rinpoche,grandson,guru,hh+jigdal+dagchen+sakya,his,his+holiness+jigdal+dagchen+sakya,holiness,initiation,jd+sakya,jigdal,jigdal+dagchen+sakya,kathmandu,lam+dre,lama,lamas,laypeople,leader,mahayana,monastery,monks,nepal,nuns,out,path,peace,person,personage,reception,religion,religious,result,sakya,son,spiritual,students,teacher,teaching,tharlam,tibetan,tibetanbuddhist,tradition,with","S2CellId":"39e4000000000000","result":2487,"accuracy":0.18182714,"title":"His+Holiness+Jigdal+Dagchen+Sakya+coming+out+of+Tharlam+Monastery+with+his+son+HE+Zaya+Sakya+Rinpoche+and+grandsons+to+reception+of+lamas+monks+nuns+laypeople+students+Boudha+Kathmandu+Nepal"}
{"id":12202785926,"url":"http://farm6.staticflickr.com/5542/12202785926_b2e78fc6d3.jpg","path":"647/53f/64753f88f63327decae0eda8cac69ab6.jpg","date":"2014-01-29","year":2014,"month":1,"lon":85.42776,"lat":27.670246,"tags":"instagram+app,iphoneography,nashville,square,square+format","S2CellId":"39eb190000000000","result":2494,"accuracy":0.43594232,"title":"Little+Boy+Blue.+%23nepal"}
{"id":6615548237,"url":"http://farm8.staticflickr.com/7031/6615548237_8a3ef5c729.jpg","path":"c87/bd6/c87bd6767b256b64590afa3194dab21.jpg","date":"2011-11-22","year":2011,"month":11,"lon":85.31433,"lat":27.708757,"tags":"adventure,bridge,bright,buddhism,calcutta,color,colorful,colour,colourful,faces,fun,ganges,glacier,hdr,henna,high+dynamic+range,hike,himalaya,himalayas,india,kathmandu,khagendra,kolkata,lama,mother+gange,mother+teresa,mount+everest,mountains,mt+everest,namche+bazaar,nature,nepal,people,river,sam+hawleywood,smile,smiles,smiling,spirit,spiritual,taj+mahal,temple,temples,travel,trek,walk,yak,youth+leadership","S2CellId":"39eb190000000000","result":2494,"accuracy":0.11487865,"title":"DPP_0015"}
{"id":2049771782,"url":"http://farm3.staticflickr.com/2233/2049771782_4c0f00693d.jpg","path":"913/f86/913f8639ee9a4d932d11fa288545954.jpg","date":"2007-11-06","year":2007,"month":11,"lon":85.36192,"lat":27.721466,"tags":"blessed,blessing,boudha,boudha+stupa,boudhanath,chorten,holy,jarung+kashor,jarung+kashor+%28bya+rung+kha+shor%29,jarung+kashor+stupa,kathmandu,marvelous,nepal,nepalese,relic,shrine,spiritual,stupa,temple,the+great+stupa,the+great+stupa+jarung+kashor,tibetan,tibetan+buddhist,tradition,traditional,white,wish-fulfilling,wonderlane","S2CellId":"809f000000000000","result":7130,"accuracy":0.008804789,"title":"DSC_0039"}
{"id":8477586808,"url":"http://farm9.staticflickr.com/8513/8477586808_77c2e8b87a.jpg","path":"5fc/38b/5fc38b67f59bc2346de65151635ea76.jpg","date":"2013-02-09","year":2013,"month":2,"lon":85.495605,"lat":27.716356,"tags":"everest,himalaya,himalayas,kathmandu,nagarkot,nepal,photo+stream,travel","S2CellId":"883cae5000000000","result":8363,"accuracy":0.039082903,"title":"Nagarkot+-+35"}
{"id":8864639235,"url":"http://farm6.staticflickr.com/5325/8864639235_9da3c4f43a.jpg","path":"fbc/114/fbc11456d5571214b127232474b420e2.jpg","date":"2013-02-03","year":2013,"month":2,"lon":85.31036,"lat":27.71508,"tags":"%E5%8A%A0%E5%BE%B7%E6%BB%BF%E9%83%BD,%E5%B0%BC%E6%B3%8A%E7%88%BE,%E9%BB%91%E7%99%BD%E6%94%9D%E5%BD%B1,b%26w,black+%26++white,central+region,grd,grd+iv,nepal,snap","S2CellId":"3a02740000000000","result":2506,"accuracy":0.05853483,"title":"Joey%27s+Snap+shot","description":"%3Ca+href%3D%22http%3A%2F%2Fjoey-liu.blogspot.tw%2F%22+rel%3D%22nofollow%22%3Ejoey-liu.blogspot.tw%2F%3C%2Fa%3E"}
{"id":1394588173,"url":"http://farm2.staticflickr.com/1337/1394588173_1f7be80c85.jpg","path":"f36/292/f362921de35b4cecec0bd77e9247ea5.jpg","date":"2007-09-17","year":2007,"month":9,"lon":85.314674,"lat":27.71043,"tags":"nepal","S2CellId":"4707000000000000","result":3128,"accuracy":0.05878546,"title":"Dakshin+Kali","description":"Kathmandu%2C+September+2007"}
{"id":3012967614,"url":"http://farm4.staticflickr.com/3066/3012967614_c07a628d37.jpg","path":"eeb/5a3/eeb5a3f22139ce51bff88aed13b270a.jpg","date":"2008-11-03","year":2008,"month":11,"lon":85.31742,"lat":27.6833,"tags":"n%C3%A9pal,patan","S2CellId":"39eb190000000000","result":2494,"accuracy":0.49338323,"title":"P1030274"}
{"id":1748846389,"url":"http://farm3.staticflickr.com/2082/1748846389_3b9731e62a.jpg","path":"c56/3b6/c563b69fc026f726c2cd465012ea9e.jpg","date":"2007-09-10","year":2007,"month":9,"lon":85.3006,"lat":27.720003,"tags":"asia,curiosas,kathmandu,nepal,sociedad","S2CellId":"39eb190000000000","result":2494,"accuracy":0.12949364,"title":"bueno%21%21+que+est%C3%A1+eso"}
{"id":8696725067,"url":"http://farm9.staticflickr.com/8125/8696725067_00b6d6b403.jpg","path":"bd5/f71/bd5f710aed68ad75f7e786b953dc524.jpg","date":"2013-04-25","year":2013,"month":4,"lon":85.31948,"lat":27.69204,"tags":"asia,monkey,nepal,travel","S2CellId":"39eb190000000000","result":2494,"accuracy":0.05678582,"title":"Monkeying+about"}
{"id":534695228,"url":"http://farm2.staticflickr.com/1256/534695228_af6b183cf2.jpg","path":"6ec/122/6ec1228108cd224f11bfe8c59dd929.jpg","date":"2007-06-07","year":2007,"month":6,"lon":85.35125,"lat":27.688482,"tags":"accident,ananta,ananta+bhadra+lamichhane,anantab,bhadra,burn,bus,dead,just+a+topic,justatopic.com,kathmandu,lamichhane,nepal,nepalese,nepali,policeman,strike,www.justatopic.com","S2CellId":"3bdc000000000000","result":2566,"accuracy":0.11800599,"title":"Bus+Accident%2C+killing+one+woman","description":"Local+people+discussing+with+policeman.+People+were+trying+to+block+the+road+traffic+and+the+policeman+was+trying+to+convince+them+not+to+do+that."}
{"id":6858419392,"url":"http://farm7.staticflickr.com/6239/6858419392_8c576731ac.jpg","path":"fb2/bc4/fb2bc45c85199181fc90ae216c9bea78.jpg","date":"2012-03-02","year":2012,"month":3,"lon":85.306335,"lat":27.704,"tags":"kathmandu,nepal","S2CellId":"39eb190000000000","result":2494,"accuracy":0.37907937,"title":"Nepal","description":"nepal"}
{"id":2094141056,"url":"http://farm3.staticflickr.com/2274/2094141056_030d521aea.jpg","path":"812/e76/812e76984d49e1cc7dca910f259bf.jpg","date":"2007-10-20","year":2007,"month":10,"lon":85.65216,"lat":27.79778,"tags":"asia,brian%27s+photos,nepal","S2CellId":"89c2d00000000000","result":9097,"accuracy":0.012536561,"title":"CIMG3078"}
{"id":5228924188,"url":"http://farm6.staticflickr.com/5009/5228924188_3c69963e06.jpg","path":"f52/8a0/f528a062bfbd1160aa68cd45d1ffdbc.jpg","date":"2010-10-28","year":2010,"month":10,"lon":85.29058,"lat":27.714743,"tags":"2010,aberystwyth,asia,climate+change,everest,fieldwork,flood,glacier,glaciology,glof,khumbu+himal,lake,mountains,mt.+everest,nepal,november,october,peaks,river,solukhumbu,trekking","S2CellId":"39eb190000000000","result":2494,"accuracy":0.010648652,"title":"Kathmandu+panorama%2C+from+Swayambhunath+stupa"}
{"id":4062049825,"url":"http://farm3.staticflickr.com/2654/4062049825_01df8df705.jpg","path":"79b/840/79b8406a129c13de57bc4807fe15c3c.jpg","date":"2009-11-10","year":2009,"month":11,"lon":85.314156,"lat":27.706936,"tags":"bottle,bottles,jugs,nepal,travel,water","S2CellId":"4ec0000000000000","result":5959,"accuracy":0.007094829,"description":"Fall+09+%7E+Taken+by+Kathy"}
{"id":5323444119,"url":"http://farm6.staticflickr.com/5281/5323444119_7236cb6369.jpg","path":"d59/e51/d59e51f5f6a40d45cfe502cb633fa8f.jpg","date":"2010-12-29","year":2010,"month":12,"lon":85.46402,"lat":27.671974,"tags":"bhaktapur,e5,ed,four+thirds,gimp,nepal,olympus,swd,travel,vacation,zd,zuiko+digital","S2CellId":"39eb190000000000","result":2494,"accuracy":0.6033516,"title":"GIMP-Nepal+029"}
{"id":2873020006,"url":"http://farm4.staticflickr.com/3213/2873020006_ae41d92745.jpg","path":"6cb/59c/6cb59c064a7829f7554840ecfa8b78.jpg","date":"2004-12-21","year":2004,"month":12,"lon":85.314156,"lat":27.722359,"tags":"asia,capital,espiritual,himalayas,hinduismo,kathmandu,nepal,templo","S2CellId":"39eb190000000000","result":2494,"accuracy":0.8666433,"title":"Kathmandu%2C+Nepal","description":"2004"}
{"id":9189252363,"url":"http://farm8.staticflickr.com/7404/9189252363_a10e91feda.jpg","path":"8e4/581/8e4581d7cd6c4e67e91b26b1e47d3189.jpg","date":"2013-06-05","year":2013,"month":6,"lon":85.5047,"lat":27.702925,"tags":"agriculture,ccafs,cgiarclimate,climate,nagarkot%2C+nepal,scenarios,scenarios+workshop,south+asia","S2CellId":"3a02740000000000","result":2506,"accuracy":0.155572,"title":"Second+Scenarios+workshop+in+South+Asia","description":"In+a+workshop+from+29+November+to+1+December+2012+in+Colombo%2C+Sri+Lanka%2C+regional+stakeholder+from+regional+development+organizations%2C+governments%2C+private+sector%2C+civil+society%2C+academia+and+the+media+came+together+to+outline+future+socio-economic+drivers+of+change+for+food+security%2C+environments+and+livelihoods+in+South+Asia+%28Bangladesh%2C+Nepal%2C+India%2C+Pakistan%2C+Sri+Lanka%29.%0A%0ADuring+the+second+workshop%2C+which+took+place+from+3+to+5+June+2013+in+Nagarkot%2C+Nepal%2C+the+next+step+was+to+provide+driver+inputs+for+the+quantification+of+these+scenarios.+Participants+also+outlined+policy+guidance+processes.+Photo%3A+Elisabeth+van+de+Grift."}
{"id":2102415405,"url":"http://farm3.staticflickr.com/2298/2102415405_4d3259b468.jpg","path":"545/7da/5457daffe45f6be63f3fd91e73487c.jpg","date":"2007-08-05","year":2007,"month":8,"lon":85.315186,"lat":27.705719,"tags":"baby,bimba,canon+eos+350d,curiosa,nepal,nromagna,occhi,people,sguardo,sigma+24-70+f2.8,travel,viaggi","S2CellId":"3754400000000000","result":2427,"accuracy":0.021100873,"title":"Curiosa.","description":"Si+sa%2C+la+curiosit%C3%A0+e+donna...+e+questa+bimba+ne+%C3%A8+la+prova.+%3Ap%0A%0ALei+guarda+dritta+ed+incuriosita+il+mio+obbiettivo+ed+io+non+posso+far+altro+che+scattare%2C+%C3%A8+pi%C3%B9+forte+di+me%3B+chiedo+ho+fatto+male%3F+%3A%29"}
{"id":6338833169,"url":"http://farm7.staticflickr.com/6019/6338833169_a3e33e85b6.jpg","path":"c2f/2b1/c2f2b1583dfcf33b3ccae97612aaa3.jpg","date":"2011-10-31","year":2011,"month":10,"lon":85.324104,"lat":27.66434,"tags":"keshav+narayan+chowk,nepal,patan","S2CellId":"39eb190000000000","result":2494,"accuracy":0.26704398,"title":"Keshav+Narayan+Chowk"}
{"id":547586307,"url":"http://farm2.staticflickr.com/1084/547586307_df272c6358.jpg","path":"4db/764/4db764380a2eaafe919173a76f9a62.jpg","date":"2006-10-01","year":2006,"month":10,"lon":85.43484,"lat":27.67167,"tags":"bhaktapur,kathmandu,nepal","S2CellId":"39eb190000000000","result":2494,"accuracy":0.5854301,"title":"Bhaktapur"}
