{"id":4582400852,"url":"http://farm5.staticflickr.com/4057/4582400852_cc9c579221.jpg","path":"59c/1a5/59c1a5f8dc11a36d22a0a189f131a4a.jpg","date":"2010-05-05","year":2010,"month":5,"lon":7.706565,"lat":45.070488,"tags":"automobili,centro+commerciale,fabbrica,fiat,lingotto,torino,turin","S2CellId":"47a851bc00000000","result":3925,"accuracy":0.29145798,"title":"Lingotto"}
{"id":2508430828,"url":"http://farm3.staticflickr.com/2253/2508430828_3d67036601.jpg","path":"332/3e1/3323e1adfd8d97e3add9891dd2e413bc.jpg","date":"2006-09-03","year":2006,"month":9,"lon":7.535591,"lat":45.143124,"tags":"san+gillio","S2CellId":"47b7d00000000000","result":4036,"accuracy":0.3360042,"title":"sangiallo561"}
{"id":2709184923,"url":"http://farm4.staticflickr.com/3289/2709184923_79641eb0e8.jpg","path":"2b1/8db/2b18db98f057739bb955b3df2b1d7ccd.jpg","date":"2008-07-25","year":2008,"month":7,"lon":7.685483,"lat":45.0504,"tags":"borgo+medievale,torino","S2CellId":"94ce585c00000000","result":9713,"accuracy":0.084949896,"title":"July+281"}
{"id":2871802299,"url":"http://farm4.staticflickr.com/3013/2871802299_14a59ab108.jpg","path":"a34/f1a/a34f1a5c1b29952738d96c47bd5bf63.jpg","date":"2008-09-14","year":2008,"month":9,"lon":7.347793,"lat":45.737984,"tags":"aosta2008,austalianshepherd,goldcup1,i.a.s.a,switzerland,ticino","S2CellId":"4692084000000000","result":2980,"accuracy":0.027970793,"title":"IASA+Gold+Cup+1+-+Aosta+2008"}
{"id":4964902731,"url":"http://farm5.staticflickr.com/4127/4964902731_c9df7de954.jpg","path":"2c3/2cb/2c32cb0fc194bf9548d61e74672c79b.jpg","date":"2010-08-15","year":2010,"month":8,"lon":7.656977,"lat":45.622246,"tags":"champorcher,montagna,mountain,valle%27+d%27aoste,valle+d%27aosta","S2CellId":"12a8400000000000","result":770,"accuracy":0.017316878,"title":"After+Three+Rainy+Days","description":"Valle+D%27Aosta+-+Chhamporcher+-+Boussiney"}
{"id":3286083896,"url":"http://farm4.staticflickr.com/3463/3286083896_8811cb0d02.jpg","path":"7de/729/7de729b1272f7cf7e62e4afa6c50c4.jpg","date":"2008-10-17","year":2008,"month":10,"lon":7.295076,"lat":45.779915,"tags":"aosta,autumn,brown,clouds,colors,fog,green,misty,mountain,woods,yellow","S2CellId":"47edc00000000000","result":4703,"accuracy":0.14718315,"title":"Enchanted+crest"}
{"id":3670648443,"url":"http://farm4.staticflickr.com/3296/3670648443_b3e2eecb94.jpg","path":"7f8/865/7f8865891aa8d9a84944a9e40a1f2c9.jpg","date":"2009-06-29","year":2009,"month":6,"lon":7.694313,"lat":45.061035,"tags":"ceiling,chandalier,communia,creative+commons,decoration,entrance,italia,italy,june,light,roof,torino,turin","S2CellId":"47e66e2500000000","result":4605,"accuracy":0.11402211,"title":"Communia+crowd"}
{"id":4631596188,"url":"http://farm4.staticflickr.com/3384/4631596188_a81e37270a.jpg","path":"741/fa9/741fa95815d38b418ef72cdccf7b9f8.jpg","date":"2010-05-22","year":2010,"month":5,"lon":7.681621,"lat":45.066647,"tags":"bianco,bianco+nero,black,black+white,bn,bw,canon,canon+50d,cnl,dora,fontana,il+po,italia,italy,la+dora,marmo,maurizio,maurizio+montanaro,montanaro,nero,piazza,piazza+cnl,po,torino,turin,white","S2CellId":"89c258fec0000000","result":8990,"accuracy":0.06472112,"title":"La+Dora"}
{"id":8114152594,"url":"http://farm9.staticflickr.com/8474/8114152594_eaa535106c.jpg","path":"bc6/70d/bc670d2e175b03099d192623626893.jpg","date":"2012-10-14","year":2012,"month":10,"lon":7.684492,"lat":45.068348,"tags":"museo+egizio,torino","S2CellId":"89b7b79b00000000","result":8861,"accuracy":0.12800194,"title":"DSC09132"}
{"id":4912142035,"url":"http://farm5.staticflickr.com/4140/4912142035_89bdf00584.jpg","path":"d2a/157/d2a157b945a7e415dc69b325a43c7c75.jpg","date":"2010-08-20","year":2010,"month":8,"lon":7.881284,"lat":45.155357,"tags":"at-x+165+pro+dx,tokina,tokina+at-x+165+pro+dx","S2CellId":"88d0a631cabb5071","result":8563,"accuracy":0.012332084,"title":"Chi+va+piano...+%231"}
{"id":7938437736,"url":"http://farm9.staticflickr.com/8040/7938437736_3d0267ca10.jpg","path":"e70/636/e70636b7e3763793f67ddbdca7c356.jpg","date":"2012-03-20","year":2012,"month":3,"lon":7.005136,"lat":45.440098,"tags":"2012,claret,col,france,grande,iseran,isere,motte,tignes,val","S2CellId":"4777c00000000000","result":3426,"accuracy":0.048770677,"title":"DSCN0116","description":"Col+de+la+Iseran+-+Tignes+%2F+Val+d+Isere%2C+France"}
{"id":2813098437,"url":"http://farm4.staticflickr.com/3020/2813098437_14805799c1.jpg","path":"d1f/646/d1f64648c9facab8da7f4637358e4da1.jpg","date":"2008-08-23","year":2008,"month":8,"lon":7.235595,"lat":45.753727,"tags":"fenis","S2CellId":"4788c00000000000","result":3631,"accuracy":0.21270867,"title":"Castello+di+F%C3%A9nis"}
{"id":3402001769,"url":"http://farm4.staticflickr.com/3442/3402001769_b1c7acf232.jpg","path":"3cf/ccc/3cfcccb4a1cf8432ca307952f5c8d2.jpg","date":"2009-03-31","year":2009,"month":3,"lon":7.734203,"lat":45.92465,"tags":"alpes,alps,breuil,cervinia,esqui,it%C3%A1lia,italy,montanha,mountain,neve,ski,snow","S2CellId":"478f900000000000","result":3690,"accuracy":0.12233502,"title":"P1012740","description":"No+Kleine+Matterhorn+a+3.883+metros+de+altitude%2C+-10%C2%BA+de+temperatura+e+vento+a+57+Km%2Fh"}
{"id":6254792020,"url":"http://farm7.staticflickr.com/6110/6254792020_b6c570c5f6.jpg","path":"ae3/df0/ae3df0317687a7d9cdd917d496eb0.jpg","date":"2011-07-27","year":2011,"month":7,"lon":7.524604,"lat":45.97955,"tags":"alpen,alperna,alpes,alpi,alps,arolla,glaci%C3%A4r,glacier,glacier+d%27arolla,gletscher,haut+glacier,haut+glacier+d%27arolla,schweiz,suisse,switzerland,tour+du+cervin,tour+du+mont+cervin,valais,wallis","S2CellId":"6d2b000000000000","result":6808,"accuracy":0.13330771,"title":"2011-07-27","description":"Arolla.+Marche+vers+le+glacier."}
{"id":8728041469,"url":"http://farm8.staticflickr.com/7364/8728041469_8954032ff7.jpg","path":"bb1/e31/bb1e318bc94263cc19d6eb8de55b8d.jpg","date":"2013-05-11","year":2013,"month":5,"lon":7.255055,"lat":45.701237,"tags":"bees,enki22,nature","S2CellId":"185c000000000000","result":1431,"accuracy":0.025863245,"title":"my+bees"}
{"id":4777077661,"url":"http://farm5.staticflickr.com/4098/4777077661_e094560b47.jpg","path":"ecd/c87/ecdc873c21629228583120e21ad359.jpg","date":"2010-05-30","year":2010,"month":5,"lon":7.681996,"lat":45.04789,"tags":"architecture,art+nouveau,liberty,torino,valentino,villa+javelli","S2CellId":"4794900000000000","result":3732,"accuracy":0.009376476,"title":"Art+Nouveau+Decoration","description":"Detail+of+Villa+Javelli+%281904%29"}
{"id":8175542366,"url":"http://farm9.staticflickr.com/8199/8175542366_2af943abc0.jpg","path":"9f9/f1b/9f9f1bdb3c77d9a139f4e2b745bacc29.jpg","date":"2012-11-08","year":2012,"month":11,"lon":7.684571,"lat":45.054688,"tags":"arancione,autunno,foglie,italia,italy,naranjo,oto%C3%B1o,panorama,torino,turin,viale+alberato","S2CellId":"0d42289c00000000","result":376,"accuracy":0.011006634,"title":"Viale+alberato+autunnale+Valentino"}
{"id":12972439445,"url":"http://farm8.staticflickr.com/7370/12972439445_b57ecb27d8.jpg","path":"77b/aef/77baef642fc299dc5764b031c7d952.jpg","date":"2014-02-24","year":2014,"month":2,"lon":7.617827,"lat":45.83116,"tags":"gatti,igloo,neve","S2CellId":"4ec0000000000000","result":5959,"accuracy":0.042980205,"title":"IMG_5414"}
{"id":303568324,"url":"http://farm1.staticflickr.com/100/303568324_a6c5d31f0a.jpg","path":"9a9/1bd/9a91bd32899e35e8b3377381144e21.jpg","date":"2004-10-23","year":2004,"month":10,"lon":7.696995,"lat":45.064106,"tags":"party,pepi","S2CellId":"80c8c3c000000000","result":7231,"accuracy":0.010610494,"title":"IMGP2434"}
{"id":2216731906,"url":"http://farm3.staticflickr.com/2114/2216731906_c1f2b03ae1.jpg","path":"2ab/799/2ab799446de0383887a59d94fc43612.jpg","date":"2007-01-27","year":2007,"month":1,"lon":7.523902,"lat":45.031956,"tags":"http%3A%2F%2Fgalimbertinet.eu,rivalta,rivalta+di+torino,tetti","S2CellId":"0d71fcd000000000","result":584,"accuracy":0.07790137,"title":"Rivalta+-3-","description":"I+tetti+di+Rivalta+di+Torino+visti+da+casa+mia"}
{"id":5961787429,"url":"http://farm7.staticflickr.com/6124/5961787429_f61c058887.jpg","path":"6b1/010/6b10107829eeb4d74fca7095c25338f5.jpg","date":"2011-07-21","year":2011,"month":7,"lon":7.705399,"lat":45.06951,"tags":"acqua,olympic+stadium,parco,park,simmetria,stadio,stadio+olimpico,stadium,symmetry,torino,turin,water","S2CellId":"48761d7000000000","result":5354,"accuracy":0.22892863,"title":"diagonal+3"}
{"id":100224118,"url":"http://farm1.staticflickr.com/26/100224118_35009bb47b.jpg","path":"2dd/35d/2dd35d5f86508a4efd17ae6926525784.jpg","date":"2005-12-10","year":2005,"month":12,"lon":7.657856,"lat":45.033714,"tags":"olympic,torino,torino2006,turin,village","S2CellId":"47d8a81000000000","result":4442,"accuracy":0.0592118,"title":"Colors+of+the+Village","description":"buildings+of+the+Olympic+Village+Torino"}
{"id":170675882,"url":"http://farm1.staticflickr.com/63/170675882_fa1b0bc387.jpg","path":"938/97d/93897deed23522e49244262fcf5c9.jpg","date":"2006-06-17","year":2006,"month":6,"lon":7.671203,"lat":45.08079,"tags":"gay,gay+pride,italia,pride,torino,torino+pride","S2CellId":"54906ad000000000","result":6216,"accuracy":0.029373623,"title":"Torino+Pride%3A+Happy+Couple"}
{"id":5107260938,"url":"http://farm2.staticflickr.com/1395/5107260938_eb40840c14.jpg","path":"d68/0bd/d680bd443de1c028277d4c754d27cbf.jpg","date":"2010-10-23","year":2010,"month":10,"lon":7.06644,"lat":45.036655,"tags":"18-55,alberi,alpen,alpi,alps,assietta,autumn,clouds,d40,fall,fenestrelle,fog,forte,hdr,montagna,montagne,mountains,natura,naturale,nature,nikkor,nikon,nuvole,orsiera,parco,rocciavr%C3%A8,strada,trees,vincenzo+giordano,white,wild","S2CellId":"0c60500000000000","result":148,"accuracy":0.023428015,"title":"Orsiera+HDR"}
{"id":5829732359,"url":"http://farm3.staticflickr.com/2793/5829732359_3385ecb690.jpg","path":"794/011/79401192b10c58332c4b923b8e5931.jpg","date":"2011-06-13","year":2011,"month":6,"lon":7.695645,"lat":45.074684,"tags":"aziende,gioielli,impresa,imprese,lusso,made+in+torino,mattioli+gioielli,provincia,torino,turismo,turismotorino.org,visita,visita+guidata","S2CellId":"4788300000000000","result":3616,"accuracy":0.4042209,"title":"MadeinTorino_Mattioli_1464"}
{"id":6420993007,"url":"http://farm7.staticflickr.com/6053/6420993007_2382294f08.jpg","path":"2f6/ddd/2f6ddd26aa5c96320ffc7ffd2c57c10.jpg","date":"2011-11-25","year":2011,"month":11,"lon":7.732894,"lat":45.112087,"tags":"aurora,aziende,impresa,imprese,lusso,made+in+torino,penna,provincia,torino,turismo,turismotorino.org,visita,visita+guidata","S2CellId":"4788300000000000","result":3616,"accuracy":0.4453013,"title":"MadeinTorino_Aurora_6814"}
{"id":6273375119,"url":"http://farm7.staticflickr.com/6237/6273375119_2f3f3833c5.jpg","path":"177/9b4/1779b4fa132a5f3a13138a01c5b78a9.jpg","date":"2011-07-28","year":2011,"month":7,"lon":7.585716,"lat":45.89622,"tags":"alpen,alperna,alpes,alpi,alps,aoste,cignana,italia,italie,italien,italy,lac+de+tsignanaz,lago+di+cignana,tour+du+cervin,tour+du+mont+cervin,tsignanaz,val+d%27aoste,valle+d%27aosta,valtournenche","S2CellId":"a9d5c00000000000","result":9945,"accuracy":0.042322587,"title":"2011-07-28","description":"Valtournenche.+Vue+sur+le+Lago+di+Cignana."}
{"id":1845386867,"url":"http://farm3.staticflickr.com/2366/1845386867_ca03ee7be7.jpg","path":"df8/d27/df8d271beac51965e96e33df4c32c7f4.jpg","date":"2007-11-02","year":2007,"month":11,"lon":7.693176,"lat":45.102608,"tags":"buildings,circoscrizione5,edifici,giampaolosquarcina,murder+house,nikon+d40,torino,torinonord,turin","S2CellId":"132f605500000000","result":1084,"accuracy":0.054721013,"title":"Murder+House+6","description":"Nel+settembre+2006%2C+in+questo+stabile+torinese+fatiscente+di+via+Stradella+viene+uccisa+Debora+Rossi%2C+20+anni.+La+casa+%C3%A8+un+vecchio+e+modesto+stabile+di+ringhiera%2C+dove+vivono+numerose+famiglie+di+extracomunitari.+Agli+appartamenti+si+accede+direttamente+dal+ballatoio."}
{"id":4891600166,"url":"http://farm5.staticflickr.com/4078/4891600166_43145d5b08.jpg","path":"8f6/675/8f66751fddfca1f2e43b1983cc4be66.jpg","date":"2010-08-13","year":2010,"month":8,"lon":7.697789,"lat":45.06338,"tags":"panorama,torino,turin","S2CellId":"478ff00000000000","result":3693,"accuracy":0.053290628,"title":"turin_pano"}
{"id":2143659232,"url":"http://farm3.staticflickr.com/2048/2143659232_500a4c04db.jpg","path":"cd4/f30/cd4f301d244685c8fa5d77f2896c0.jpg","date":"2005-07-23","year":2005,"month":7,"lon":7.018032,"lat":45.44544,"tags":"2005,frankreich,motorrad","S2CellId":"4783700000000000","result":3551,"accuracy":0.1543262,"title":"Val+d%27Is%C3%A8re"}
{"id":6030226762,"url":"http://farm7.staticflickr.com/6208/6030226762_b84b361ede.jpg","path":"70f/454/70f454b769808d3f60f0bc21f72ee446.jpg","date":"2011-08-09","year":2011,"month":8,"lon":7.468986,"lat":45.10939,"tags":"5000,blu,blue,by,caos,citt%C3%A0,city,d,d5000,dall%27alto,di,fari,hour,kaos,lampioni,landscape,landscapes,lights,luci,macchine,monte,musin%C3%A8,musine,night,nikkor,nikon,nocturnal,notte,notturna,ora,panorama,panoramica,panorma,piedmont,piemonte,strada,strade,street,streets,thebluehour,time,torinese,torino,turin,una,vista,visuale","S2CellId":"132cf00000000000","result":1053,"accuracy":0.023652889,"title":"A+night+in+Turin","description":"Vista+panoramica+di+Torino%2C+presa+dal+Monte+Musin%C3%A8+nei+pressi+di+Caselette.+Unico+rammarcio%2C+non+aver+avuto+molto+modo+di+scegliere+l%27inquadratura%2C+in+bilico+sul+dirupo+con+il+mio+fedele+cavalletto....+Un+grazie+comunque+a+Fabio+Baldi+per+l%27escursione+serale%21"}
{"id":6254484274,"url":"http://farm7.staticflickr.com/6233/6254484274_3573937b7d.jpg","path":"ff8/f4b/ff8f4b18f19c24892fe46bc357381b.jpg","date":"2011-10-16","year":2011,"month":10,"lon":7.661461,"lat":45.025177,"tags":"fitness+winter","S2CellId":"80dd330000000000","result":7378,"accuracy":0.5052715,"title":"PA165249","description":"OLYMPUS+DIGITAL+CAMERA"}
{"id":8470676509,"url":"http://farm9.staticflickr.com/8532/8470676509_cb7fd5c650.jpg","path":"5c1/418/5c1418e71a77ae59f0a994e18b9f1630.jpg","date":"2013-02-03","year":2013,"month":2,"lon":7.313111,"lat":45.73392,"tags":"2013,aosta,aoste,coll%C3%A9giale+de+saint-ours,italie,italy,lovevda,vall%C3%A9e+d%27aoste","S2CellId":"4772c00000000000","result":3389,"accuracy":0.08766266,"title":"Coll%C3%A9giale+de+Saint-Ours"}
{"id":8935897648,"url":"http://farm6.staticflickr.com/5452/8935897648_9bbf6b891d.jpg","path":"fec/d93/fecd937c8df3ef912e3d352386115a44.jpg","date":"2013-05-21","year":2013,"month":5,"lon":7.879986,"lat":45.46624,"tags":"artist,black,bn,bw,canon,d,ermenegildo,ivrea,lukino,mkii,nilson,pose,street,sunglasses,urban,weed,white","S2CellId":"4888469000000000","result":5738,"accuracy":0.010590737,"title":".Weed","description":"%3Cb%3EWeed+in+black%3C%2Fb%3E"}
{"id":47653000,"url":"http://farm1.staticflickr.com/32/47653000_4238ca7222.jpg","path":"f56/1f1/f561f12cc119654426e6eb41909430e9.jpg","date":"2005-09-10","year":2005,"month":9,"lon":7.959594,"lat":45.140884,"tags":"aircraft,airplanes,beaver,dehavilland,dhc-2,model,plane,rc","S2CellId":"6bb0000000000000","result":6777,"accuracy":0.016698718,"title":"De+Havilland+DHC-2+Beaver","description":"My+old+De+Havilland+DHC-2+Beaver%2C+4-strokes+engine%2C+all+balsa+including+wings%2C+%22City+of+Auckland%22+markings.+The+original+crash-landed+in+Antarctica+in+1960%2C+crew+rescued+unharmed+after+five+days+in+a+storm+on+the+glacier+they+landed+on."}
{"id":1828759567,"url":"http://farm3.staticflickr.com/2248/1828759567_bdddac3ac9.jpg","path":"f68/3cb/f683cbc1c6f5542d3fe32b71e97c3444.jpg","date":"2007-11-02","year":2007,"month":11,"lon":7.874622,"lat":45.50358,"tags":"autunno,castello,castle,cavallaria,chiaverano,color,eporedia,italia,italy,ivrea,lago,montalto,sirio,spring,tree,vespeter","S2CellId":"47bee40000000000","result":4111,"accuracy":0.019004067,"title":"spring4"}
{"id":193815695,"url":"http://farm1.staticflickr.com/76/193815695_1ecaff0d16.jpg","path":"7c7/18b/7c718b4de21beaeb56efa11d65f338c7.jpg","date":"2006-04-17","year":2006,"month":4,"lon":7.69309,"lat":45.068974,"tags":"antonelliana,italia,italy,mole,moleantonelliana,torino,turin","S2CellId":"47886d7000000000","result":3626,"accuracy":0.68398404,"title":"Mole+antonelliana","description":"A+little+photo+of+Mole+Antonelliana+%0A%3Ca+href%3D%22http%3A%2F%2Fen.wikipedia.org%2Fwiki%2FMole_Antonelliana%22%3EMole+Antonelliana+in+Wikipedia%3C%2Fa%3E"}
{"id":5506670819,"url":"http://farm6.staticflickr.com/5212/5506670819_81e4698fe1.jpg","path":"7bf/da4/7bfda4edec61b05bbca3ab27a99c7db.jpg","date":"2011-01-07","year":2011,"month":1,"lon":7.619018,"lat":45.140972,"tags":"baroque,church,dome,interior,palace,royal,savoia,venaria","S2CellId":"9662c5b000000000","result":9881,"accuracy":0.047489848,"title":"Hubert","description":"La+Venaria+Reale%2C+winter+2011"}
{"id":2581126958,"url":"http://farm4.staticflickr.com/3183/2581126958_238d6c7020.jpg","path":"a46/f2e/a46f2e631ee813105e4526307711a05.jpg","date":"2008-06-14","year":2008,"month":6,"lon":7.445672,"lat":45.0256,"tags":"2008,d80,fiori,flowers,giglio,italia,italy,lily,natura,nature,nikon,piedmont,piemonte,sangano,torino","S2CellId":"0d56c00000000000","result":472,"accuracy":0.017349105,"title":"15.06.08+-+Sangano+-+Gigli+Variopinti+-+02","description":"Sangano+-+Fiori+del+nostro+giardino+-++15.06.2008"}
{"id":5306592098,"url":"http://farm6.staticflickr.com/5285/5306592098_b46e9ce1c1.jpg","path":"281/ae4/281ae4edcaea6b9b4773bd104a9212.jpg","date":"2010-12-30","year":2010,"month":12,"lon":7.662363,"lat":45.082985,"tags":"35mm,daisy,fiori,flowers,margherite,nikon,white","S2CellId":"47c5c30000000000","result":4284,"accuracy":0.028375672,"title":"Margherite"}
{"id":6227592746,"url":"http://farm7.staticflickr.com/6111/6227592746_8fa4f230de.jpg","path":"552/883/552883016a2b82f841d66759c04a3a.jpg","date":"2011-10-08","year":2011,"month":10,"lon":7.650947,"lat":45.074368,"tags":"italia,scarpe,shoes,superga","S2CellId":"47954f0000000000","result":3742,"accuracy":0.00245348,"title":"Superga+%281911-2011%29"}
{"id":13799685595,"url":"http://farm4.staticflickr.com/3757/13799685595_327ff1658a.jpg","path":"dd9/4d1/dd94d1974977de3a9bf785a4c1b6a.jpg","date":"2014-04-12","year":2014,"month":4,"lon":7.665897,"lat":45.029,"tags":"fumetti,italy,piemonte,torino,torino+comics+torino+piemonte+italy","S2CellId":"6b9c000000000000","result":6776,"accuracy":0.29675847,"title":"DSC_8298","description":"12+aprile+2014%3A+Torino+Comics"}
{"id":1829595944,"url":"http://farm3.staticflickr.com/2376/1829595944_e7f173ba59.jpg","path":"78b/07f/78b07f7ed1942a401cafc06c606448f.jpg","date":"2007-11-02","year":2007,"month":11,"lon":7.874622,"lat":45.50358,"tags":"autunno,castello,castle,cavallaria,chiaverano,color,eporedia,italia,italy,ivrea,lago,montalto,sirio,spring,tree,vespeter","S2CellId":"8842400000000000","result":8397,"accuracy":0.0071389307,"title":"spring5"}
{"id":2488003323,"url":"http://farm4.staticflickr.com/3116/2488003323_1df1f346c4.jpg","path":"6f4/f20/6f4f20fcf1154f44bab5b60b299d73c.jpg","date":"2008-05-04","year":2008,"month":5,"lon":7.766915,"lat":45.080463,"tags":"italy,piedmont,superga,turin,vacation","S2CellId":"4781500000000000","result":3531,"accuracy":0.05852775,"title":"View+from+Superga"}
{"id":6288678350,"url":"http://farm7.staticflickr.com/6045/6288678350_5d55c401b6.jpg","path":"29f/ff8/29fff87718c8fe3a2780c858c936dfbd.jpg","date":"2011-10-12","year":2011,"month":10,"lon":7.663725,"lat":45.09191,"tags":"italia,italy,paesaggi+urbani,parrocchia+del+santo+volto,piedmont,piemonte,sooc,torino,turin,urban+landscapes","S2CellId":"94ce59cc00000000","result":9720,"accuracy":0.010717517}
{"id":4825113335,"url":"http://farm5.staticflickr.com/4082/4825113335_744560c2ac.jpg","path":"103/9c5/1039c583c272abeeedcb2758f073ae.jpg","date":"2010-07-05","year":2010,"month":7,"lon":7.751369,"lat":45.98384,"tags":"gagenhaupt,hiking,streambed,switzerland","S2CellId":"5488c00000000000","result":6153,"accuracy":0.016015505,"title":"streambed+at+Gagenhaupt","description":"looking+through+the+shallow+water"}
{"id":8082628504,"url":"http://farm9.staticflickr.com/8330/8082628504_5f7aaf4512.jpg","path":"a76/36a/a7636a5ec7dd3be7e9c54efc44da11.jpg","date":"2012-09-23","year":2012,"month":9,"lon":7.739666,"lat":45.091167,"tags":"bertolla,isola,isolone,meisino,parco","S2CellId":"4779300000000000","result":3433,"accuracy":0.054435227,"title":"Parco+del+Meisino+Isolone+Bertolla+38","description":"MEISINO+E+ISOLONE+DI+BERTOLLA+-+Riserva+naturale+speciale%0AQuesta+riserva%2C+che+si+estende+su+una+superficie+di+245+ettari%2C+%C3%A8+situata+alla+confluenza+tra+la+Stura+di+Lanzo+ed+il+Po%2C+nei+comuni+di+Torino+e+di+San+Mauro+Torinese.%0AAll%27interno+dei+confini+della+riserva+si+trova+anche+l%27Isolone+di+Bertolla%2C+delimitato+a+sud+dal+Po+ed+a+nord+dal+canale+dell%27Azienda+Energetica+Metropolitana.+L%27isolone+rappresenta+una+vera+oasi+naturalistica+in+citt%C3%A0%2C+preservata+dall%27aggressione+edilizia+proprio+grazie+alla+sua+inaccessibilit%C3%A0.+Di+particolare+eccezionalit%C3%A0+%C3%A8+la+presenza+sui+pioppi+dell%27isolone+di+una+garzaia+di+aironi+cenerini%2C+unico+esempio+in+Italia+di+garzaia+urbana.+Sui+terreni+dell%27isola+attualmente+coltivati+a+pioppeto+sono+in+corso+interventi+di+rinaturalizzazione%2C+voluti+dal+Comune+di+Torino+e+dall%27Ente+Parco+del+Po.%0AAnche+la+restante+parte+della+riserva%2C+nonostante+l%27elevata+pressione+antropica+ai+suoi+confini%2C+risulta+interessante+dal+punto+di+vista+vegetale+ed+ornitologico.+Nella+riserva+si+possono+osservare+pi%C3%B9+di+100+specie+di+uccelli%2C+tra+cui+alcune+rare%2C+con+prevalenza+di+specie+tuffatrici%2C+come+gli+svassi+ed+il+tuffetto.+Nei+pressi+del+bacino+creato+dalla+diga+del+Pascolo%2C+tra+canneti+e+gigli+d%27acqua+nidificano+numerose+specie+di+uccelli%2C+quali+lo+svasso+maggiore%2C+il+germano+reale+e+la+gallinella+d%27acqua.%0ALungo+il+canale+dell%27A.E.M.+a+nord+dell%27Isolone+di+Bertolla+corre+un+tratto+della+pista+ciclabile%2C+realizzata+dal+comune+di+Torino%2C+che+collega+San+Mauro+Torinese+a+Moncalieri+costeggiando+il+Po.%0AProvincia%3A+Torino%0AComuni%3A+San+Mauro+Torinese%2C+Torino"}
{"id":2872363676,"url":"http://farm4.staticflickr.com/3161/2872363676_7a5c8597f8.jpg","path":"79d/0a9/79d0a912ba135670b995ea56491a52c1.jpg","date":"2008-09-13","year":2008,"month":9,"lon":7.347793,"lat":45.737984,"tags":"aosta2008,austalianshepherd,goldcup1,i.a.s.a,switzerland,ticino","S2CellId":"4863940000000000","result":4863,"accuracy":0.02929342,"title":"IASA+Gold+Cup+1+-+Aosta+2008"}
{"id":7551503144,"url":"http://farm9.staticflickr.com/8152/7551503144_82ae7a9079.jpg","path":"a2f/634/a2f6343437c8830a25c40d83f66b5ee.jpg","date":"2007-07-06","year":2007,"month":7,"lon":7.638416,"lat":45.064186,"tags":"50%27s,buildings,streets,torino","S2CellId":"132f614000000000","result":1098,"accuracy":0.10133834,"title":"A+street+in+Torino","description":"This+building+is+typical+of+the+50%27s+%28or+early+60%27s%29.++Torino%2C+Italy%2C+6.7.2007.+Canon+Powershot+A630"}
{"id":3160184741,"url":"http://farm4.staticflickr.com/3256/3160184741_9fe1aa7c15.jpg","path":"33a/63c/33a63c566ccb10d367d21a42559c9115.jpg","date":"2009-01-02","year":2009,"month":1,"lon":7.982296,"lat":45.56199,"tags":"canon+eos+400d+digital,foto,grantuking+photo,muzzano,neve,snow","S2CellId":"94ce59f000000000","result":9723,"accuracy":0.007779581,"title":"Unknown"}
{"id":8364443463,"url":"http://farm9.staticflickr.com/8329/8364443463_ac62a73c7f.jpg","path":"a4a/72e/a4a72e768b58f4ac28b1561c8a4d897.jpg","date":"2012-10-14","year":2012,"month":10,"lon":7.029491,"lat":45.405254,"tags":"col,d902,france,l%27iseran,rh%C3%B4ne-alpes,savoie","S2CellId":"a9d5c00000000000","result":9945,"accuracy":0.28252086,"title":"_DSC6188","description":"Col+de++l%27Iseran+-+D902%2C+Savoie%2C+Rh%C3%B4ne-Alpes%2C+France"}
{"id":2582880473,"url":"http://farm4.staticflickr.com/3094/2582880473_e18a5487d6.jpg","path":"6d9/c5f/6d9c5fb6b01c9af2be080d0a8ca476.jpg","date":"2008-06-15","year":2008,"month":6,"lon":7.151525,"lat":45.05695,"tags":"lifecloseups,stambecco","S2CellId":"4789100000000000","result":3632,"accuracy":0.11349316,"title":"Stambecco","description":"%3Ci%3EYawn...%3C%2Fi%3E"}
{"id":8812234266,"url":"http://farm6.staticflickr.com/5321/8812234266_564dc46e48.jpg","path":"d06/777/d067773d6c143aa37b412272f0d3fa5.jpg","date":"2013-04-27","year":2013,"month":4,"lon":7.693166,"lat":45.069,"tags":"cinema,italia,italy,lamiatorino,mole,museo,torino,turin","S2CellId":"80c2bf5000000000","result":7182,"accuracy":0.006453851,"title":"Torino%2C+Museo+del+Cinema"}
{"id":245830604,"url":"http://farm1.staticflickr.com/95/245830604_9c3ade5719.jpg","path":"56f/3bf/56f3bffd9a5c931ea781c6d256f443da.jpg","date":"2006-09-07","year":2006,"month":9,"lon":7.674078,"lat":45.032333,"tags":"100,2006,dell%27automobile,harrison,italy,lancia,motor,museo,museum,photo,photography,photos,september,taken,tony,tony+harrison,torino,turin,www.tony-harrison.co.uk,years","S2CellId":"47a7400000000000","result":3897,"accuracy":0.023163259,"title":"IMG_7436"}
{"id":455662925,"url":"http://farm1.staticflickr.com/226/455662925_aa92adb63e.jpg","path":"4b4/23d/4b423d99c7ded8fecc8b6065adbfde.jpg","date":"2007-04-09","year":2007,"month":4,"lon":7.725791,"lat":45.071945,"tags":"bird,birds,birdwatching,cormorano,cormorant,phalacrocorax,po,torino,uccelli,uccello,volo","S2CellId":"88d0a631cabb5071","result":8563,"accuracy":0.041261088,"title":"Cormorano+%28Phalacrocorax+carbo%29"}
{"id":7171577212,"url":"http://farm8.staticflickr.com/7219/7171577212_1ec9b19ccd.jpg","path":"5b8/da1/5b8da1206d77cb769586477721f274af.jpg","date":"2012-05-09","year":2012,"month":5,"lon":7.342064,"lat":45.097336,"tags":"abbaye,abbazia,abbey,abside,b%C3%A9n%C3%A9dictin,choeur,fresque,italia,italie,italy,monast%C3%A8re,monasterio,nave,nef,pi%C3%A9mont,piemonte,roman,romanico,sacra+di+san+michele,san+michele,torino,turin","S2CellId":"4795700000000000","result":3745,"accuracy":0.078981504,"title":"Sacra+di+San+Michele%2C+Piemont%2C+Italie","description":"Abbaye+b%C3%A9n%C3%A9dictine+construite+%C3%A0+la+fin+du+Xe+si%C3%A8cle+%C3%A0+962m+d%27altitude+au-dessus+de+la+vall%C3%A9e+de+la+Doire+%C3%A0+quelque+vingt+kilom%C3%A8tres+%C3%A0+l%27ouest+de+Turin.%0ANef+de+l%27%C3%A9glise+abbatiale+de+style+roman+dans+l%27abside+%28XIIe+s.%29."}
{"id":8279057940,"url":"http://farm9.staticflickr.com/8204/8279057940_1904d07518.jpg","path":"318/ded/318ded721ff82f752a3a49c39fce237d.jpg","date":"2012-12-16","year":2012,"month":12,"lon":7.683434,"lat":45.080975,"tags":"hudson,instagram+app,iphoneography,square,square+format","S2CellId":"94ce700000000000","result":9730,"accuracy":0.004899838,"title":"in+caduta+quasi+libera"}
{"id":241794299,"url":"http://farm1.staticflickr.com/82/241794299_5bc49a219d.jpg","path":"ca2/be4/ca2be4a3ee814924b66c20703209e5d.jpg","date":"2006-09-09","year":2006,"month":9,"lon":7.682286,"lat":45.067566,"tags":"100,100th,carlo,celebrations,centenary,harrison,lancia,lmc,photo,photography,piazza,san,tony,tony+harrison,torino,turin,www.tony-harrison.co.uk,year","S2CellId":"12a4a27c00000000","result":716,"accuracy":0.11763101,"title":"Lancia+CENTENARY+Celebrations++TORINO+Turin+100+year+Piazza+San+Carlo+100th+IMG_8032"}
{"id":7991401156,"url":"http://farm9.staticflickr.com/8456/7991401156_49245efe34.jpg","path":"25b/d83/25bd83e0ab42cb70bced87eed26d9de0.jpg","date":"2012-08-22","year":2012,"month":8,"lon":7.692747,"lat":45.91151,"tags":"lake","S2CellId":"478f300000000000","result":3687,"accuracy":0.069008164,"title":"M.Roisetta+Valle+d%60Ayas++IMG_1122"}
{"id":13030478215,"url":"http://farm4.staticflickr.com/3713/13030478215_9c7db8fbf0.jpg","path":"57c/79d/57c79da9cca35a9c9261ba8ef5d320ad.jpg","date":"2014-03-09","year":2014,"month":3,"lon":7.665195,"lat":45.07055,"tags":"instagram+app,iphoneography,square,square+format","S2CellId":"808580f400000000","result":6959,"accuracy":0.0059590945,"title":"%23priorit%C3%A0dellavita"}
{"id":328605870,"url":"http://farm1.staticflickr.com/138/328605870_355403df81.jpg","path":"15a/78e/15a78efc3956f879db7ea07dc6ba66b1.jpg","date":"2006-12-20","year":2006,"month":12,"lon":7.64252,"lat":45.031044,"tags":"capanna,esterno,italy,natale,noknownpeople,nopeople,notte,paolo_cst,piemonte,presepe,scuola,torino,ultimogiornotilab","S2CellId":"47e61d1d00000000","result":4562,"accuracy":0.077279076,"title":"12+Tende+e+canti+sotto+la+capanna"}
{"id":1952394077,"url":"http://farm3.staticflickr.com/2409/1952394077_7ebd87445e.jpg","path":"9c5/d83/9c5d834cf1d5942a1f8aa1b08e2b356.jpg","date":"2007-11-03","year":2007,"month":11,"lon":7.682704,"lat":45.06908,"tags":"d80,italia,italy,night,nikon,notte,photowalk,piedmont,piemonte,torino,turin","S2CellId":"132f61a500000000","result":1102,"accuracy":0.1200851,"title":"071103+-+Torino+-+23+-+Photowalk","description":"Photowalk+a+Torino+-+03%5C11%5C2007"}
{"id":5096323675,"url":"http://farm5.staticflickr.com/4085/5096323675_4236d2ddca.jpg","path":"443/53a/44353a32b8d8b8ee40c4452bb1aecef1.jpg","date":"2010-10-19","year":2010,"month":10,"lon":7.695879,"lat":45.068924,"tags":"insetti","S2CellId":"95b5000000000000","result":9826,"accuracy":0.017167704,"title":"Arrampicarsi+sui+vetri","description":"Insetto+autunnale+che+si+arrampica+sul+vetro+della+mia+finestra...+Se+a+qualcuno+servisse%2C+ho+anche+le+foto+fatte+dall%27altro+lato.+E+se+qualcuno+sapesse+come+si+chiama..."}
{"id":8824542982,"url":"http://farm3.staticflickr.com/2891/8824542982_33d7b740a2.jpg","path":"e3d/12f/e3d12f9a8d16dee78591de56f86ee4.jpg","date":"2013-05-25","year":2013,"month":5,"lon":7.735028,"lat":45.07742,"tags":"inkwell,instagram+app,iphoneography,square,square+format","S2CellId":"4879c30000000000","result":5500,"accuracy":0.0044548074,"title":"Carta+pinchi"}
{"id":2473669835,"url":"http://farm3.staticflickr.com/2368/2473669835_c2ac536cf4.jpg","path":"3cf/d34/3cfd343cc52163996e8a841a62a6dce.jpg","date":"2008-05-02","year":2008,"month":5,"lon":7.291831,"lat":45.089397,"tags":"%D0%B0%D0%BB%D1%8C%D0%BF%D1%8B,%D0%B2%D0%B0%D0%BB%D0%BB%D0%B5+%D0%B4%D0%B8+%D1%81%D1%8E%D0%B7%D0%B0,%D0%B2%D0%B5%D1%81%D0%BD%D0%B0,%D0%B3%D0%BE%D1%80%D1%8B,%D0%B8%D1%82%D0%B0%D0%BB%D0%B8%D1%8F,%D0%BB%D1%83%D0%B3,%D0%BF%D0%B0%D1%81%D1%82%D0%B1%D0%B8%D1%89%D0%B5,%D0%BF%D0%B5%D0%B9%D0%B7%D0%B0%D0%B6,%D0%BF%D0%BE%D0%BB%D1%8F,%D1%82%D1%80%D0%B0%D0%B2%D0%B0,blooming+tree,campagnia,erba,fields,grass,italia,italy,landscape,meadow,montagna,mountains,paesaggio,pascoli,pascolo,pasture,prati,primavera,spring,valle+di+susa","S2CellId":"4754000000000000","result":3297,"accuracy":0.05502422,"title":"Alpine+meadows.+%D0%90%D0%BB%D1%8C%D0%BF%D0%B8%D0%B9%D1%81%D0%BA%D0%B8%D0%B5+%D0%BF%D0%B0%D1%81%D1%82%D0%B1%D0%B8%D1%89%D0%B0","description":"Val+di+Susa."}
{"id":5724706394,"url":"http://farm4.staticflickr.com/3312/5724706394_5c8db28a75.jpg","path":"301/fd4/301fd4f1e16f6e79a2694e9f347a5.jpg","date":"2011-05-16","year":2011,"month":5,"lon":7.682694,"lat":45.07066,"tags":"campagna+elettorale,fassino,gran+torino,pd,sindaco,torino,west+wing+all%27italiana","S2CellId":"0d42287d00000000","result":368,"accuracy":0.026527263,"title":"Notti+Elettorali","description":"Notte+prima+dei+risultati"}
{"id":521025922,"url":"http://farm1.staticflickr.com/241/521025922_10e4ee075c.jpg","path":"bc5/f7d/bc5f7d8625c285dde660c53f91a6f4d6.jpg","date":"2007-05-10","year":2007,"month":5,"lon":7.455382,"lat":45.113785,"tags":"2007,campagna,campi,casellette,citt%C3%A0,esterno,gita,gitasulmusin%C3%A8,italy,musin%C3%A8,noknownpeople,nopeople,panorama,paolo_cst,piemonte,riflessi,tramonto","S2CellId":"47869c0000000000","result":3579,"accuracy":0.022165814,"title":"58+La+nostra+ombra+finisce+laggi%C3%B9"}
{"id":6675550583,"url":"http://farm8.staticflickr.com/7149/6675550583_b0ab748614.jpg","path":"f02/cfe/f02cfe35a1ba3449189b7e3dda5927.jpg","date":"2012-01-08","year":2012,"month":1,"lon":7.684636,"lat":45.07038,"tags":"canoniani,luci+d%27artista,torino","S2CellId":"477eb1d740000000","result":3481,"accuracy":0.15924253,"title":"luci+d%27artista+torino+%237"}
{"id":5478432559,"url":"http://farm6.staticflickr.com/5251/5478432559_7f49b62252.jpg","path":"4b1/ab9/4b1ab90b5a5691c290bcad7d653e.jpg","date":"2011-02-26","year":2011,"month":2,"lon":7.66556,"lat":45.032494,"tags":"2010,cibo,eat,food,salone+del+gusto,slow+food,torino,turin","S2CellId":"3a52400000000000","result":2515,"accuracy":0.008481877,"title":"Salone+del+Gusto+2010"}
{"id":6271859366,"url":"http://farm7.staticflickr.com/6038/6271859366_eec33c2d2c.jpg","path":"4d1/1c8/4d11c8d82419882d817b52f8d71c85.jpg","date":"2011-07-28","year":2011,"month":7,"lon":7.572326,"lat":45.904583,"tags":"alpen,alperna,alpes,alpi,alps,aoste,cignana,cignana+lake,italia,italie,italien,italy,lac+de+tsignanaz,lago+di+cignana,perucca+vuillermoz,refuge+perucca+vuillermoz,rifugio+perucca+vuillermoz,tour+du+cervin,tour+du+mont+cervin,tsignanaz,val+d%27aoste,valle+d%27aosta,valtournenche","S2CellId":"4777400000000000","result":3425,"accuracy":0.04485032,"title":"2011-07-28","description":"Valtournenche.+Le+Lago+di+Cignana+vu+depuis+le+refuge+Perucca+Vuillermoz."}
{"id":5350482860,"url":"http://farm6.staticflickr.com/5130/5350482860_8e22a21f45.jpg","path":"6df/8f4/6df8f4328d892dea67939842a87934d.jpg","date":"2011-01-03","year":2011,"month":1,"lon":7.694292,"lat":45.06541,"tags":"italia,italy,torino,turin","S2CellId":"47b3100000000000","result":4017,"accuracy":0.011506403,"title":"murazzi"}
{"id":6113974351,"url":"http://farm7.staticflickr.com/6193/6113974351_d5a21aef97.jpg","path":"d2c/182/d2c1827d79e67bdbb92444f3ec47b188.jpg","date":"2011-08-04","year":2011,"month":8,"lon":7.3956,"lat":45.87773,"tags":"2010,asino,crete+seche,d80,donkey,italy,montagna,mountain,nikon,refuge,rifugio,valpelline,vda","S2CellId":"4778700000000000","result":3430,"accuracy":0.042458415,"title":"2011_26_ValPelline"}
{"id":2035986468,"url":"http://farm3.staticflickr.com/2077/2035986468_fd0e25de5c.jpg","path":"1ae/09b/1ae09bebb0dc194dc51ebbb41f6d216e.jpg","date":"2006-08-16","year":2006,"month":8,"lon":7.530082,"lat":45.139896,"tags":"coolpix4300,drops,lemon,nikon,rain","S2CellId":"12a49d0000000000","result":704,"accuracy":0.24276757,"title":"Lemons"}
{"id":6255104918,"url":"http://farm7.staticflickr.com/6111/6255104918_6103c2f798.jpg","path":"2b5/df8/2b5df8c3d9175d1b7f78656ed6641ee.jpg","date":"2011-09-17","year":2011,"month":9,"lon":7.665367,"lat":45.0597,"tags":"animal,cat,coon,dormire,gatto,havana,maine,sleep","S2CellId":"47edc00000000000","result":4703,"accuracy":0.068868674,"title":"relax"}
{"id":6727822975,"url":"http://farm8.staticflickr.com/7154/6727822975_b63ecf8363.jpg","path":"e55/ee3/e55ee35f6b42e1686eb27ff71cbb3c0.jpg","date":"2012-01-05","year":2012,"month":1,"lon":7.684271,"lat":45.069317,"tags":"carignano,eleonora,eleonoramoro,moro,pinocchio,stabile,teatro,theater,torino","S2CellId":"47e67db000000000","result":4682,"accuracy":0.1548496,"title":"DSC_5949"}
{"id":8690209980,"url":"http://farm8.staticflickr.com/7044/8690209980_d15993830d.jpg","path":"11c/736/11c73695d24941a9f83a2d1f1357f5e.jpg","date":"2010-03-06","year":2010,"month":3,"lon":7.703475,"lat":45.07158,"tags":"museo+nazionale+del+cinema","S2CellId":"0d47100000000000","result":398,"accuracy":0.026971612,"title":"15.++Museo+Nazionale+del+Cinema+Torino+24.IX.2009.","description":"Museo+Nazionale+del+Cinema+Torino+24.IX.2009.+2009+S+1875+Torino2_01_015"}
{"id":5914780059,"url":"http://farm6.staticflickr.com/5236/5914780059_9bc0d2ff7e.jpg","path":"b81/faf/b81fafbb7238b6176eaf36599bfe.jpg","date":"2010-09-19","year":2010,"month":9,"lon":7.489167,"lat":45.736942,"tags":"aosta,castello,castle,chateau,fenis,valle+d%27aosta","S2CellId":"94ce59f000000000","result":9723,"accuracy":0.0075810403,"title":"Fenis+19-09-2010+10-36-55"}
{"id":7248576612,"url":"http://farm9.staticflickr.com/8024/7248576612_95c39391fc.jpg","path":"ff9/77f/ff977fc294e6a7cd4c4907fca5db4a4.jpg","date":"2012-05-20","year":2012,"month":5,"lon":7.682848,"lat":45.06814,"tags":"calcio,diego+fornero,fc,juve,merda,serie+a,torino,toro","S2CellId":"89c25a1700000000","result":9048,"accuracy":0.044294707,"title":"We+are+bAck%21","description":"Torino+FC+back+to+Serie+A%21%0A20th+may+2012%0A%0A*news%3A+I%27m+starting+a+benefit+photography+project%2C+called+%22unconditional+love%22+of+people+portraited+with+their+dogs+%28%26+cats%29.+I%27ll+make+a+photoblog%2C+an+expo+and+maybe+something+printed%2C+to+help+a+dog+pound+close+to+Turin.%0AIf+you+would+like+to+be+portraited%2C+you%27re+welcome.+Feel+free+to+contact+me.+Thanks+all%21%0A%0A*news%3A+sto+per+intraprendere+un+progetto+fotografico+di+beneficenza%2C+chiamato+%22unconditional+love%22%2C+per+raffigurare+persone+ritratte+coi+propri+cani+%28o+gatti%29%2C+da+cui+trarre+un+photoblog%2C+un%27esposizione+e%2C+magari%2C+qualcosa+di+stampato%2C+il+tutto+a+favore+di+un+canile+vicino+a+Torino.%0ASe+vi+facesse+piacere+essere+ritratti%2C+contattatemi.+Grazie+a+tutti.%0A%0A%0A%3Ca+href%3D%22http%3A%2F%2Fwww.diegofornero.it%22+rel%3D%22nofollow%22%3Ewww.diegofornero.it%3C%2Fa%3E%0A%0A%3Cb%3E%3Ca+href%3D%22http%3A%2F%2Fwww.flickr.com%2Fphotos%2Fdestino2003%2Fcollections%2F72157625285628401%2F%22%3E+THIS+IS+MY+CITY+-+SHOTS+OF+TURIN%3C%2Fa%3E%0A%0A%3Ca+href%3D%22http%3A%2F%2Fwww.flickr.com%2Fphotos%2Fdestino2003%2Fsets%2F72157621081889232%2F%22%3E++VIEW+MY+TORINO+STREET+ART+%26+GRAFFITI+REPORTAGE%3C%2Fa%3E%0A%0A%3Ca+href%3D%22http%3A%2F%2Fwww.flickr.com%2Fphotos%2Fdestino2003%2Fsets%2F72157622603378250%2F%22%3EVIEW+MY+FAV+SHOTS%3C%2Fa%3E%0A%0A%3Ca+href%3D%22http%3A%2F%2Fwww.flickr.com%2Fphotos%2Fdestino2003%2Fsets%2F72157623116288813%2F%22%3EVIEW+MY+MOST+INTERESTING%3C%2Fa%3E%0A%0A%5B%5D%0A%3Ca+href%3D%22http%3A%2F%2Fflickrhivemind.net%2FUser%2Fdestino2003%2FInteresting%22+rel%3D%22nofollow%22%3Edestino%27s+FHM%3C%2Fa%3E%0A%3Ca+href%3D%22http%3A%2F%2Fihardlyknowher.com%2Fdestino2003%2Fbig%22+rel%3D%22nofollow%22%3EIHKH%3C%2Fa%3E%0A%3Ca+href%3D%22https%3A%2F%2Fplus.google.com%2Fu%2F0%2F110851499638124159012%2F%22+rel%3D%22nofollow%22%3EGOOGLE+PLUS%3C%2Fa%3E%0A%3Ca+href%3D%22https%3A%2F%2Fwww.facebook.com%2Fdiegofornerofotografia%22+rel%3D%22nofollow%22%3ELIKE+ME+ON+FB%3C%2Fa%3E%0A%5B%5D%3C%2Fb%3E"}
{"id":10401643223,"url":"http://farm6.staticflickr.com/5520/10401643223_9596dac75a.jpg","path":"9c1/a6d/9c1a6d9ac4191ddb8e45cf5f8ad0becb.jpg","date":"2013-08-01","year":2013,"month":8,"lon":7.682533,"lat":45.077885,"tags":"2dipicche+2+di+picche,alex+lucchesi,backstage,francesca+faiella,gangster,luca+ghignone,massimo+russo,mattia+puleo,movie,web+series,web+series+gangster","S2CellId":"3442aa5000000000","result":2062,"accuracy":0.083965115,"title":"2+di+Picche"}
{"id":13007205845,"url":"http://farm3.staticflickr.com/2763/13007205845_b95a27a228.jpg","path":"79d/819/79d819a89612e1272b5b253611aa9f.jpg","date":"2014-03-07","year":2014,"month":3,"lon":7.684122,"lat":45.048557,"tags":"canon+powershot+sx40+hs,ilmed.net,italia,piemonte,torino","S2CellId":"0d6dc00000000000","result":567,"accuracy":0.051443122,"title":"Street+Musician+1"}
{"id":106821468,"url":"http://farm1.staticflickr.com/36/106821468_e72495770b.jpg","path":"d88/4a9/d884a9e224a37b18d579d0e1debc8822.jpg","date":"2006-02-26","year":2006,"month":2,"lon":7.864151,"lat":45.48228,"tags":"2006,arance,battaglia,battaglia+delle+arance,bw,delle,italia,italy,ivrea,piemonte","S2CellId":"12d5840000000000","result":920,"accuracy":0.36298245,"title":"Ivrea+roof+tops"}
{"id":4592553565,"url":"http://farm4.staticflickr.com/3258/4592553565_842e75831f.jpg","path":"6d4/598/6d45985d2cc66281d363779bbd9e35fe.jpg","date":"2010-05-09","year":2010,"month":5,"lon":7.390365,"lat":45.06103,"tags":"avigliana,lago+grande","S2CellId":"477ac00000000000","result":3438,"accuracy":0.77982813,"title":"DSC_0040","description":"lago+Grande+di+Avigliana+da+una+delle+finestre+della+camera"}
{"id":6273891638,"url":"http://farm7.staticflickr.com/6112/6273891638_ae1514c176.jpg","path":"63b/82e/63b82ee3ad9beb7ffb874b2fd92fd030.jpg","date":"2011-07-28","year":2011,"month":7,"lon":7.585716,"lat":45.89622,"tags":"alpen,alperna,alpes,alpi,alps,aoste,italia,italie,italien,italy,tour+du+cervin,tour+du+mont+cervin,val+d%27aoste,valle+d%27aosta,valtournenche","S2CellId":"4788c00000000000","result":3631,"accuracy":0.06102125,"title":"2011-07-28","description":"Valtournenche.+Dans+la+descente+du+refuge+Perucca+Vuillermoz."}
{"id":7135464033,"url":"http://farm9.staticflickr.com/8150/7135464033_c4f8d09575.jpg","path":"d18/90a/d1890a8adcdb6ccf916edd6e83b82f1.jpg","date":"2012-04-20","year":2012,"month":4,"lon":7.889728,"lat":45.4762,"tags":"450d,camminamento,canavese,canon,change,colorful,italia,ivrea,lago,lake,molto,paradosso,perspective,primavera,reflections,riflessi,san+michele,saturation,sentiero,spring,track,upside-down","S2CellId":"45db000000000000","result":2757,"accuracy":0.050596353,"title":"lago+S.michele","description":"%3Cb%3ELago+San+Michele%0AIvrea%0ACanavese%0AItalia%3C%2Fb%3E"}
{"id":6694047239,"url":"http://farm8.staticflickr.com/7163/6694047239_74f01dc767.jpg","path":"12e/55a/12e55a7748da4062eb3b95a717cb4b3b.jpg","date":"2012-01-03","year":2012,"month":1,"lon":7.723217,"lat":45.76369,"tags":"frozen,gelo,giampaolosquarcina,ground,nikond40,terreno","S2CellId":"54866c0000000000","result":6114,"accuracy":0.0050270422,"title":"Architetture+del+gelo","description":"%3Ca+href%3D%22http%3A%2F%2Fwww.youtube.com%2Fwatch%3Fv%3DanJ8Knxoazc%22+rel%3D%22nofollow%22%3Ewww.youtube.com%2Fwatch%3Fv%3DanJ8Knxoazc%3C%2Fa%3E"}
{"id":4380315366,"url":"http://farm5.staticflickr.com/4028/4380315366_f7d8af6d20.jpg","path":"b5a/946/b5a946388695fa3f3056ef327ba0b790.jpg","date":"2010-02-21","year":2010,"month":2,"lon":7.771539,"lat":45.149403,"tags":"%E3%83%A9%E3%82%B0%E3%83%93%E3%83%BC,%E6%A9%84%E6%AC%96%E7%90%83%E9%A1%9E%E9%81%8B%E5%8B%95,biella+rugby,canon+eos+40d+digital,grantuking+photo,rugby","S2CellId":"47a3400000000000","result":3877,"accuracy":0.24250817,"title":"Rugby"}
{"id":4691768152,"url":"http://farm5.staticflickr.com/4056/4691768152_585432b5a5.jpg","path":"5f2/291/5f229137f0998b76587d15df05a28.jpg","date":"2010-05-22","year":2010,"month":5,"lon":7.494049,"lat":45.47229,"tags":"alpe,alpeggi,alpi,alpi+graie,alps,alta+via+canavesana,avc,bocchetta+rosta,camminare,camminata,canavese,cielo,cima+rosta,colle+crest,escursione,escursionismo,fiori,flower,flowers,gran+paradiso+national+park,gta,hiking,itinerari,landscapes,macro,maggio,may,montagna,montagne,monte+colombo,mountain,mountains,natura,naturalistica,nature,nikon,paesaggi,paesaggio,panorama,panorami,parco+nazionale+del+gran+paradiso,pian+delle+masche,pngp,primavera,provincia+di+torino,punta+vallone,ribordone,santuario+di+prascond%C3%B9,sentieri,sentiero,sisti,sisto,sky,sole,sparone,spring,sun,talosio,to,trekking,valle+dell%27orco,valle+di+locana,valle+di+ribordone,valle+soana,walking","S2CellId":"961c000000000000","result":9868,"accuracy":0.03830419,"title":"All%27ombra+della+%22torre%22...+%28Valle+di+Ribordone+-+TO%2C+Parco+Nazionale+del+Gran+Paradiso%2C+Piemonte%29","description":"I+passi+ci+portano+sotto+la+Torre+Roc%2C+alll%27ombra+delle+rocce+di+gneiss+che+rendono+vario+il+paesaggio+del+nostro+pregrinare.%0ALa+variet%C3%A0+del+caleidoscopio+del+paesaggio+di+montagna+si+f%C3%A0+pi%C3%B9+evidente%2C+con+l%27azzurro+del+cielo%2C+le+nevi+delle+cime%2C+i+pascoli%2C+la+vegetazione+che+si+risveglia+e+le+rocce+attorno+a+noi...%0A%0A%0A%28Valle+di+Ribordone+-+TO%2C+Parco+Nazionale+del+Gran+Paradiso%2C+Piemonte%29"}
{"id":8022895790,"url":"http://farm9.staticflickr.com/8462/8022895790_91828ffb63.jpg","path":"f4b/835/f4b83505c6392704546c5f740d1d2ef.jpg","date":"2012-08-25","year":2012,"month":8,"lon":7.847169,"lat":45.899456,"tags":"cilenti.it,e5,esystem,olympuse5,www.roberto,zuiko","S2CellId":"4615000000000000","result":2764,"accuracy":0.044615515,"title":"Gregge+e+P.+Vincent"}
{"id":39300710,"url":"http://farm1.staticflickr.com/28/39300710_ee45f26861.jpg","path":"0fe/0bb/0fe0bb645a1f687616670bb4ff1d5.jpg","date":"2005-08-29","year":2005,"month":8,"lon":7.281188,"lat":45.81923,"tags":"hiking,italy,mountains,valledaosta","S2CellId":"463f000000000000","result":2783,"accuracy":0.15811558,"title":"DSCF3737"}
{"id":2771676776,"url":"http://farm4.staticflickr.com/3242/2771676776_d70e323549.jpg","path":"9ab/890/9ab890d19a423fc2fe261d12afc3ba0.jpg","date":"2008-08-01","year":2008,"month":8,"lon":7.165489,"lat":45.512604,"tags":"aosta,grancollet,granparadiso,granparadisonationalpark,hiking,italy,mountains,parconazionaledelgranparadiso,pianodenivolet,pngp,valdaosta,walking","S2CellId":"873f000000000000","result":7805,"accuracy":0.052062094,"title":"Marsh+Plants","description":"On+the+Piano+de+Nivolet"}
{"id":6223833660,"url":"http://farm7.staticflickr.com/6211/6223833660_828061fa67.jpg","path":"5de/01b/5de01b631b41a3ca744a51c663cfdc5.jpg","date":"2011-10-08","year":2011,"month":10,"lon":7.600221,"lat":45.668583,"tags":"barbustel,parco,parco+del+mont+d%27avic,park,rifugio","S2CellId":"45db000000000000","result":2757,"accuracy":0.03492264,"title":"piccioncini"}
{"id":6261441496,"url":"http://farm7.staticflickr.com/6229/6261441496_e734e815b7.jpg","path":"b6a/770/b6a7705d3830f2a65a99ecc8a89956d.jpg","date":"2011-07-27","year":2011,"month":7,"lon":7.508468,"lat":45.935394,"tags":"alpen,alperna,alpes,alpi,alps,aoste,italia,italie,italien,italy,prarayer,tour+du+cervin,tour+du+mont+cervin,val+d%27aoste,valle+d%27aosta,valpelline","S2CellId":"4889300000000000","result":5756,"accuracy":0.1433889,"title":"2011-07-27","description":"Prarayer.+Dans+la+descente+du+refuge+Nacamuli."}
{"id":8225838533,"url":"http://farm9.staticflickr.com/8338/8225838533_0fc76325bf.jpg","path":"e71/363/e71363881ce7821bfa0cfc1ddca165.jpg","date":"2012-10-23","year":2012,"month":10,"lon":7.686899,"lat":45.05397,"tags":"castello+del+valentino,salone+d%27onore,torino","S2CellId":"47e67db000000000","result":4682,"accuracy":0.05212395,"title":"Gothic+chandelier","description":"al+Castello...+%5E_%5E"}
{"id":4260531638,"url":"http://farm5.staticflickr.com/4054/4260531638_575e96326f.jpg","path":"d9f/951/d9f951c1581fd71596384f55a792b9.jpg","date":"2009-08-06","year":2009,"month":8,"lon":7.681546,"lat":45.075794,"tags":"999,bonelli,stencil,torino,turin,via+bonelli","S2CellId":"94ce57c000000000","result":9707,"accuracy":0.13568892,"description":"Stencil%2Fpaste-up+in+Torino%2C+Italy."}
{"id":5486644094,"url":"http://farm6.staticflickr.com/5019/5486644094_dc0775bc69.jpg","path":"e48/05f/e4805fcaec257e39559fdd188d274e6.jpg","date":"2011-02-25","year":2011,"month":2,"lon":7.766829,"lat":45.08015,"tags":"14-42mm,superga,turin,zuiko","S2CellId":"0d1ed40000000000","result":247,"accuracy":0.033149555}
{"id":6055564523,"url":"http://farm7.staticflickr.com/6202/6055564523_537422abe4.jpg","path":"3c4/16a/3c416a942fce151cfb35f4aa102bca9f.jpg","date":"2007-08-10","year":2007,"month":8,"lon":7.741241,"lat":45.411465,"tags":"community,comunit%C3%A0,damanhur,italia,italy","S2CellId":"5f0d000000000000","result":6352,"accuracy":0.18734263,"title":"for+sleep+and+dreams"}
{"id":7132685251,"url":"http://farm9.staticflickr.com/8149/7132685251_8768d46fab.jpg","path":"22f/f09/22ff09df61fd691942fb55bf97eff4f.jpg","date":"2012-05-01","year":2012,"month":5,"lon":7.694721,"lat":45.06206,"tags":"2012,anziani,bambini,banda,bianche,carabinieri,celere,cgil,chiamparino,con,corsare,corsaro,corteo,crisi,diritti,fassino,fiom,fornero,gabrio,indipendenti,laboratorio,last,lavoratori,maggio,manifestazione,monti,morti,officine,polizia,primo,samba,si,studentesco,studenti,tagli,torino,turin,usb,usl","S2CellId":"47886d7000000000","result":3626,"accuracy":0.56373644}
{"id":139108182,"url":"http://farm1.staticflickr.com/55/139108182_c81ab44060.jpg","path":"23c/ee5/23cee54797c7313bec81c03b4da5d210.jpg","date":"2006-04-30","year":2006,"month":4,"lon":7.938137,"lat":45.853912,"tags":"alagna,alpe+sattal,sattal,valsesia","S2CellId":"45d4000000000000","result":2755,"accuracy":0.007823536,"title":"Persone","description":"%3Ci%3EAlcuni+sentono+la+loro+voce+interiore+con+grande+chiarezza%2C%0D%0Ae+vivono+seguendo+ci%C3%B2+che+ascoltano.%0D%0AQueste+persone+diventano+pazze.%0D%0AO+diventano+leggende.%3C%2Fi%3E"}
{"id":5998211060,"url":"http://farm7.staticflickr.com/6009/5998211060_b47ef6638d.jpg","path":"524/050/52405093dcefaada2729a3782a7bb9c7.jpg","date":"2011-07-29","year":2011,"month":7,"lon":7.976503,"lat":45.67662,"tags":"2011,biarteca,estate,eventi,luoghi,stagioni-periodo+anno,teatro","S2CellId":"132efb7000000000","result":1068,"accuracy":0.012800927,"title":"bolero+1"}
{"id":6471837865,"url":"http://farm8.staticflickr.com/7157/6471837865_02ac6195b4.jpg","path":"804/d33/804d33ef4b109e4cc7e76ea3f8ef589.jpg","date":"2011-10-09","year":2011,"month":10,"lon":7.685281,"lat":45.07092,"tags":"cane,diego+fornero,dog,galgo,greyhound,levriero,torino","S2CellId":"88f5b00000000000","result":8731,"accuracy":0.046240106,"title":"adotta+un+levriero+-+IV","description":"Sfilata+dell%27associazione+%22Adozioni+Levrieri%22%0A%3Ca+href%3D%22http%3A%2F%2Fwww.adozionilevrieri.it%22+rel%3D%22nofollow%22%3Ewww.adozionilevrieri.it%3C%2Fa%3E%0A%0APiazza+Castello%0ATorino%0AOttobre+2011%0A%0A%3Cb%3E%3Ca+href%3D%22http%3A%2F%2Fwww.flickr.com%2Fphotos%2Fdestino2003%2Fcollections%2F72157625285628401%2F%22%3E+THIS+IS+MY+CITY+-+SHOTS+OF+TURIN%3C%2Fa%3E%0A%0A%3Ca+href%3D%22http%3A%2F%2Fwww.flickr.com%2Fphotos%2Fdestino2003%2Fsets%2F72157621081889232%2F%22%3E++VIEW+MY+TORINO+STREET+ART+%26+GRAFFITI+REPORTAGE%3C%2Fa%3E%0A%0A%3Ca+href%3D%22http%3A%2F%2Fwww.flickr.com%2Fphotos%2Fdestino2003%2Fsets%2F72157622603378250%2F%22%3EVIEW+MY+FAV+SHOTS%3C%2Fa%3E%0A%0A%3Ca+href%3D%22http%3A%2F%2Fwww.flickr.com%2Fphotos%2Fdestino2003%2Fsets%2F72157623116288813%2F%22%3EVIEW+MY+MOST+INTERESTING%3C%2Fa%3E%0A%0A%5B%5D%0A%3Ca+href%3D%22http%3A%2F%2Fflickrhivemind.net%2FUser%2Fdestino2003%2FInteresting%22+rel%3D%22nofollow%22%3Edestino%27s+FHM%3C%2Fa%3E%0A%5B%5D%3C%2Fb%3E"}
{"id":8670747507,"url":"http://farm9.staticflickr.com/8120/8670747507_7a00eaa325.jpg","path":"59a/2e6/59a2e6c2baf37f7ded3b44eca04a805.jpg","date":"2013-04-20","year":2013,"month":4,"lon":7.733345,"lat":45.082733,"tags":"canon+eos+550d,tamron+18-270,violet","S2CellId":"1367000000000000","result":1190,"accuracy":0.018793138,"title":"Violet"}
{"id":5300754372,"url":"http://farm6.staticflickr.com/5165/5300754372_ffc5cdef7a.jpg","path":"667/8f1/6678f15b91596807e9c47abc65ff2d4.jpg","date":"2010-12-28","year":2010,"month":12,"lon":7.660893,"lat":45.080982,"tags":"monitor","S2CellId":"47e66e1d00000000","result":4590,"accuracy":0.005064883,"title":"100_1207"}
{"id":5527971730,"url":"http://farm6.staticflickr.com/5253/5527971730_935a870bbd.jpg","path":"e06/2e4/e062e450ff349b37ffe123f716b3fb7.jpg","date":"2011-03-13","year":2011,"month":3,"lon":7.682666,"lat":45.068165,"tags":"agata","S2CellId":"89c2599100000000","result":9017,"accuracy":0.004415163,"title":"IMG_0693%5B1%5D"}
{"id":2771055033,"url":"http://farm4.staticflickr.com/3179/2771055033_9950a83793.jpg","path":"8f7/0aa/8f70aae24efe391e3f49e4da1f35932.jpg","date":"2008-08-03","year":2008,"month":8,"lon":7.031593,"lat":45.52944,"tags":"aosta,granparadiso,granparadisonationalpark,hiking,italy,mountains,parconazionaledelgranparadiso,pianodivaudet,pngp,valdaosta,valgrisenche,walking","S2CellId":"873f000000000000","result":7805,"accuracy":0.121968925,"title":"Bizarre","description":"On+the+weird+ceremonial+way%2C+Piano+di+Vaudet"}
{"id":7598755752,"url":"http://farm9.staticflickr.com/8164/7598755752_0ec648e23b.jpg","path":"27a/bc3/27abc3fbd01c9bb4f4bb57487298e11.jpg","date":"2012-07-18","year":2012,"month":7,"lon":7.679798,"lat":45.07714,"tags":"instagram+app,iphoneography,square,square+format,x-pro+ii","S2CellId":"5f0b2c0000000000","result":6349,"accuracy":0.011672183,"title":"Era+un+fiore+di+%23culurgionis+ma+sono+troppo+%23ingorda+per+aspettare"}
{"id":2677726985,"url":"http://farm4.staticflickr.com/3245/2677726985_09e7fdd9fc.jpg","path":"419/49a/41949a9ed5b49e7e911b4de9f438c49.jpg","date":"2008-06-08","year":2008,"month":6,"lon":7.665688,"lat":45.03165,"tags":"astrodroid,astrodroide,c1p8,comics,droid,droide,fiction,guerre,r2d2,robot,science,star,stellari,torino,turin,wars","S2CellId":"486e1cac00000000","result":4963,"accuracy":0.043351024,"title":"r2d2","description":"Odio+questo+astrodroide."}
{"id":5157185961,"url":"http://farm2.staticflickr.com/1336/5157185961_798c096a3b.jpg","path":"80f/bb7/80fbb766253d528f4aaa38b9b366d93f.jpg","date":"2010-11-06","year":2010,"month":11,"lon":7.561254,"lat":45.778896,"tags":"col+des+bornes,mtb+alps+alpi+valle+centrale,valle+d%27aosta","S2CellId":"5353000000000000","result":6037,"accuracy":0.122017935,"title":"A+place+in+the+sun"}
{"id":8377192070,"url":"http://farm9.staticflickr.com/8352/8377192070_2ceea3fc63.jpg","path":"4ad/adc/4adadcbaf691f53308afd9fc6b6221b.jpg","date":"2013-01-12","year":2013,"month":1,"lon":7.141413,"lat":45.464993,"tags":"alpi,alps,camoscio,ceresole+reale,chamois,gran+paradiso,italia,italy,montagna,mountain,national+park,parco+nazionale,rupicapra+rupicapra","S2CellId":"4778500000000000","result":3429,"accuracy":0.025345376,"title":"Piccolo+di+camoscio","description":"%3Ca+href%3D%22http%3A%2F%2Fwww.tobephoto.com%22+rel%3D%22nofollow%22%3Ewww.tobephoto.com%3C%2Fa%3E%0A---%0Afoto+coperta+da+licenza+Creative+Commons%0Ainfo%3A+%3Ca+href%3D%22http%3A%2F%2Fcreativecommons.org%2Flicenses%2Fby-nc-sa%2F3.0%2Fit%2Fdeed.it%22+rel%3D%22nofollow%22%3Ecreativecommons.org%2Flicenses%2Fby-nc-sa%2F3.0%2Fit%2Fdeed.it%3C%2Fa%3E"}
{"id":2172317888,"url":"http://farm3.staticflickr.com/2408/2172317888_9a842f5f0a.jpg","path":"518/cda/518cda257927833bab4ae3f8f22c4fc3.jpg","date":"2008-01-01","year":2008,"month":1,"lon":7.618675,"lat":45.838547,"tags":"2008,alpi,alps,chamois,inverno,neve,snow,winter","S2CellId":"4871500000000000","result":5036,"accuracy":0.0031549744,"title":"Bacio+%3A+a+kiss+on+the+snow"}
{"id":4934245307,"url":"http://farm5.staticflickr.com/4120/4934245307_fdc2511027.jpg","path":"d57/52b/d5752b85997f8d3d2019c38f8970c40.jpg","date":"2010-06-02","year":2010,"month":6,"lon":7.4477,"lat":45.526073,"tags":"alpe,alpeggi,alpi,alpi+graie,alps,avc,camminare,camminata,canavese,casa+di+caccia+vittoria,cielo,escursione,escursionismo,estate,fiori,flower,flowers,giugno,gran+paradiso+national+park,hiking,itinerari,june,landscapes,macro,montagna,montagne,monte+colombino,monte+colombo,monveso+di+forzo,mountain,mountains,natura,naturalistica,nature,nikon,paesaggi,paesaggio,panorama,panorami,parco+nazionale+del+gran+paradiso,pngp,primavera,sentieri,sentiero,sisti,sisto,sky,sole,spring,summer,sun,torre+di+lavina,trekking,valle+soana,vallone+di+forzo,vargnei,walking","S2CellId":"8715000000000000","result":7727,"accuracy":0.04373335,"title":"...il+primo+arrivato%21+%28Vallone+di+Forzo%2C+Valle+Soana+-+TO%2C+Parco+Nazionale+del+Gran+Paradiso%2C+Piemonte%29","description":"La+nostra+camminata+ci+porta+alla+Casa+di+Caccia+Vittoria...saliamo+i+tornanti+dell%27antico+sentiero+Reale%2C+in+parte+su+mulattiera+e...di+poco+separati%2C+arriviamo+sotto+il+bel+sole+di+inizio+Giugno....%0A%0A%0ALe+meraviglie+del+Vallone+di+Forzo+in+una+bellissima+escursione+con+Marta%2C+Mary+e+%3Ca+href%3D%22http%3A%2F%2Fwww.flickr.com%2Fphotos%2Fmarcoooo%2F%22%3EMarco%3C%2Fa%3E.%0A%0A%28Vallone+di+Forzo%2C+Valle+Soana+-+TO%2C+Parco+Nazionale+del+Gran+Paradiso%2C+Piemonte%29"}
{"id":5724146957,"url":"http://farm4.staticflickr.com/3044/5724146957_0d189bb496.jpg","path":"d96/a32/d96a32eb5d7fe1c9bd30b4a2ace6784a.jpg","date":"2011-05-16","year":2011,"month":5,"lon":7.682694,"lat":45.07066,"tags":"campagna+elettorale,fassino,gran+torino,pd,sindaco,torino,west+wing+all%27italiana","S2CellId":"0d2f300000000000","result":295,"accuracy":0.0221484,"title":"Notti+Elettorali","description":"Notte+prima+dei+risultati"}
{"id":102888819,"url":"http://farm1.staticflickr.com/42/102888819_23fe9a5757.jpg","path":"854/4b3/8544b38c1ac4a86480f6ab9cae9487.jpg","date":"2006-02-21","year":2006,"month":2,"lon":7.67807,"lat":45.069157,"tags":"broadcasters,canada,crowd,czech,fans,games,hockey,journalists,media,olympic,olympics,people,republic,rsolympicset,socialmedia,torino2006,va2010,vancouveraccess2010,winter","S2CellId":"47d8a87000000000","result":4445,"accuracy":0.024237078,"title":"cowboys%21","description":"People+at+the+Canada+vs+Czech+Republic+Game"}
{"id":6141343167,"url":"http://farm7.staticflickr.com/6195/6141343167_265de0a5b0.jpg","path":"c37/177/c371773ff3301379f08c355c342437f.jpg","date":"2011-09-11","year":2011,"month":9,"lon":7.98058,"lat":45.62681,"tags":"basilica,chiesa,church,hdr,madonna,maria,mary,oropa,sanctuary,santuario,vercelli","S2CellId":"47869c0000000000","result":3579,"accuracy":0.14543045,"title":"Oropa+-+Basilica+superiore"}
{"id":9586100278,"url":"http://farm6.staticflickr.com/5337/9586100278_c93c8a3b40.jpg","path":"d4f/2df/d4f2df3f27eed9e607dc5b4c1f998eb.jpg","date":"2013-08-06","year":2013,"month":8,"lon":7.678927,"lat":45.0625,"tags":"sport,torino,world+master+game","S2CellId":"12a4a27400000000","result":715,"accuracy":0.38229856,"title":"DSC09758","description":"Torino+World+Master+Game"}
{"id":2872596716,"url":"http://farm4.staticflickr.com/3091/2872596716_3822d5133f.jpg","path":"fed/d15/fedd15f8a6bb0a2676f7f66d8997d45.jpg","date":"2008-09-14","year":2008,"month":9,"lon":7.347793,"lat":45.737984,"tags":"aosta2008,austalianshepherd,goldcup1,i.a.s.a,switzerland,ticino","S2CellId":"89c8037000000000","result":9187,"accuracy":0.03779538,"title":"IASA+Gold+Cup+1+-+Aosta+2008"}
{"id":5229586962,"url":"http://farm6.staticflickr.com/5285/5229586962_a744aff1d7.jpg","path":"0ae/50c/0ae50c5ce8286333484a34425787b3.jpg","date":"2010-11-24","year":2010,"month":11,"lon":7.072792,"lat":45.03641,"tags":"55-200,alpen,alpi,alps,cartello,cold,d7000,inverno,italia,italy,montagna,montagne,mountains,natura,naturale,nature,neve,nikkor,nikon,orsiera,parco,piedmont,piemonte,rocciavr%C3%A8,snow,vincenzo+giordano,wild,winter","S2CellId":"45d4000000000000","result":2755,"accuracy":0.02501384,"title":"Cold%3F+Just+a+bit%21"}
{"id":2981693850,"url":"http://farm4.staticflickr.com/3233/2981693850_1b1ccc716a.jpg","path":"1cd/865/1cd865bf792d894c53498208f8359b5.jpg","date":"2008-09-21","year":2008,"month":9,"lon":7.687833,"lat":45.070168,"tags":"fujicolor+superia,lc-a,lomo,redscale","S2CellId":"479f540000000000","result":3867,"accuracy":0.038624134,"title":"the+execrable+call","description":"Lc-a+%7C+Fujicolor+Superia+400+%7C+redscale%0A%0A%3Cu%3E%3Ca+href%3D%22http%3A%2F%2Fwww.leatherheart.net%22+target%3D%22_blank%22+rel%3D%22nofollow%22%3Ewww.leatherheart.net%3C%2Fa%3E%3C%2Fu%3E%0A%3Cu%3E%3Ca+href%3D%22http%3A%2F%2Fwww.facebook.com%2Fleatherheart%22+target%3D%22_blank%22+rel%3D%22nofollow%22%3Efacebook%3C%2Fa%3E%3C%2Fu%3E"}
{"id":3655320332,"url":"http://farm3.staticflickr.com/2430/3655320332_63fa40bb00.jpg","path":"f11/c69/f11c69e49b2596d243fb9f320e9e62d.jpg","date":"2009-06-07","year":2009,"month":6,"lon":7.603912,"lat":45.084126,"tags":"aeroporto+aeritalia,af-s+dx+nikkor+18-105mm+f%2F3.5-5.6g+ed+vr,collegno,fujifilm+finepix+s5pro,hdr,mantiuk,qtpfsgui,skybolt,steen,tonemapping,wag+2009,world+air+games+2009","S2CellId":"31f0000000000000","result":1885,"accuracy":0.2775501,"title":"Skybolt","description":"Here+it+is%2C+the+best+acrobatic+airplane+ever+built%2C+and+the+most+long-living+one+too.+This+is+the+Pitts+Special%2C+a+little+astonishingly+fast+and+maneuverable+biplane+designed+in+1944+and+still+top-notch+flying+machine.+EDIT%3A+...or+at+least+that+is+what+I+used+to+believe.+It+turn+out+to+be+a+Steen+Skybolt%2C+still+a+banging+machine+despite+being+conceived+in+1970.+Thanks+to+%3Ca+href%3D%22http%3A%2F%2Fwww.flickr.com%2Fphotos%2F45443555%40N02%22%3ETom+Stephens%3C%2Fa%3E+for+pointing+that+out%21%0AThis+photo+has+been+taken+during+WAG+2009+and+it+is+an+HDR+extrapolation+made+by+the+brand+new+version+of+qtpfsgui.+The+tonemapped+shot+has+been+mixed+with+the+original+one+in+order+to+get+rid+of+the+artifacts+on+the+plain+sky.+A+nice+try+after+a+long+time+of+HDR+fasting...+Tonemapping+has+been+applyed+to+a+16bit+tiff+from+fujifilm+raf+original+shot.+Unluckily+I+have+got+no+tripod+to+shot+more+than+one+pic%21%0A%0ATonemapping+parameters%3A%0AOperator%3A+Mantiuk%0AContrast+Equalization+factor%3A+0.8%0ASaturation+Factor%3A+1.1+%0ADetail+Factor%3A+10+%0APreGamma%3A+1"}
{"id":487945637,"url":"http://farm1.staticflickr.com/221/487945637_97013e8ccc.jpg","path":"709/f4a/709f4ad9f67f46f2504237a4e3171565.jpg","date":"2007-04-29","year":2007,"month":4,"lon":7.694206,"lat":45.06382,"tags":"cinema,europa,europe,italia,italy,museo,museum,torino,turin","S2CellId":"47886d7000000000","result":3626,"accuracy":0.089454055,"title":"Mole+Antonelliana","description":"Torino+-+Italia"}
{"id":7865247482,"url":"http://farm9.staticflickr.com/8292/7865247482_be55783abb.jpg","path":"b06/1a4/b061a4fd12a0d57db165b03a4129146.jpg","date":"2012-08-26","year":2012,"month":8,"lon":7.680458,"lat":45.059223,"tags":"earlybird,instagram+app,iphoneography,square,square+format","S2CellId":"9662c54000000000","result":9879,"accuracy":0.0084751975,"title":"%23Spugna"}
{"id":319898876,"url":"http://farm1.staticflickr.com/144/319898876_90539e9b69.jpg","path":"b2e/c85/b2ec856d9be36cf27884664a6e9b9d.jpg","date":"2006-06-18","year":2006,"month":6,"lon":7.014255,"lat":45.155773,"tags":"butterfly","S2CellId":"8620af4000000000","result":7522,"accuracy":0.29488996,"title":"060618+-+01+-+Venaus+-+Gita","description":"Beautifull+butterfly+%22shot%22+during+a+mountain+trekking+near+Venaus+%28Italy%29"}
{"id":2812906161,"url":"http://farm4.staticflickr.com/3100/2812906161_553da5cd40.jpg","path":"9c3/b82/9c3b820c4c4966427e37acdeafb5c.jpg","date":"2008-08-30","year":2008,"month":8,"lon":7.171153,"lat":45.868942,"tags":"activities,doganowscy,europe,gd-st-bernard,pilgrimage,switzerland","S2CellId":"47e2940000000000","result":4536,"accuracy":0.10100839,"title":"_MG_2918"}
{"id":7425439894,"url":"http://farm8.staticflickr.com/7278/7425439894_286f0fd636.jpg","path":"53d/ec0/53dec066606ac2a2f1a98c83f7c02010.jpg","date":"2012-06-21","year":2012,"month":6,"lon":7.705399,"lat":45.06951,"tags":"italy,piemonte,torino,villa+tesoriera","S2CellId":"4776907000000000","result":3414,"accuracy":0.033291515,"title":"Torino%2C+Villa+Tesoriera","description":"Inaugurazione+della+biblioteca+musicale+alla+Villa+della+Tesoriera%2C+Torino"}
{"id":10371542126,"url":"http://farm4.staticflickr.com/3792/10371542126_a61eb110dc.jpg","path":"44a/547/44a547fb37d817744379d4844bd13c1d.jpg","date":"2013-10-18","year":2013,"month":10,"lon":7.159439,"lat":45.96116,"tags":"hiking,philippe+noth,rando,randonn%C3%A9e,switzerland+%7C+suisse+%7C+schweiz,valais,valais+%7C+valais+%7C+wallis,wallis,wandern","S2CellId":"88d0a631cabb5071","result":8563,"accuracy":0.016610654,"title":"Combe+de+l%27A%2C+La+Tsissette%2C+Revedin","description":"Early+morning%2C+a+doe+appeared+on+the+ridge+%7C+T%C3%B4t+le+matin%2C+une+biche+s%27est+montr%C3%A9e+sur+la+cr%C3%AAte"}
{"id":2280324362,"url":"http://farm3.staticflickr.com/2120/2280324362_cc7aeb4dfd.jpg","path":"28f/930/28f9306137cab592feca4efddcd6769e.jpg","date":"2007-07-14","year":2007,"month":7,"lon":7.169437,"lat":45.86844,"tags":"st-bernard","S2CellId":"0d49c00000000000","result":409,"accuracy":0.087048255,"title":"St-Bernard+7140071","description":"The+Great+Saint+Bernard+Pass+%26+Saint+Bernard+Dogs"}
{"id":8433646118,"url":"http://farm9.staticflickr.com/8515/8433646118_a3a11cff5a.jpg","path":"38f/2f9/38f2f99f6a5b2251a3a58feb4fb75cdb.jpg","date":"2013-01-31","year":2013,"month":1,"lon":7.313804,"lat":45.7359,"tags":"hefe,instagram+app,iphoneography,square,square+format","S2CellId":"465f77e400000000","result":2907,"accuracy":0.0065818382,"title":"Tue+blue+box+isn%27t+blue"}
{"id":293647112,"url":"http://farm1.staticflickr.com/110/293647112_c7ebb5f1ce.jpg","path":"97f/751/97f75183c296e3cbe5e2b07896bad5a7.jpg","date":"2006-11-09","year":2006,"month":11,"lon":7.664251,"lat":45.030468,"tags":"artissima2006,datamatrix,hypelinking,organiclink,qr,thinkmobi,torino","S2CellId":"47b0100000000000","result":3969,"accuracy":0.07299627,"title":"IMG_4333"}
{"id":3086977742,"url":"http://farm4.staticflickr.com/3124/3086977742_54694e62da.jpg","path":"16d/bc7/16dbc763189252b0f68e7720f996853a.jpg","date":"2008-12-06","year":2008,"month":12,"lon":7.680044,"lat":45.07472,"tags":"shozu","S2CellId":"479e75ec00000000","result":3854,"accuracy":0.03295385,"title":"06122008%28025%29","description":"-+Camera+phone+upload+powered+by+%3Ca+href%3D%22http%3A%2F%2Fwww.shozu.com%2F%3Futm_source%3Dupload%26utm_medium%3Dgraphic%26utm_campaign%3Dupload_graphic%2F%22+target%3D%22_newwindow%22%3EShoZu%3C%2Fa%3E"}
{"id":20311381,"url":"http://farm1.staticflickr.com/17/20311381_988489d029.jpg","path":"5fc/744/5fc744a4a3ffa3fbf613faa3ad9bc8.jpg","date":"2005-01-01","year":2005,"month":1,"lon":7.574268,"lat":45.072613,"tags":"dafne","S2CellId":"8814b00000000000","result":8185,"accuracy":0.008289561,"title":"DafneInGiardino2"}
{"id":100020370,"url":"http://farm1.staticflickr.com/19/100020370_51c498bb66.jpg","path":"e1c/8bc/e1c8bc54444b36f16d866986288271.jpg","date":"2006-02-14","year":2006,"month":2,"lon":7.67807,"lat":45.069157,"tags":"2006wintergames,italy,olympic,olympics,rsolympicset,socialmedia,torino,torino2006,turin2006,va2010,vancouveraccess2010","S2CellId":"470b94eb00000000","result":3167,"accuracy":0.03317871,"title":"plaza"}
{"id":8329508118,"url":"http://farm9.staticflickr.com/8218/8329508118_8e09d5df5f.jpg","path":"f3a/198/f3a1982de3def1346721c2f49ca4a284.jpg","date":"2012-11-22","year":2012,"month":11,"lon":7.670216,"lat":45.04275,"tags":"blu,graffiti,maoam,muro,torino,wall,writing","S2CellId":"48718e4000000000","result":5060,"accuracy":0.028442247,"title":"%5B006205%5D"}
{"id":6826681318,"url":"http://farm8.staticflickr.com/7056/6826681318_24d3559a28.jpg","path":"f7a/36a/f7a36ad4ee255cee1077e5401ab2a57e.jpg","date":"2012-03-07","year":2012,"month":3,"lon":7.51585,"lat":45.079338,"tags":"art,arte,castello,contemporain,moderna,museo,rivoli","S2CellId":"1325f40000000000","result":999,"accuracy":0.11165485,"title":"Torino+2.2012+045","description":"Some+views+of+the+Castello+di+Rivoli."}
{"id":3788089728,"url":"http://farm4.staticflickr.com/3468/3788089728_27acd564f9.jpg","path":"afb/e49/afbe49913c814bc9647d94dde335fb5.jpg","date":"2009-07-31","year":2009,"month":7,"lon":7.625455,"lat":45.922676,"tags":"alpi,cervinia,estate,italia,montagna,vacanza,viaggi","S2CellId":"478f900000000000","result":3690,"accuracy":0.10117708,"title":"hiding"}
{"id":5915168371,"url":"http://farm7.staticflickr.com/6039/5915168371_4d9695bf1b.jpg","path":"8b1/e6d/8b1e6dccd7ed108f6bc2138f36a5c3.jpg","date":"2011-07-08","year":2011,"month":7,"lon":7.678288,"lat":45.072384,"tags":"earlybird,instagram+app,iphoneography,square,square+format,torino,turin","S2CellId":"89c2f67000000000","result":9112,"accuracy":0.004789469,"title":"%23igerstorino"}
{"id":2446271837,"url":"http://farm3.staticflickr.com/2015/2446271837_22223e8acc.jpg","path":"7e3/a5c/7e3a5c4be58ed46f8c7dbdf7a9f39c.jpg","date":"2008-04-25","year":2008,"month":4,"lon":7.812395,"lat":45.86056,"tags":"2008,bimbo,child,gressoney,la+trinit%C3%A8,mauro,pietro,valle+d%27aosta","S2CellId":"4788c00000000000","result":3631,"accuracy":0.05520715,"title":"Pietro+sleeps..","description":"while+his+dad+Mauro+walks+and+walks+and+walks.."}
{"id":4025440408,"url":"http://farm3.staticflickr.com/2542/4025440408_7042519997.jpg","path":"5b7/214/5b7214044a651fae7214cfc46282f.jpg","date":"2009-10-17","year":2009,"month":10,"lon":7.109184,"lat":45.03435,"tags":"canon+eos+50d,ef-s17-55mm+f%2F2.8+is+usm,eric+borda,montagne,mountain,piemonte,roure,selleries,val+chisone","S2CellId":"54907c0000000000","result":6223,"accuracy":0.039718468,"title":"Alta+Val+Chisone","description":"%3Ca+href%3D%22http%3A%2F%2Fbighugelabs.com%2Fflickr%2Fonblack.php%3Fid%3D4025440408%26size%3Dlarge%22+rel%3D%22nofollow%22%3EView+Large+On+Black%3C%2Fa%3E"}
{"id":9182351386,"url":"http://farm6.staticflickr.com/5545/9182351386_006b889722.jpg","path":"b8f/971/b8f971f89f8e72331b462d548ca11e2.jpg","date":"2013-06-17","year":2013,"month":6,"lon":7.968435,"lat":45.830055,"tags":"motteso,path,riva+valdobbia,sentiero,trail,valsesia","S2CellId":"4d54000000000000","result":5954,"accuracy":0.021180313,"title":"Motteso+di+Riva+Valdobbia","description":"il+Sentiero+12+dal+Gabbio"}
{"id":59330603,"url":"http://farm1.staticflickr.com/26/59330603_3c7f4f78ff.jpg","path":"349/164/349164912d59eedca2a1d5ee68ee02b.jpg","date":"2005-11-03","year":2005,"month":11,"lon":7.965259,"lat":45.312202,"tags":"italy,lizard,vineyard","S2CellId":"88d0a631cabb5071","result":8563,"accuracy":0.0022261795,"title":"lizard","description":"Lizard+in+vineyards%2C+italy"}
{"id":8565923045,"url":"http://farm9.staticflickr.com/8092/8565923045_c379e0bda6.jpg","path":"6f8/dcb/6f8dcb2b70f216cc227cfe3dee17688.jpg","date":"2013-03-16","year":2013,"month":3,"lon":7.166132,"lat":45.459286,"tags":"alpine+ibex,capra+ibex,gran+paradiso,italia,italy,national+park,parco+nazionale,stambecco,tobe+photo,wildlife","S2CellId":"5351d00000000000","result":6035,"accuracy":0.04873616,"title":"Stambecco+a+riposo","description":"------------------------------------------------------%0AFacebook%3A+%3Ca+href%3D%22http%3A%2F%2Fwww.facebook.com%2Fpages%2FToBe-photo%2F139638279405357%22+rel%3D%22nofollow%22%3EToBe+photo%3C%2Fa%3E%0ATwitter%3A+%3Ca+href%3D%22http%3A%2F%2Ftwitter.com%2FToBe_photo%22+rel%3D%22nofollow%22%3E%40ToBe_photo%3C%2Fa%3E%0AWeb%2FBlog%3A%3Ca+href%3D%22http%3A%2F%2Fwww.tobephoto.com%22+rel%3D%22nofollow%22%3Ewww.tobephoto.com%3C%2Fa%3E++%0A------------------------------------------------------%0A%0AThis+picture+is+covered+by+Creative+Commons+License+%0Ainfo%3A+%3Ca+href%3D%22http%3A%2F%2Fcreativecommons.org%2Flicenses%2Fby-nc-sa%2F3.0%2F%22+rel%3D%22nofollow%22%3Ecreativecommons.org%2Flicenses%2Fby-nc-sa%2F3.0%2F%3C%2Fa%3E%0A%0AQuesta+foto+%C3%A8+coperta+da+licenza+Creative+Commons%0Ainfo%3A+%3Ca+href%3D%22http%3A%2F%2Fcreativecommons.org%2Flicenses%2Fby-nc-sa%2F3.0%2Fit%2Fdeed.it%22+rel%3D%22nofollow%22%3Ecreativecommons.org%2Flicenses%2Fby-nc-sa%2F3.0%2Fit%2Fdeed.it%3C%2Fa%3E"}
{"id":391405304,"url":"http://farm1.staticflickr.com/172/391405304_f36ffedb39.jpg","path":"1bd/c23/1bdc23a46788bfd099bd29632c157f.jpg","date":"2007-02-04","year":2007,"month":2,"lon":7.713518,"lat":45.04431,"tags":"architecture,balcony,blackandwhite,chimney,hedge,leaves,light,rationalism,sky,square,sun,torino,villa,window","S2CellId":"47e6900000000000","result":4686,"accuracy":0.039081745,"title":"Aspect+Ratio","description":"I+want+this.+Could+anybody+buy+it+for+me%3F"}
{"id":3097508309,"url":"http://farm4.staticflickr.com/3026/3097508309_2d7aa0a933.jpg","path":"d75/b77/d75b77717add57c2ea088327e63dc.jpg","date":"2008-12-03","year":2008,"month":12,"lon":7.628333,"lat":45.13385,"tags":"%CE%B1900+dslr,bravia,bravia-drome,motionflow,sony,zoetrope","S2CellId":"47165b0c00000000","result":3214,"accuracy":0.17274028,"title":"The+Sony+BRAVIA-drome+at+night","description":"The+world%E2%80%99s+largest+%3Ca+href%3D%22http%3A%2F%2Fen.wikipedia.org%2Fwiki%2FZoetrope%22%3Ezoetrope%3C%2Fa%3E%2C+the+BRAVIA-drome%2C+is+at+the+centre+of+Sony%E2%80%99s+latest+advertising+campaign.+%0A%0AGet+all+the+latest+news+on+the+event+celebrating+Motionflow+technology%2C+where+Sony%27s+expertise%2C+Kak%C3%A1%27s+football+skills+and+the+science+of+motion+come+together+at+%3Ca+href%3D%22http%3A%2F%2Fwww.motionflow.eu%22%3Ewww.motionflow.eu%3C%2Fa%3E."}
{"id":46576737,"url":"http://farm1.staticflickr.com/26/46576737_e6ff4bbc6b.jpg","path":"538/abc/538abcdcafab7386c9f8441044673893.jpg","date":"2004-11-13","year":2004,"month":11,"lon":7.693004,"lat":45.069218,"tags":"expressions,impressions,light,mole+antonelliana,night,sbp-2005,torino,webdays","S2CellId":"47886d7000000000","result":3626,"accuracy":0.10771435,"title":"Torino+Blues","description":"This+is+the+shot+that+won+the+%3Ca+href%3D%22http%3A%2F%2Fwww.webdays.it%2Fblog%22%3EWebdays+2005%3C%2Fa%3E+competition...+I%27m+very+happy+about+that%21+%3B-%29"}
{"id":2544733684,"url":"http://farm4.staticflickr.com/3182/2544733684_2969b0f4b5.jpg","path":"422/6a7/4226a7e74abf7f857db9a69618858fbc.jpg","date":"2008-06-01","year":2008,"month":6,"lon":7.981996,"lat":45.624363,"tags":"biella,motorata,oropa","S2CellId":"46920b9000000000","result":2990,"accuracy":0.048534356,"title":"Motorata+%28Biella%29","description":"Olympus+digital+camera"}
{"id":2871698317,"url":"http://farm4.staticflickr.com/3293/2871698317_0bb9886945.jpg","path":"86a/f82/86af82c927711ecac22817ff369a36.jpg","date":"2008-09-14","year":2008,"month":9,"lon":7.347793,"lat":45.737984,"tags":"aosta2008,austalianshepherd,goldcup1,i.a.s.a,switzerland,ticino","S2CellId":"464bc00000000000","result":2816,"accuracy":0.23183039,"title":"IASA+Gold+Cup+1+-+Aosta+2008"}
{"id":6725406457,"url":"http://farm8.staticflickr.com/7021/6725406457_7c30c43929.jpg","path":"fe2/d11/fe2d11e7665b331cdf06c2e1aa79816.jpg","date":"2012-01-19","year":2012,"month":1,"lon":7.643394,"lat":45.11042,"tags":"120,6x6,analogic,analogico,film,giampaolosquarcina,lomo,lubitel166b,pellicola,squareformat","S2CellId":"487604cfb0000000","result":5242,"accuracy":0.007609369,"title":"L%27abbondanza+di+spazio","description":"Pellicola+Lomography+120+Earl+Grey+B%26W.+Scansione+del+negativo.%0A%0A*+*+*%0A+%22Tutto+%C3%A8+pieno+di+d%C3%A8i%22+diceva+Talete+all%27alba+della+filosofia%3B+all%27altro+capo%2C+a+quel+crepuscolo+cui+siamo+giunti%2C+possiamo+affermare%2C+non+solo+per+bisogno+di+simmetria%2C+ma+anche+per+rispetto+dell%27evidenza%2C+che+%22tutto+%C3%A8+vuoto+di+d%C3%A8i%22.%0A%3Cb%3E%0AEmil+Cioran%3C%2Fb%3E%2C+%3Ci%3EL%27inconveniente+di+essere+nati+%3C%2Fi%3E%281973%29"}
{"id":5349861111,"url":"http://farm6.staticflickr.com/5201/5349861111_3bddb3e00a.jpg","path":"85a/17f/85a17f79da83c9195651c6c4c52696e.jpg","date":"2011-01-03","year":2011,"month":1,"lon":7.694292,"lat":45.06541,"tags":"italia,italy,torino,turin","S2CellId":"47e66e0400000000","result":4585,"accuracy":0.014100981,"title":"cafe"}
{"id":6265671083,"url":"http://farm7.staticflickr.com/6060/6265671083_139f7e3aed.jpg","path":"983/da6/983da634b65879f37becc92dba536517.jpg","date":"2011-10-21","year":2011,"month":10,"lon":7.67234,"lat":45.116062,"tags":"120,120mm,6x6,agfaisola,giampaolosquarcina,lomografia,lomography,medioformato,mediumformat,oldcamera,prodromo,squareformat,vintagecamera","S2CellId":"94cc400000000000","result":9693,"accuracy":0.017667023,"title":"Il+cancello+%C3%A8+chiuso+%28versione+medio+formato%29","description":"Scattata+con+una+Afga+Isola+I+%28pellicola+120+mm+b%2Fn+Lomography+100%29.+Scansione+della+stampa%2C+effettuata+con+Primex+Colorado+Direct+D600"}
{"id":2896340340,"url":"http://farm4.staticflickr.com/3004/2896340340_3ab143b1d3.jpg","path":"8c7/c2f/8c7c2f926dbc4f3447c9cb54938d95ad.jpg","date":"2008-09-28","year":2008,"month":9,"lon":7.51791,"lat":45.1816,"tags":"la+cassa","S2CellId":"477a400000000000","result":3437,"accuracy":0.13790073,"title":"il+tempo+e+il+tempo"}
{"id":5453335980,"url":"http://farm6.staticflickr.com/5011/5453335980_64538936dc.jpg","path":"5ff/7fc/5ff7fc9325d09b6f3720b384f07a43.jpg","date":"2010-11-21","year":2010,"month":11,"lon":7.004384,"lat":45.905777,"tags":"monte+bianco","S2CellId":"478f100000000000","result":3686,"accuracy":0.09620104,"title":"Etoile+Filantes+Tour+Jorasses"}
{"id":5526239249,"url":"http://farm6.staticflickr.com/5056/5526239249_9717b662fa.jpg","path":"2f9/4dc/2f94dc7936d9a01e12dfd9ea2d1ade.jpg","date":"2011-03-06","year":2011,"month":3,"lon":7.733516,"lat":45.083702,"tags":"smoke","S2CellId":"477eae3000000000","result":3462,"accuracy":0.0043566776,"title":"Smoke+blade"}
{"id":8461218415,"url":"http://farm9.staticflickr.com/8384/8461218415_9286b20e6b.jpg","path":"92f/05d/92f05dbe6202670c57882f625d1f62.jpg","date":"2013-02-10","year":2013,"month":2,"lon":7.95129,"lat":45.833466,"tags":"carnevale,garuf,marmitta,paniccia,piemonte,pignatta,riva,riva+valdobbia,valdobbia,valsesia","S2CellId":"31a4000000000000","result":1799,"accuracy":0.029374797,"title":"Carnevale+Garuf+2013+-+accendere+fuochi","description":"Riva+Valdobbia%3A+Carnevale+del+Garuf+2013%0AL%27accensione+dei+fuochi+per+la+Paniccia"}
{"id":9739339953,"url":"http://farm8.staticflickr.com/7367/9739339953_4f23d2c4f1.jpg","path":"eff/98a/eff98ab38ea4ab62ea4ba5e642cef77.jpg","date":"2013-08-30","year":2013,"month":8,"lon":7.684335,"lat":45.824493,"tags":"antagnod,aosta,ayas,coutard,montagna,ru","S2CellId":"54bf400000000000","result":6299,"accuracy":0.11826363,"title":"Ru+Coutard+%286%29","description":"Antagnod%2C+valle+d%27Aosta."}
{"id":3391750397,"url":"http://farm4.staticflickr.com/3597/3391750397_7058027e7d.jpg","path":"9fd/7c5/9fd7c5f7258bc4dffc1191c3cf6a639d.jpg","date":"2009-03-14","year":2009,"month":3,"lon":7.689163,"lat":45.06722,"tags":"graffiti,torino","S2CellId":"88fd000000000000","result":8754,"accuracy":0.0145937,"title":"14-03-09_2009"}
{"id":12753638505,"url":"http://farm3.staticflickr.com/2811/12753638505_3a0560e723.jpg","path":"66c/243/66c2434df54173a433c61da297a68a2.jpg","date":"2013-04-16","year":2013,"month":4,"lon":7.939124,"lat":45.84641,"tags":"abandoned,abbandonato,alpi,alps,archeologia+industriale,finestra,industrial+archeology,macerie,mattoni,miniera,miniere,piedmont,piemonte,riva,riva+valdobbia,rottami,rudere,valdobbia,valsesia","S2CellId":"47a9400000000000","result":3952,"accuracy":0.027572239,"title":"Miniere+di+Riva+Valdobbia","description":"il+rudere+dello+stabilimento%2C+com%27era+un+anno+fa.%0A+Lo+stesso+rudere+che+c%27%C3%A8+chi+vuole+preservare%2C+peraltro..."}
{"id":4869349905,"url":"http://farm5.staticflickr.com/4099/4869349905_6d2c3d5c6d.jpg","path":"86d/403/86d4037ff5f7d8333797ef419656dad.jpg","date":"2010-08-06","year":2010,"month":8,"lon":7.650033,"lat":45.041325,"tags":"2010-08-06,360,360%C2%B0+tour,360+degrees+tour,concert,italia,italy,live,music,piemont,piemonte,stadio+olimpico,torino,turin,u2,u2010,u2gigs","S2CellId":"0d25900000000000","result":272,"accuracy":0.14598422,"title":"U2+Turin+2010-08-06","description":"U2+live+at+the+Stadio+Olimpico%2C+Turin+on+6+August+2010%2C+the+first+concert+in+2010+of+U2%27s+360+Degrees+Tour."}
{"id":4887980507,"url":"http://farm5.staticflickr.com/4116/4887980507_d347b047fc.jpg","path":"7d9/268/7d92681f6e87edd8116d5a475dbb60a7.jpg","date":"2008-02-06","year":2008,"month":2,"lon":7.678284,"lat":45.054718,"tags":"campanili,chiesa","S2CellId":"4741dc3000000000","result":3273,"accuracy":0.036373742,"title":"100_0694"}
{"id":240931084,"url":"http://farm1.staticflickr.com/80/240931084_a22c33c35f.jpg","path":"bd4/9bd/bd49bd855ac726f95221fc5627c2d2.jpg","date":"2006-09-09","year":2006,"month":9,"lon":7.682286,"lat":45.067566,"tags":"037,100,100th,b,car,carlo,cars,celebrations,centenary,group,harrison,integrale,lancia,photo,photography,piazza,rally,s4,san,tony,tony+harrison,torino,turin,www.tony-harrison.co.uk,year","S2CellId":"47886d7000000000","result":3626,"accuracy":0.37740496,"title":"Lancia+CENTENARY+Celebrations++TORINO+Turin+100+year+Piazza+San+Carlo+100th++IMG_7781"}
{"id":3473218011,"url":"http://farm4.staticflickr.com/3600/3473218011_8ca4d3da54.jpg","path":"e7d/05c/e7d05c7185b5ee379ecf22749b44cbd.jpg","date":"2009-04-25","year":2009,"month":4,"lon":7.352428,"lat":45.04157,"tags":"2009,aikido,april,giaveno,italien,seminar,taisai","S2CellId":"4779100000000000","result":3432,"accuracy":0.02007323,"title":"25.04.2009"}
{"id":6933318306,"url":"http://farm6.staticflickr.com/5194/6933318306_aab94f21ac.jpg","path":"83d/132/83d1328b65db751a51415bee8f6fdc2.jpg","date":"2011-12-04","year":2011,"month":12,"lon":7.653372,"lat":45.027973,"tags":"dragogna,federico+dragogna,hiroshima,hiroshima+mon+amour,i+ministri,ministri,turin","S2CellId":"48709c0000000000","result":4989,"accuracy":0.024732703,"title":"i+Ministri+-+Federico+Dragogna","description":"At+Hiroshima+Mon+Amour+-+Torino"}
{"id":5205035177,"url":"http://farm5.staticflickr.com/4125/5205035177_b12e76f482.jpg","path":"af8/d71/af8d71dc59a6b66878d75e8037b42b46.jpg","date":"2010-11-25","year":2010,"month":11,"lon":7.671897,"lat":45.04766,"tags":"architecture,building,car,glass,lomo,reflection,taxi,torino","S2CellId":"47a851cc00000000","result":3933,"accuracy":0.020287449,"title":"Camera+%2770","description":"%40+work"}
{"id":8096857336,"url":"http://farm9.staticflickr.com/8474/8096857336_97b9f85232.jpg","path":"473/d40/473d401ddbd44811cb79a428e7f85a58.jpg","date":"2012-10-17","year":2012,"month":10,"lon":7.682706,"lat":45.07394,"tags":"instagram+app,iphoneography,square,square+format,x-pro+ii","S2CellId":"3397c84000000000","result":1920,"accuracy":0.004481235,"title":"Ciao+ciao+piccolo+Marcel"}
{"id":3247318442,"url":"http://farm4.staticflickr.com/3405/3247318442_95e6ed8e0b.jpg","path":"d33/fd2/d33fd2e967c98680adef7676eb63d5c.jpg","date":"2009-01-30","year":2009,"month":1,"lon":7.683906,"lat":45.076885,"tags":"diana,febbraio+2008,lomo,porta+palazzo,torino","S2CellId":"487b450000000000","result":5565,"accuracy":0.13473643,"title":"Che+ore+sono%3F+What+time+is+it%3F+Wie+spaet+ist+es%3FQuelle+heure+est-il%3F%C2%BFQu%C3%A9+hora+es%3F+ecc.+ecc.","description":"Porta+Palazzo+-+Diana%27s+shot"}
{"id":5602211887,"url":"http://farm6.staticflickr.com/5101/5602211887_ec76298820.jpg","path":"845/bb9/845bb98e1f58aa3dd54581dfde0ce19.jpg","date":"2011-03-19","year":2011,"month":3,"lon":7.725105,"lat":45.833225,"tags":"afterski,alpiexpress,alps,food,italian+kitchen,italy,monterosa,nightclub,relaxed,shot,vac,vacation,wine","S2CellId":"478df00000000000","result":3674,"accuracy":0.14031895}
{"id":8359537370,"url":"http://farm9.staticflickr.com/8217/8359537370_c9587f75aa.jpg","path":"d1c/8b0/d1c8b0db8f3c5ae1d175642273498ef.jpg","date":"2012-09-21","year":2012,"month":9,"lon":7.127037,"lat":45.058727,"tags":"150-500,d7000,ibex,nikon,sigma,stambecco,vincenzo+giordano,wildlife","S2CellId":"48760ec000000000","result":5285,"accuracy":0.0630476,"title":"Cucciolo+di+Stambecco","description":"%3Cb%3ENikon+D7000%3C%2Fb%3E%0A%3Cb%3ESigma+150-500mm+f%2F5-6.3%3C%2Fb%3E%0A%0AExposure+%3Cb%3E1%2F2000%3C%2Fb%3E%0AAperture+%3Cb%3Ef%2F8.0%3C%2Fb%3E%0AFocal+Length+%3Cb%3E220+mm%3C%2Fb%3E%0AISO+Speed+%3Cb%3E400%3C%2Fb%3E"}
{"id":8642925376,"url":"http://farm9.staticflickr.com/8536/8642925376_4049949966.jpg","path":"d71/52a/d7152a4468bff968da49735a21512d.jpg","date":"2013-03-29","year":2013,"month":3,"lon":7.587389,"lat":45.020443,"tags":"1.4,1600,2013,3200,50,50mm,5d,bandcamp,beinasco,bellassai,canon,cantante,cara,cavaliere,chitarra,ep,f%2F1.4,fotografie,fuori,guitar,iso,lisa,matteo,mia,moda,photos,rock,sigma,singer,solista,torino,un","S2CellId":"47c66f5000000000","result":4356,"accuracy":0.017275576,"title":"In+the+Recording+Studio","description":"New+photo+gallery%21+MORE+photos+%3Ca+href%3D%22http%3A%2F%2Fwww.lucamoglia.it%2Fit%2Fgalleries%2Fevents%2Fbellassai.html%22+rel%3D%22nofollow%22%3EHERE+%28click+here%29%21%21%3C%2Fa%3E%0ABeinasco%2C+Torino%2C+Italy.%0ACanon+5d+%2B+Sigma+50mm+f%2F1.4%0A______________%0A%3Ca+href%3D%22http%3A%2F%2Fwww.lucamoglia.it%22+rel%3D%22nofollow%22%3Ewww.lucamoglia.it%3C%2Fa%3E%0A------------------------"}
{"id":2203854643,"url":"http://farm3.staticflickr.com/2271/2203854643_27c73a1fca.jpg","path":"528/3c7/5283c7aae2e2d656ecb17840743c4a36.jpg","date":"2007-11-03","year":2007,"month":11,"lon":7.244625,"lat":45.003166,"tags":"%D0%B8%D1%82%D0%B0%D0%BB%D0%B8%D1%8F,%D0%BF%D0%B5%D0%B9%D0%B7%D0%B0%D0%B6,%D1%81%D0%BE%D0%B1%D0%B0%D0%BA%D0%B0,cane,dog,fujifilm+s5500,italia,italy,lacchi,landscape,paesaggio","S2CellId":"4754000000000000","result":3297,"accuracy":0.01967398,"title":"Lacchi+is+lucky","description":"He+really+enjoys+walking+on+mountains."}
{"id":11838097753,"url":"http://farm6.staticflickr.com/5537/11838097753_7cef5a3059.jpg","path":"af6/822/af682250142d96fc54e6a86dccee4978.jpg","date":"2014-01-01","year":2014,"month":1,"lon":7.953565,"lat":45.83205,"tags":"albero,alpi,alps,casa,inverno,neve,piedmont,piemonte,riva,riva+valdobbia,snow,tree,valdobbia,valsesia,winter","S2CellId":"3554400000000000","result":2267,"accuracy":0.14731686,"title":"Danni+della+Neve","description":"Strade%2C+cortili%2C+pieni+di+alberi+curvi.+E+chi+troppo+curva..."}
{"id":4049219369,"url":"http://farm3.staticflickr.com/2764/4049219369_7a25df4d98.jpg","path":"73a/b82/73ab82bc7e104de07a3f0232294a94a.jpg","date":"2009-10-27","year":2009,"month":10,"lon":7.671425,"lat":45.111446,"tags":"amici,cameraphone,compleanno,festa,italia,luca%2Blamorte,teamlife,torino,torta","S2CellId":"89d0400000000000","result":9221,"accuracy":0.005804099,"title":"sta+per+finire+mi+affretterei%21%21%21","description":"in+Via+Guglielmo+Reiss+Romoli+266%2C+Torino+%28Italia%29"}
{"id":9739406389,"url":"http://farm8.staticflickr.com/7392/9739406389_84ae6148a4.jpg","path":"bd6/836/bd683642cd8689478d3e4ec17349aed.jpg","date":"2013-08-30","year":2013,"month":8,"lon":7.684335,"lat":45.824493,"tags":"antagnod,aosta,ayas,coutard,montagna,ru","S2CellId":"5370c00000000000","result":6047,"accuracy":0.06729078,"title":"Ru+Coutard+%287%29","description":"Antagnod%2C+valle+d%27Aosta."}
{"id":4508647222,"url":"http://farm3.staticflickr.com/2019/4508647222_4b3d608139.jpg","path":"8a7/668/8a7668aa24546a9e5c2387988612428f.jpg","date":"2008-01-05","year":2008,"month":1,"lon":7.743988,"lat":45.082558,"tags":"alberi","S2CellId":"47e6d00000000000","result":4688,"accuracy":0.020629918,"title":"100_0391"}
{"id":103787521,"url":"http://farm1.staticflickr.com/41/103787521_4a27705f0d.jpg","path":"45a/f60/45af60a4c0c874989a71f2241f16cda3.jpg","date":"2006-02-23","year":2006,"month":2,"lon":7.687221,"lat":45.07011,"tags":"citt%C3%A0+italiane,italian+cities,italy,luci+d%27artista,olimpiadi+invernali,olympic+winter+games,torino,torino+2006,turin","S2CellId":"47886d7000000000","result":3626,"accuracy":0.050110288,"title":"Torino+olimpica%3A+Via+Po","description":"Torino+olimpica%3A+Via+Po%0D%0ALuci%3A+%22Palomar%22+di+Giulio+Paolini"}
{"id":12008868353,"url":"http://farm3.staticflickr.com/2843/12008868353_9f2d1ef296.jpg","path":"d6f/3ed/d6f3edab6d88126d118fa843f93e.jpg","date":"2014-01-17","year":2014,"month":1,"lon":7.299878,"lat":45.726852,"tags":"black,enki22,minimalism,natura,nature,white","S2CellId":"4719000000000000","result":3230,"accuracy":0.001862816,"title":"resurrection"}
{"id":498560633,"url":"http://farm1.staticflickr.com/224/498560633_f3927cb4b2.jpg","path":"947/a1a/947a1a6cc558a188e8532dba9e1acc.jpg","date":"2007-05-12","year":2007,"month":5,"lon":7.782129,"lat":45.9833,"tags":"matterhorn,mountain,mountains,schweiz,ski,snow,suisse,svizra,svizzera,switzerland,town,track,tracks,train,zermatt","S2CellId":"4776f00000000000","result":3424,"accuracy":0.06807608,"title":"Zermatt+%2707+078","description":"Going+up+to+see+the+Matterhorn.+This+was+taken+looking+back%2C+that%27s+why+it+goes+down+and+not+up.%0A%0A%7E*%7E%0A%3Ci%3E%3Cb%3E%3Ca+href%3D%22http%3A%2F%2Fwww.theroyalolive.com%2Fshop.htm%22%3EShop%3C%2Fa%3E+for%3A%3C%2Fb%3E%3C%2Fi%3E+%0A%3Ca+href%3D%22http%3A%2F%2Fwww.theroyalolive.com%2FshopCards.htm%22%3EGreeting+cards%3C%2Fa%3E+%28100%25recycled%2C+hand+crafted%29%3B%0A%3Ca+href%3D%22http%3A%2F%2Fwww.theroyalolive.com%2FshopPrints.htm%22%3Eprints%3C%2Fa%3E%3B%0A%3Ca+href%3D%22http%3A%2F%2Fwww.theroyalolive.com%2FshopPosters.htm%22%3Eposters%3C%2Fa%3E."}
{"id":5350440724,"url":"http://farm6.staticflickr.com/5204/5350440724_b71ff810f1.jpg","path":"a46/b77/a46b773ec737e8224edecb334494bd3.jpg","date":"2011-01-03","year":2011,"month":1,"lon":7.694292,"lat":45.06541,"tags":"graffiti,italia,italy,torino,turin","S2CellId":"808f7e5000000000","result":7030,"accuracy":0.008214678}
{"id":8196167442,"url":"http://farm9.staticflickr.com/8059/8196167442_27d0a33d93.jpg","path":"214/db0/214db0aed59222e3bde9f20153d2b6b.jpg","date":"2012-11-18","year":2012,"month":11,"lon":7.693117,"lat":45.069126,"tags":"instagram+app,iphoneography,square,square+format,x-pro+ii","S2CellId":"47886d7000000000","result":3626,"accuracy":0.9207916,"title":"%23mole+%23antonelliana+%23torino+%23igerstorino"}
{"id":2871736193,"url":"http://farm4.staticflickr.com/3064/2871736193_b817c73883.jpg","path":"eea/9db/eea9db763ee4d82567d32b23cbeb61.jpg","date":"2008-09-14","year":2008,"month":9,"lon":7.347793,"lat":45.737984,"tags":"aosta2008,austalianshepherd,goldcup1,i.a.s.a,switzerland,ticino","S2CellId":"476c8f0000000000","result":3330,"accuracy":0.1527565,"title":"IASA+Gold+Cup+1+-+Aosta+2008"}
{"id":8128659641,"url":"http://farm9.staticflickr.com/8047/8128659641_0c5ed33299.jpg","path":"717/6e3/7176e3241b7aeaf954ab48b18909e9d.jpg","date":"2012-10-27","year":2012,"month":10,"lon":7.684716,"lat":45.07861,"tags":"instagram+app,iphoneography,square,square+format","S2CellId":"4652533000000000","result":2860,"accuracy":0.009412647,"title":"Un+tuffo+nelle+tradizioni+al+San+Giors"}
{"id":1403071617,"url":"http://farm2.staticflickr.com/1091/1403071617_ced3e15728.jpg","path":"8f1/64d/8f164d30a4a1b3af3d363eb634851e0.jpg","date":"2007-08-22","year":2007,"month":8,"lon":7.692811,"lat":45.069035,"tags":"italia,italy,museum,muzeum,piedmont,piemont,piemonte,synagoga,synagogue,taras,terrace,torino,tower,turin,turyn,w%C5%82ochy,wie%C5%BCa,wieza,wlochy","S2CellId":"47886d7000000000","result":3626,"accuracy":0.8559136,"title":"Mole+Antonelliana","description":"Mole+Antonelliana%2C+Via+Montebello%2C+Turyn%2C+22+sierpnia+2007+r.%0A**%0AMole+Antonelliana%2C+Via+Montebello%2C+Turin%2C+August+22%2C+2007"}
{"id":4682382597,"url":"http://farm5.staticflickr.com/4056/4682382597_ed5246890b.jpg","path":"eca/172/eca172d0c290f912e3b978d2b04735ce.jpg","date":"2010-06-05","year":2010,"month":6,"lon":7.755661,"lat":45.60779,"tags":"associazioneitaliavicina,bard,broveran,castelli,castellodifenis,castellodiissogne,castellopavone,europa,fortedibard,hotelcabrun,italia,manageritaliaverona,ponteromano,pontsaintmartin,terrevicine,vagabondiamo,velledaosta,viaggi","S2CellId":"4788c00000000000","result":3631,"accuracy":0.059728663,"title":"CASTELLI+VALLE+D%27AOSTA","description":"Bard"}
{"id":7235254166,"url":"http://farm8.staticflickr.com/7085/7235254166_0fec14c0ce.jpg","path":"5e5/f78/5e5f781541d92964fa404e972d4627cd.jpg","date":"2012-05-20","year":2012,"month":5,"lon":7.968692,"lat":45.07837,"tags":"mangialonga+2012","S2CellId":"80d9535400000000","result":7284,"accuracy":0.024084719,"title":"albugnano+2012","description":"OLYMPUS+DIGITAL+CAMERA"}
{"id":211999870,"url":"http://farm1.staticflickr.com/67/211999870_bea10d2102.jpg","path":"81d/1ed/81d1ed9e402174f56cfacc658ae97a40.jpg","date":"2006-07-29","year":2006,"month":7,"lon":7.089872,"lat":45.50298,"tags":"alpi,alps,animals,hiking,marmots,nature,val+d%27aosta,val+di+rhemes,wildlife","S2CellId":"4789100000000000","result":3632,"accuracy":0.032442074,"title":"Agh%21+You%27re+choking+me%21"}
{"id":4098835913,"url":"http://farm3.staticflickr.com/2706/4098835913_2ab75ac819.jpg","path":"123/579/1235796c64e44a4bceab34c48b1a82.jpg","date":"2009-11-10","year":2009,"month":11,"lon":7.65953,"lat":45.059456,"tags":"energy,gastini,luci+d%27artista,neon+lights,torino,turin","S2CellId":"809f000000000000","result":7130,"accuracy":0.025728762,"title":"L%27energia+che+unisce...+-+Marco+Gastini"}
{"id":4322355066,"url":"http://farm5.staticflickr.com/4009/4322355066_ddd59fe12a.jpg","path":"9e7/552/9e75529e1c826e5910ba7dbfb74b5b.jpg","date":"2010-01-30","year":2010,"month":1,"lon":7.319651,"lat":45.73692,"tags":"24-70l,5d,aosta,aoste,artigiani,bois,canon,fiera,flavio,foire,legno,orso,ours,saint,sant,santorso,scultura,suffredini,tree,valle,vallee,valley","S2CellId":"3724000000000000","result":2419,"accuracy":0.01821381,"title":"Fiera+di+Sant%27Orso+2010+-+Foire+de+Saint+Ours+2010","description":"1010ma+edizione+della+millenaria+Fiera+di+Sant%27Orso+dove+i+pi%C3%B9+importanti+artigiani+valdostani+espongono+le+loro+opere+nelle+affollatissime+vie+di+Aosta+tutti+gli+anni+il+30+ed+il+31+gennaio."}
{"id":4859644024,"url":"http://farm5.staticflickr.com/4073/4859644024_e046553bec.jpg","path":"a8f/b44/a8fb44f4f7623e89d1ce5247af9df46f.jpg","date":"2010-07-18","year":2010,"month":7,"lon":7.260246,"lat":45.30912,"tags":"band,bosco,campo,contest,field,fiori,indie,italiana,photos,promo,rock,torino,turin","S2CellId":"4657000000000000","result":2881,"accuracy":0.018098895,"title":"Trio+Rock+-+Canon+28mm+f%2F1.8","description":"Visit+the+new+HD+1200px+gallery%21+MORE+photos+%3Ca+href%3D%22http%3A%2F%2Fwww.lucamoglia.it%2Fit%2Fgalleries%2Fpeopledetails%2Fretroviaalbum.html%22+rel%3D%22nofollow%22%3EHERE+%28click+here%29%21%21%3C%2Fa%3E%0AMondrone%2C+Valli+di+Lanzo%2C+Italy.%0ACanon+5d+%2B+Canon+28mm+f%2F1.8+USM%0A______________%0A%3Ca+href%3D%22http%3A%2F%2Fwww.lucamoglia.it%22+rel%3D%22nofollow%22%3Ewww.lucamoglia.it%3C%2Fa%3E%0A-------------------------"}
{"id":8439975215,"url":"http://farm9.staticflickr.com/8227/8439975215_615e8aa890.jpg","path":"bdc/418/bdc418c84ce730d3e5c99aaf8f4d325.jpg","date":"2013-02-03","year":2013,"month":2,"lon":7.69039,"lat":45.057415,"tags":"amaro,instagram+app,iphoneography,square,square+format","S2CellId":"864e640000000000","result":7620,"accuracy":0.005402519,"title":"Sunny+Sunday+near+the+river..."}
{"id":6254839315,"url":"http://farm7.staticflickr.com/6176/6254839315_77fc5418b1.jpg","path":"42e/318/42e318eb9f778ca24731deb6fc2feec.jpg","date":"2011-10-14","year":2011,"month":10,"lon":7.723342,"lat":45.106663,"tags":"automotive,aziende,impresa,imprese,iveco,made+in+torino,provincia,torino,turismo,turismotorino.org,visita,visita+guidata","S2CellId":"4788100000000000","result":3615,"accuracy":0.052262947,"title":"MadeinTorino_Iveco_9126"}
{"id":5653974817,"url":"http://farm6.staticflickr.com/5186/5653974817_7067dbf29a.jpg","path":"cfb/0ee/cfb0eed241d99eb7a9c4cfa323c5f1ae.jpg","date":"2011-04-16","year":2011,"month":4,"lon":7.682662,"lat":45.072678,"tags":"b%26n,b%26w,basilica,bianco,black,chiesa,church,corpus,detail,dettaglio,domini,italia,italy,k7,nero,pentax,pentax+k-7,piedmont,piemonte,statua,statue,torino,turin,white","S2CellId":"47c3c47900000000","result":4213,"accuracy":0.10887663,"title":"Basilica+del+Corpus+Domini+-+Dettaglio","description":"Pentax+K-7+%2B+Pentax+SMC-DA+18-55mm+f%2F3%2C5-5%2C6+AL+II"}
{"id":2061918289,"url":"http://farm3.staticflickr.com/2018/2061918289_9d2ae428f2.jpg","path":"549/180/549180d628a7aab5fa7151eb4dad9f4f.jpg","date":"2007-11-24","year":2007,"month":11,"lon":7.692081,"lat":45.068596,"tags":"2007,mole+antonelliana,people,sign,street,tff,torino,torino+film+festival,umbrella","S2CellId":"47c3715000000000","result":4187,"accuracy":0.027719276,"title":"25","description":"And+running"}
{"id":1856708968,"url":"http://farm3.staticflickr.com/2168/1856708968_d1cd2fc967.jpg","path":"637/eb3/637eb3ba5aac25668a6e31cefdb16.jpg","date":"2007-11-04","year":2007,"month":11,"lon":7.230226,"lat":45.10739,"tags":"alberi,autumn,autunno,boschi,foglie,leaves,natura,nature,trees,woods","S2CellId":"89c2d00000000000","result":9097,"accuracy":0.32786736,"title":"Sunday+walk","description":"A+sunny+day%2C+perfect+for+a+walk+in+the+woods."}
{"id":6053552923,"url":"http://farm7.staticflickr.com/6064/6053552923_5d64ca6d7a.jpg","path":"b3e/8a3/b3e8a32d0493fb543fc8a60ecfc46b9.jpg","date":"2011-05-20","year":2011,"month":5,"lon":7.653865,"lat":45.045815,"tags":"cavallo,dressage,equino,equitazione,fantino,ippica,occhio,salto","S2CellId":"865c5f0000000000","result":7664,"accuracy":0.13293265,"title":"Sguardo"}
{"id":2114104837,"url":"http://farm3.staticflickr.com/2064/2114104837_1706af5cd1.jpg","path":"583/16c/58316cb878592e7a207d26e63a31cc1f.jpg","date":"2007-12-16","year":2007,"month":12,"lon":7.680816,"lat":45.080307,"tags":"italy,macki,turin","S2CellId":"808f7e1c00000000","result":7025,"accuracy":0.015169378,"title":"Palazzo+Reale+in+rosso"}
{"id":9154602552,"url":"http://farm3.staticflickr.com/2815/9154602552_b0e26c4f8d.jpg","path":"49c/429/49c4296ee508ffac4a71c9521a8f10.jpg","date":"2013-06-23","year":2013,"month":6,"lon":7.680408,"lat":45.064663,"tags":"2013,corteo,sangiovanni,storico,torino","S2CellId":"47165b7000000000","result":3219,"accuracy":0.0763424,"title":"Corteo+Storino+San+Giovanni+Torino+2013","description":"Corteo+Storico+San+Giovanni+Torino+2013"}
{"id":1422101085,"url":"http://farm2.staticflickr.com/1234/1422101085_a961b2d5bd.jpg","path":"213/fca/213fca171e7db63ceb2aea35d4197f.jpg","date":"2007-08-22","year":2007,"month":8,"lon":7.684818,"lat":45.074432,"tags":"%C5%BAr%C3%B3d%C5%82o,bull,byk,italia,italy,piedmont,piemont,piemonte,source,studnia,torino,turin,turyn,w%C5%82ochy,water,wlochy,woda,zrodlo","S2CellId":"47a851df00000000","result":3938,"accuracy":0.022028452,"title":"Studzienka","description":"Studzienka+w+kszta%C5%82cie+byka+%28%3Ci%3Eil+toro%3C%2Fi%3E%29+-+symbolu+miasta%2C+Piazza+Cesare+Augusto%2C+Turyn%2C+22+sierpnia+2007+r.%0A**%0ABull-shaped+water+source+%28bull+-+%3Ci%3Eil+toro%3C%2Fi%3E+-+is+the+symbol+of+the+city%29%2C+Piazza+Cesare+Augusto%2C+Turin%2C+August+22%2C+2007"}
{"id":3760432157,"url":"http://farm4.staticflickr.com/3529/3760432157_27f80d3795.jpg","path":"7c7/be8/7c7be880a62ef81051d8911591889979.jpg","date":"2006-03-29","year":2006,"month":3,"lon":7.671933,"lat":45.11223,"tags":"2006,ceronda,cielo,esterno,giornatatilab,giorno,italy,noknownpeople,nopeople,nuvole,paolo_cst,piemonte,telecom,torino,vitalavorativa","S2CellId":"8752900000000000","result":7831,"accuracy":0.014474059,"title":"19+Antenne+Tilab+e+Alpi"}
{"id":12972851634,"url":"http://farm8.staticflickr.com/7323/12972851634_23eb7fe74a.jpg","path":"3a3/ff9/3a3ff9302a3160fb7ed82968efb119d1.jpg","date":"2014-02-24","year":2014,"month":2,"lon":7.617827,"lat":45.83116,"tags":"gatti,igloo,neve","S2CellId":"4ec0000000000000","result":5959,"accuracy":0.11455765,"title":"IMG_5415"}
{"id":337404656,"url":"http://farm1.staticflickr.com/159/337404656_52749a2224.jpg","path":"898/f81/898f8169b920a376fe8de44154b03482.jpg","date":"2006-12-27","year":2006,"month":12,"lon":7.686191,"lat":45.068806,"tags":"italy,luci+d%27artista,piemonte,torino,turin","S2CellId":"476d079400000000","result":3347,"accuracy":0.1528154,"title":"%22Fontane+Luminose%22%2C+J.Vercruysse","description":"Inferno+in+piazza+Carlo+Alberto"}
{"id":506266687,"url":"http://farm1.staticflickr.com/203/506266687_0e9da77ff9.jpg","path":"652/b7f/652b7f30dad8f9651efc14e72db8515.jpg","date":"2007-04-25","year":2007,"month":4,"lon":7.658672,"lat":45.07449,"tags":"1900,art+nouveau,italy,stile+liberty,torino,turin","S2CellId":"0d126c1c00000000","result":191,"accuracy":0.098873235,"title":"Turin_07-04-25_093.jpg"}
{"id":5285385894,"url":"http://farm6.staticflickr.com/5286/5285385894_68c2dd9406.jpg","path":"f2f/a15/f2fa152d228122cc1c74d483349648.jpg","date":"2010-12-19","year":2010,"month":12,"lon":7.670516,"lat":45.079823,"tags":"abandoned,decay,duparc,giampaolosquarcina,nikond200,torino","S2CellId":"6d318a3000000000","result":6816,"accuracy":0.011517805,"title":"La+demolizione+del+DuParc","description":"Annessa+al+Cinema+Hollywood+era+la+sala+danze+DuParc.+In+demolizione+pure+questa"}
{"id":3721878334,"url":"http://farm3.staticflickr.com/2669/3721878334_2a1d50bcd5.jpg","path":"d87/5c6/d875c61086a047f66c3724a5fca2f0.jpg","date":"2009-07-11","year":2009,"month":7,"lon":7.692811,"lat":45.069595,"tags":"architecture,b%26w,black+and+white,chair,cinema,design,interior,interni,mole+antonelliana,museo+del+cinema,sixties,television,torino,tv","S2CellId":"3e5e700000000000","result":2606,"accuracy":0.01064494,"title":"lounge"}
{"id":5020792331,"url":"http://farm5.staticflickr.com/4105/5020792331_09f0cb115b.jpg","path":"806/149/80614940c5f9b03350d6cd483e341597.jpg","date":"2010-09-09","year":2010,"month":9,"lon":7.677576,"lat":45.073765,"tags":"150,2010,bicicleta,bicis,bicycle,bikes,couple,ita,italia,italy,jovenes,paco+ct,pareja,piemonte,torino,unidad,via+giuseppe+garibaldi,young","S2CellId":"47e671dc00000000","result":4656,"accuracy":0.018860068,"title":"Verso+il+2011","description":"150%C2%BA+Anniversario+dell%27unit%C3%A0+d%27Italia"}
