{"id":4146847905,"url":"http://farm3.staticflickr.com/2539/4146847905_fea2c8b589.jpg","path":"6cc/034/6cc03423b5d244c0c8ac0a4097b882.jpg","date":"2009-09-05","year":2009,"month":9,"lon":-65.7548,"lat":-19.588827,"tags":"bolivia,footloose,potosi","S2CellId":"916dd70000000000","result":9619,"accuracy":0.16657726,"title":"Potos%C3%AD"}
{"id":4164059537,"url":"http://farm3.staticflickr.com/2576/4164059537_530832cf3b.jpg","path":"78f/079/78f079e5478fd5ff24e2478e6825d7b5.jpg","date":"2009-12-06","year":2009,"month":12,"lon":-65.26033,"lat":-19.044756,"tags":"bolivia,bolivien","S2CellId":"1502d00000000000","result":1353,"accuracy":0.030841487,"title":"MAS-Fahne+%28links%29+und+Fahne+der+indigenen+Bewegung+%28rechts%29+auf+einem+Pickup"}
{"id":3857696201,"url":"http://farm4.staticflickr.com/3527/3857696201_40ec4e1f84.jpg","path":"a64/d4e/a64d4eae475ed1a9c21e05943644738.jpg","date":"2009-07-24","year":2009,"month":7,"lon":-65.73953,"lat":-19.60837,"tags":"bolivia,cerro+de+potosi,dynamite,potosi,running","S2CellId":"9169000000000000","result":9606,"accuracy":0.10110272,"title":"Running+from+the+lit+dynamite","description":"Taken+in+Potosi%2C+Bolivia+on+24+July+2009+by+Jimmy+Harris."}
{"id":5765465371,"url":"http://farm6.staticflickr.com/5068/5765465371_52b44b8f9b.jpg","path":"498/c26/498c265eee58bbade5d3b1801897df.jpg","date":"2011-05-24","year":2011,"month":5,"lon":-65.2569,"lat":-19.03859,"tags":"bolivia,bolivie,sucre","S2CellId":"3442a97400000000","result":2042,"accuracy":0.23066893,"title":"Festivit%C3%A9s+%C3%A0+la+veille+du+25+mai","description":"Sucre%2C+Bolivie%2C+mai+2011.%0A%3Ca+href%3D%22http%3A%2F%2Fwww.benontherun.com%2Fpost%2Fsucre-la-ville-blanche%22+rel%3D%22nofollow%22%3Ewww.benontherun.com%2Fpost%2Fsucre-la-ville-blanche%3C%2Fa%3E"}
{"id":1870645457,"url":"http://farm3.staticflickr.com/2402/1870645457_db3a0ce15c.jpg","path":"181/d99/181d992be69613a20349eca95fbe35.jpg","date":"2006-06-27","year":2006,"month":6,"lon":-65.751625,"lat":-19.568201,"tags":"bolivia,potosi","S2CellId":"8f73000000000000","result":9550,"accuracy":0.20743772,"title":"Potosi"}
{"id":2336264520,"url":"http://farm3.staticflickr.com/2077/2336264520_deb943d827.jpg","path":"95e/4d5/95e4d5bb8eba58ea5af4b44df562b63.jpg","date":"2008-03-15","year":2008,"month":3,"lon":-65.26136,"lat":-19.045893,"tags":"2008,bolivia,pigeons,sucre","S2CellId":"9662c54000000000","result":9879,"accuracy":0.08071212,"title":"Pigeons%21"}
{"id":4153882380,"url":"http://farm3.staticflickr.com/2629/4153882380_5c33ee9785.jpg","path":"90f/a84/90fa841440396333f5a8e85926b32d1.jpg","date":"2009-09-06","year":2009,"month":9,"lon":-65.25428,"lat":-19.054314,"tags":"bolivia,footloose,sucre","S2CellId":"00a5000000000000","result":49,"accuracy":0.13855481,"title":"Sucre"}
{"id":5764557869,"url":"http://farm6.staticflickr.com/5227/5764557869_0bca08b6d6.jpg","path":"f4c/722/f4c722ac1b8cc6d078bad91d9494a6.jpg","date":"2011-05-23","year":2011,"month":5,"lon":-65.2569,"lat":-19.03859,"tags":"bolivia,bolivie,sucre","S2CellId":"91d5c00000000000","result":9634,"accuracy":0.2072191,"title":"Sucre","description":"Sucre%2C+Bolivie%2C+mai+2011.%0A%3Ca+href%3D%22http%3A%2F%2Fwww.benontherun.com%2Fpost%2Fsucre-la-ville-blanche%22+rel%3D%22nofollow%22%3Ewww.benontherun.com%2Fpost%2Fsucre-la-ville-blanche%3C%2Fa%3E"}
{"id":5790215042,"url":"http://farm3.staticflickr.com/2504/5790215042_e2d767120c.jpg","path":"68f/d21/68fd215154e22921be2bdc8664e29ad.jpg","date":"2011-05-24","year":2011,"month":5,"lon":-65.2569,"lat":-19.03859,"tags":"bolivia,bolivie,sucre","S2CellId":"31da19a300000000","result":1857,"accuracy":0.090895094,"title":"Sucre","description":"Sucre%2C+Bolivie%2C+mai+2011.%0A%3Ca+href%3D%22http%3A%2F%2Fwww.benontherun.com%2Fpost%2Fsucre-la-ville-blanche%22+rel%3D%22nofollow%22%3Ewww.benontherun.com%2Fpost%2Fsucre-la-ville-blanche%3C%2Fa%3E"}
{"id":5948058816,"url":"http://farm7.staticflickr.com/6150/5948058816_a3e50a69bc.jpg","path":"af0/eb5/af0eb54e5c013480fe6ce28611785f.jpg","date":"2010-08-25","year":2010,"month":8,"lon":-65.25887,"lat":-19.041348,"tags":"bolivia,honeymoon,s.+america,south+america,sucre,vacation","S2CellId":"54bec00000000000","result":6298,"accuracy":0.030347077,"title":"DSCN3710"}
{"id":5324927928,"url":"http://farm6.staticflickr.com/5004/5324927928_97d7413126.jpg","path":"86b/fb6/86bfb6acb682eea1bf734a7590f892.jpg","date":"2006-09-29","year":2006,"month":9,"lon":-65.25673,"lat":-19.040213,"tags":"finland,finlande,helsinki","S2CellId":"8589400000000000","result":7437,"accuracy":0.10678915,"title":"IMG_2699.jpg"}
{"id":4153892760,"url":"http://farm3.staticflickr.com/2718/4153892760_7565505a42.jpg","path":"9a6/69f/9a669f175bf3719ee3f11f92b6d76265.jpg","date":"2009-09-08","year":2009,"month":9,"lon":-65.25964,"lat":-19.04792,"tags":"bolivia,footloose,sucre","S2CellId":"8752f51000000000","result":7839,"accuracy":0.05790868,"title":"Sucre"}
{"id":7670939904,"url":"http://farm9.staticflickr.com/8152/7670939904_15eee453d0.jpg","path":"15b/227/15b2274535adec7e34e5bd592f672eb7.jpg","date":"2012-07-13","year":2012,"month":7,"lon":-65.25793,"lat":-19.045893,"tags":"amerique+du+sud,bolivia,bolivie,eglise,greg+road+trip,monastere,sucre,terrasse,tour+du+monde,tourisme,ville,ville+blanche,visite,vue+sur+sucre","S2CellId":"916dd70000000000","result":9619,"accuracy":0.772677,"title":"Bolivie-Sucre"}
{"id":9526593016,"url":"http://farm8.staticflickr.com/7333/9526593016_5920bd2821.jpg","path":"78f/9d1/78f9d186e83b2d6dca6f42dc67fd2d.jpg","date":"2013-08-10","year":2013,"month":8,"lon":-65.25909,"lat":-19.045181,"tags":"bolivia,lx7,mercado+central.,rtw,south+america,sucre","S2CellId":"8085806700000000","result":6932,"accuracy":0.015586067,"title":"The+fruit+drought+is+over%21+In+Sucre+central+market+you+can+buy+this+giant+bowl+of+fruit%2C+yoghurt+and+cream+for+60p%21"}
{"id":7670904314,"url":"http://farm8.staticflickr.com/7107/7670904314_26cf0a6225.jpg","path":"19d/671/19d671a7f2ace2bb585fc2641d7f9ae.jpg","date":"2012-07-12","year":2012,"month":7,"lon":-65.25793,"lat":-19.045893,"tags":"amerique+du+sud,bolivia,bolivie,eglise,greg+road+trip,monastere,sucre,terrasse,tour+du+monde,tourisme,ville,ville+blanche,visite,vue+sur+sucre","S2CellId":"91d5c00000000000","result":9634,"accuracy":0.26331368,"title":"Bolivie-Sucre"}
{"id":3941201698,"url":"http://farm3.staticflickr.com/2510/3941201698_1bb85d132c.jpg","path":"e9d/17b/e9d17bbc9ac36fc3e2b86d808251b93e.jpg","date":"2009-08-23","year":2009,"month":8,"lon":-65.75609,"lat":-19.579199,"tags":"bolivia,cerro+rico,potos%C3%AD","S2CellId":"88fd000000000000","result":8754,"accuracy":0.004435078,"title":"Big+Pimpin%27+Elephant"}
{"id":4146850883,"url":"http://farm3.staticflickr.com/2655/4146850883_f9bf66d55d.jpg","path":"49c/a2e/49ca2e4aaba994a812bc7a7420b185f.jpg","date":"2009-09-05","year":2009,"month":9,"lon":-65.7548,"lat":-19.588827,"tags":"bolivia,footloose,potosi","S2CellId":"600108d000000000","result":6401,"accuracy":0.025405105,"title":"Potos%C3%AD"}
