{"id":10761255724,"url":"http://farm8.staticflickr.com/7356/10761255724_2f0f8067c1.jpg","path":"b56/aa6/b56aa66817b6a229ddcb67c8b917e32a.jpg","date":"2013-09-12","year":2013,"month":9,"lon":108.31094,"lat":10.95943,"tags":"mui+ne,sea2013,vietnam","S2CellId":"3143000000000000","result":1758,"accuracy":0.20244236,"title":"DSC_2204.jpg"}
{"id":9000321581,"url":"http://farm8.staticflickr.com/7359/9000321581_fd324a8c22.jpg","path":"e53/b9e/e53b9e9052e2667533b6ebe55183dfd.jpg","date":"2012-12-06","year":2012,"month":12,"lon":108.26077,"lat":10.957494,"tags":"mui+ne,vietnam","S2CellId":"185c000000000000","result":1431,"accuracy":0.028237997,"title":"P1070289"}
{"id":7347853536,"url":"http://farm9.staticflickr.com/8001/7347853536_2ce063e2f6.jpg","path":"504/59a/50459adcfb2e8d2afbc625980a0127d.jpg","date":"2012-06-07","year":2012,"month":6,"lon":108.16233,"lat":10.9315,"tags":"asia,crab,food,mui+ne,resort,vietnam","S2CellId":"132f7c0000000000","result":1117,"accuracy":0.003220691,"title":"Crab+Dungeon+-+this+one+wouldn%27t+talk.","description":"Captured%2C+incarcerated%2C+tortured+for+information+he+wouldn%27t+give%2C+this+crab+was+dismembered+bit+by+bit+until+only+a+pincer+remained%2C+still+bound+to+the+dungeon+wall."}
{"id":7779558636,"url":"http://farm9.staticflickr.com/8293/7779558636_5c0f75ae2c.jpg","path":"ae7/de4/ae7de4a1aa1d8c4f4b69b777b534860.jpg","date":"2012-08-06","year":2012,"month":8,"lon":108.10866,"lat":10.921919,"tags":"35mm,analog,dunes,film,hill,kodak+color+plus+200,landscape,life,nikon+fm,sand,summer,woman","S2CellId":"1240000000000000","result":651,"accuracy":0.14051098,"title":"Ph%C3%BAt+ngh%E1%BB%89+ng%C6%A1i","description":"%E2%80%A2+Camera%3A+Nikon+FM%0A%E2%80%A2+Film%3A+Kodak+Color+Plus+200%0A%E2%80%A2+%3Ca+href%3D%22http%3A%2F%2Fflic.kr%2Fs%2FaHsjvhaWrs%22+rel%3D%22nofollow%22%3EPopular+interesting%3C%2Fa%3E+%7C+%3Ca+href%3D%22http%3A%2F%2Fwww.chupanhdao.com%2F%22+rel%3D%22nofollow%22%3EBlog%3C%2Fa%3E+%7C+%3Ca+href%3D%22http%3A%2F%2Fhmoong.tumblr.com%2F%22+rel%3D%22nofollow%22%3ETumblr%3C%2Fa%3E"}
{"id":3289047279,"url":"http://farm4.staticflickr.com/3602/3289047279_8fcce5de69.jpg","path":"4c2/9c9/4c29c9c6b8caa425be2ac4dc4eb68.jpg","date":"2009-01-28","year":2009,"month":1,"lon":108.26065,"lat":10.949281,"tags":"%27mui+ne%27,%27sun+set%27,beach,d70,travels,vietnam","S2CellId":"0d36700000000000","result":311,"accuracy":0.025534214,"title":"Moon+over+Mui+ne"}
{"id":8353372121,"url":"http://farm9.staticflickr.com/8085/8353372121_d5fc4a1fee.jpg","path":"e93/cf6/e93cf6ad33a8c3e3706546577cbf976.jpg","date":"2012-12-18","year":2012,"month":12,"lon":108.33232,"lat":10.961584,"tags":"mui+ne,vietnam","S2CellId":"2300000000000000","result":1490,"accuracy":0.016036702,"title":"IMG_0744","description":"Vietnam+-+Mui+Ne"}
{"id":404869455,"url":"http://farm1.staticflickr.com/182/404869455_5137742972.jpg","path":"272/e37/272e37a9792f3cb44492d98daf0e34e.jpg","date":"2007-02-08","year":2007,"month":2,"lon":108.28915,"lat":10.930742,"tags":"%23cc-by-sa,2007,abend,asia,beach,boat,boote,cc,country,countryside,d%C3%A4mmerung,f30,feb07,februar07,finepix,finepixf30,fischer,fischerboote,fisher,fishing,fishing+village,freenature,freienatur,fuji,fujifilm,hafen,heardawards,heart+awards,heartaward,horziont,imagesofvietnam,journey,land,landscape,landschaft,light,marfis75,marfis75+on+flickr,meer,mui+ne,nacht,natur,nature,night,ocean,ozean,reise,sonne,sonnenschein,sonnenuntergang,sun,sunset,sunsetofourheart,top20sunsetsofourhearts,travel,untergang,urlaub,vacation,vietnam,vietnamimages,village","S2CellId":"0094000000000000","result":1,"accuracy":0.0715324,"title":"Mui+ne+-+Fischerdorf+in+Abendd%C3%A4mmerung+%2F+sunset","description":"Mui+ne+am+Abend.+kleiner+Hafen+kurz+vor+dem+Auslaufen+der+Boote."}
{"id":3926769227,"url":"http://farm3.staticflickr.com/2428/3926769227_b709b89a23.jpg","path":"5b4/e17/5b4e17331e59b58a59e3f9614c1cee4.jpg","date":"2007-07-29","year":2007,"month":7,"lon":108.30082,"lat":10.94433,"tags":"mui+ne,vietnam","S2CellId":"3170400000000000","result":1765,"accuracy":0.3576567,"title":"DSCF4306"}
{"id":8227793519,"url":"http://farm9.staticflickr.com/8343/8227793519_c80e500892.jpg","path":"cfc/e83/cfce83e660e4cce8cea8bd0514a2d34.jpg","date":"2012-08-06","year":2012,"month":8,"lon":108.10866,"lat":10.921919,"tags":"%C3%A1o+d%C3%A0i,35mm,analog,analogue,dawn,dunes,film,hill,iso+200,kodak+color+plus+200,landscape,life,nikon+fm,silhouette,summer,sunrise,woman","S2CellId":"489b000000000000","result":5779,"accuracy":0.008313193,"title":"Phan+Thi%E1%BA%BFt+Sunrise","description":"%E2%80%A2+Camera%3A+Nikon+FM%0A%E2%80%A2+Film%3A+Kodak+Color+Plus+200%0A%E2%80%A2+%3Ca+href%3D%22http%3A%2F%2Fflic.kr%2Fs%2FaHsjvhaWrs%22+rel%3D%22nofollow%22%3EPopular+interesting%3C%2Fa%3E+%7C+%3Ca+href%3D%22http%3A%2F%2Fwww.chupanhdao.com%2F%22+rel%3D%22nofollow%22%3EBlog%3C%2Fa%3E+%7C+%3Ca+href%3D%22http%3A%2F%2Fhmoong.tumblr.com%2F%22+rel%3D%22nofollow%22%3ETumblr%3C%2Fa%3E"}
{"id":6028768992,"url":"http://farm7.staticflickr.com/6202/6028768992_a36647db11.jpg","path":"f5f/84f/f5f84f3253f254dc972f31dc7745d8.jpg","date":"2011-08-01","year":2011,"month":8,"lon":108.18872,"lat":10.94254,"tags":"desert,mui+ne,vietnam","S2CellId":"3177000000000000","result":1797,"accuracy":0.1215069,"title":"Vietnam+-+Mui+Ne"}
{"id":8686782228,"url":"http://farm9.staticflickr.com/8403/8686782228_49134dd1ab.jpg","path":"cac/05d/cac05d6c39c0d10695f2a7263e3a0f6.jpg","date":"2013-04-24","year":2013,"month":4,"lon":108.197,"lat":10.942833,"tags":"april2013,muine","S2CellId":"3177000000000000","result":1797,"accuracy":0.035382718,"title":"Mui+Ne%2C+Vietnam"}
{"id":2021165389,"url":"http://farm3.staticflickr.com/2202/2021165389_0c9c08d443.jpg","path":"977/698/977698b84d86f397ec118e21d20614c.jpg","date":"2007-04-10","year":2007,"month":4,"lon":108.113365,"lat":10.917679,"tags":"phan+thiet,semester+at+sea,vietnam","S2CellId":"3177000000000000","result":1797,"accuracy":0.44793567,"title":"2007+04+13+283","description":"beach"}
