{"id":6921300883,"url":"http://farm8.staticflickr.com/7038/6921300883_ffd1350262.jpg","path":"2fa/94a/2fa94a41d148c6381f81b41969a5e84e.jpg","date":"2012-02-04","year":2012,"month":2,"lon":-85.91386,"lat":12.998332,"tags":"nicaragua,selva+negra","S2CellId":"4810100000000000","result":4787,"accuracy":0.12987721,"title":"Opiliones%2C+Eupnoi%2C+Metopilio+Group%2C+Metopilio+sp","description":"under+logs%2C+Selva+Negra+forest"}
{"id":8681272772,"url":"http://farm9.staticflickr.com/8379/8681272772_e9828460ee.jpg","path":"caf/288/caf288efa8fef74999b2b26cbb35e851.jpg","date":"2013-03-06","year":2013,"month":3,"lon":-85.645905,"lat":12.702047,"tags":"adam+cohn,home,matagalpa,muy+muy,nicaragua,poor,poverty,roof,rural,shack,tin,www.adamcohn.com","S2CellId":"182f000000000000","result":1422,"accuracy":0.09085968,"title":"Tin+Roof+Home%2C+Nicaragua"}
{"id":367550846,"url":"http://farm1.staticflickr.com/159/367550846_61f6a1c35b.jpg","path":"c81/9ac/c819aceff2deb6301b5acee4be57ade.jpg","date":"2005-03-27","year":2005,"month":3,"lon":-85.79979,"lat":12.683214,"tags":"habitat+for+humanity,nicaragua,san+ramon","S2CellId":"8f75000000000000","result":9551,"accuracy":0.043477505,"title":"3-27-2005_268"}
{"id":2605110051,"url":"http://farm4.staticflickr.com/3200/2605110051_cce961e448.jpg","path":"da7/9c7/da79c79411c47ff01113743d3ad5d3d8.jpg","date":"2008-06-23","year":2008,"month":6,"lon":-85.92716,"lat":12.698287,"tags":"campesinos,cattle,cows,el+arado,ganado,nicaragua,terrabona","S2CellId":"8f71000000000000","result":9549,"accuracy":0.07808831,"title":"La+Pinta+y+su+cria","description":"Miguel+Miranda+con+la+Pinta.+La+cria+tiene+como+30+dias.+La+Pinta+da+6+litros+al+dia%2C+lo+que+es+mucho+para+una+primera+parida.+Los+Miranda+tienen+7+vacas+paridas+este+invierno%2C+que+les+dasn+unos+30+litros+al+dia%2C+o+150+cordobas+%28uno+7+o+8+US%24%29.+Es+tres+veces+el+salario+de+un+jornalero%2C+y+les+da+para+el+arroz%2C+el+azucar%2C+el+cafe%2C+el+aceite%2C+%22y+algo+mas%22%2C+dice+Reynaldo%2C+el+papa+de+Miguel."}
{"id":367546812,"url":"http://farm1.staticflickr.com/187/367546812_36b407411b.jpg","path":"45f/afc/45fafcebf16f965fac8c67658eecd.jpg","date":"2005-03-26","year":2005,"month":3,"lon":-85.79979,"lat":12.683214,"tags":"habitat+for+humanity,nicaragua,san+ramon","S2CellId":"8f73000000000000","result":9550,"accuracy":0.10851527,"title":"3-26-2005_224"}
{"id":3042987093,"url":"http://farm4.staticflickr.com/3016/3042987093_8c090f8e52.jpg","path":"bcb/a2c/bcba2c3f189414cb4416b56cee883f7.jpg","date":"2008-11-17","year":2008,"month":11,"lon":-85.87652,"lat":12.958139,"tags":"2009,agua,brigade,brigadelandsbyer,campesinos,la+dalia,nicaragua,san+jos%C3%A9","S2CellId":"398c000000000000","result":2482,"accuracy":0.02278693,"title":"San+Jos%C3%A9%2C+Matagalpa"}
{"id":309348022,"url":"http://farm1.staticflickr.com/105/309348022_a7b448f11e.jpg","path":"a1a/d71/a1ad71a99ac268373ba3761a6329bcb.jpg","date":"2006-11-29","year":2006,"month":11,"lon":-85.9027,"lat":12.998201,"tags":"nicaragua,photositook,selvanegra,vacation","S2CellId":"8fa0400000000000","result":9555,"accuracy":0.0029951662,"title":"IMG_6888.jpg","description":"kevin+had+a+cool+magnifying+glass%2C+i+think+for+looking+at+coins+and+such%2C+that+he+brought+along.+i+tried+to+take+a+photo+through+the+magnifying+glass%2C+and+i+wish+it+had+focused+a+little+better%2C+but+you+can+really+see+the+detail+on+the+magenta+pert+of+the+magnified+area."}
{"id":2656911565,"url":"http://farm4.staticflickr.com/3221/2656911565_d60f4a59c7.jpg","path":"e54/9a2/e549a255ac4c96591357f592e35a87d4.jpg","date":"2008-07-07","year":2008,"month":7,"lon":-85.91446,"lat":12.905855,"tags":"apante,armadillo,cusuco,ecoturismo,matagalpa,nicaragua","S2CellId":"864e640000000000","result":7620,"accuracy":0.13340136,"title":"Cerro+Apante%2C+Matagalpa","description":"Un+peque%C3%B1o+cusuco+andaba+buscando+no+se+que..."}
{"id":367532114,"url":"http://farm1.staticflickr.com/149/367532114_dbdfa554d9.jpg","path":"156/c1f/156c1fee5f50f2559ea174fbc5da4af4.jpg","date":"2005-03-22","year":2005,"month":3,"lon":-85.79979,"lat":12.683214,"tags":"habitat+for+humanity,nicaragua,san+ramon","S2CellId":"87ef400000000000","result":8042,"accuracy":0.2514993,"title":"3-22-2005_078"}
{"id":4465047923,"url":"http://farm5.staticflickr.com/4008/4465047923_a0292f237f.jpg","path":"1d1/826/1d182693589cad99865346ff6b0235a.jpg","date":"2010-03-24","year":2010,"month":3,"lon":-85.76786,"lat":12.828539,"tags":"caballos,carreterra+san+ram%C3%B3n+muy+muy,ganado,heste,kooperativer,kv%C3%A6g,nicaragua","S2CellId":"8f73000000000000","result":9550,"accuracy":0.04860958,"title":"Colores+de+verano","description":"Camino+San+Ram%C3%B3n-Muy+Muy."}
{"id":5739738474,"url":"http://farm4.staticflickr.com/3577/5739738474_cd15d8b7b6.jpg","path":"52c/02f/52c02f5bc6745fb8bd6b84f1da6646e5.jpg","date":"2010-12-19","year":2010,"month":12,"lon":-85.92012,"lat":12.924595,"tags":"matagalpa,nicaragua","S2CellId":"88e8c00000000000","result":8695,"accuracy":0.022123067,"title":"Nicaragua+273"}
{"id":2353855706,"url":"http://farm3.staticflickr.com/2055/2353855706_b5e1161ac0.jpg","path":"f21/be5/f21be584f11e2b7521878c6f968214.jpg","date":"2007-08-14","year":2007,"month":8,"lon":-85.99617,"lat":12.973278,"tags":"blue,cougar,lion,mountain,negra,nicaragua,puma,selva","S2CellId":"486e500000000000","result":4972,"accuracy":0.0060758707,"title":"Puma+tracks%2C+Selva+Negra%2C+Nicaragua","description":"We+followed+the+fresh+tracks+of+a+mountain+lion+for+over+an+hour.+Selva+Negra%2C+Nicaragua%2C+August+2007."}
{"id":367541058,"url":"http://farm1.staticflickr.com/164/367541058_48bdac78bf.jpg","path":"9fe/781/9fe781b3ad2cb14ae4b4a9e91e018.jpg","date":"2005-03-24","year":2005,"month":3,"lon":-85.79979,"lat":12.683214,"tags":"habitat+for+humanity,nicaragua,san+ramon","S2CellId":"8f75000000000000","result":9551,"accuracy":0.15885635,"title":"3-24-2005_173"}
{"id":8024899233,"url":"http://farm9.staticflickr.com/8174/8024899233_8323cab47b.jpg","path":"7d9/b65/7d9b653b4263db898ffdaf74d5bd7ec.jpg","date":"2012-09-25","year":2012,"month":9,"lon":-85.91517,"lat":12.924666,"tags":"hudson,instagram+app,iphoneography,square,square+format","S2CellId":"902c000000000000","result":9578,"accuracy":0.010855649,"title":"Cupping+training+w+3+COOMPROCOM+coffees+and+a+4th+from+%40stumptowncoffee"}
{"id":6253866779,"url":"http://farm7.staticflickr.com/6155/6253866779_84c9cdfa66.jpg","path":"cf7/fbe/cf7fbe46b38aaa9e1146e0c3cfbdb41.jpg","date":"2011-10-15","year":2011,"month":10,"lon":-85.65765,"lat":12.471274,"tags":"alianza,boaco,elecciones,fabio,gadea,nicaragua,pli,pol%C3%ADtica,politics,une","S2CellId":"9034000000000000","result":9579,"accuracy":0.077770814,"title":"IMG_5998","description":"Alianza+PLI-UNE.+Boaco%2C+Boaco"}
{"id":3043837518,"url":"http://farm4.staticflickr.com/3212/3043837518_53394aa70a.jpg","path":"461/e96/461e9696b855bb715da6c5279d19c15.jpg","date":"2008-11-17","year":2008,"month":11,"lon":-85.948105,"lat":12.887783,"tags":"2009,brigade,brigadelandsbyer,campesinos,jucuapa,matagalpa,nicaragua,ocotal","S2CellId":"8e6c000000000000","result":9486,"accuracy":0.093201235,"title":"Jucuapa%2C+Matagalpa"}
