{"id":4859691106,"url":"http://farm5.staticflickr.com/4140/4859691106_6f00603c54.jpg","path":"c07/16a/c0716a78649fc4f28493943b9889c247.jpg","date":"2010-07-18","year":2010,"month":7,"lon":107.42294,"lat":47.90771,"tags":"collections,collections3","S2CellId":"36cc000000000000","result":2408,"accuracy":0.05033805,"title":"%E9%98%BF%E8%A8%93%E5%85%AB%2C+Terelj+National+Park+%E7%89%B9%E5%8B%92%E5%90%89%E5%9C%8B%E5%AE%B6%E5%85%AC%E5%9C%92"}
{"id":8023546301,"url":"http://farm9.staticflickr.com/8030/8023546301_56f76980a3.jpg","path":"d78/85a/d7885a8b6927e18c94d8a57da53f69.jpg","date":"2012-09-23","year":2012,"month":9,"lon":107.4265,"lat":47.9315,"tags":"buddhism,buddhist,mongolia,temple","S2CellId":"42c0000000000000","result":2742,"accuracy":0.049124185,"title":"Buddhist+temple%2C+Mongolia"}
{"id":4956341058,"url":"http://farm5.staticflickr.com/4107/4956341058_dccbca9636.jpg","path":"1dd/e52/1dde527d8b9795918a1eebb499ffc5f.jpg","date":"2010-09-03","year":2010,"month":9,"lon":107.668076,"lat":47.801163,"tags":"2001,girls,mongolia,mongolian,terelj","S2CellId":"3770000000000000","result":2436,"accuracy":0.17825668,"title":"Mongolian+Girls+-+Terelj%2C+Mongolia+-+2001","description":"Terelj%3A+not+far+from+Ulaanbaatar.+Scanned+photo%3A+some+quality+issues."}
{"id":6176731379,"url":"http://farm7.staticflickr.com/6164/6176731379_861f895a7f.jpg","path":"1e4/5c0/1e45c03756528ba9643eec8269d6631.jpg","date":"2011-09-24","year":2011,"month":9,"lon":107.37535,"lat":47.741947,"tags":"instagram+app,iphoneography,square,square+format","S2CellId":"876f000000000000","result":7903,"accuracy":0.023736347,"title":"Hey+Ma%2C+there%27s+a+giant+whirly-machine+outside...%21+%23Mongolia+%23Mongolian+%23Airforce+%23Helicopter+%23Military+%23Mi24+%23Hind+%23BlackandWhite"}
{"id":238363961,"url":"http://farm1.staticflickr.com/95/238363961_9e62554ecd.jpg","path":"6e1/bf7/6e1bf743a8eef1c6043ccc74fb0c021.jpg","date":"2005-07-26","year":2005,"month":7,"lon":107.033615,"lat":47.74394,"tags":"mongolia,ulaan+baatar","S2CellId":"5d90000000000000","result":6336,"accuracy":0.1795095,"title":"DSC+0018"}
