{"id":4715905444,"url":"http://farm5.staticflickr.com/4019/4715905444_0417c90c39.jpg","path":"a52/225/a52225792fd7ad7269a28b7767ac28a.jpg","date":"2010-06-04","year":2010,"month":6,"lon":67.05566,"lat":24.79628,"tags":"tedx,tedxkarachi","S2CellId":"478df00000000000","result":3674,"accuracy":0.03363413,"title":"TEDxKarachi","description":"Ready+to+kick+start+TEDxKarachi"}
{"id":2789418227,"url":"http://farm4.staticflickr.com/3185/2789418227_4b11046e7b.jpg","path":"723/75d/72375d3a9c1fef51eabece779911cbd6.jpg","date":"2008-08-10","year":2008,"month":8,"lon":67.02484,"lat":24.848434,"tags":"%C2%A9+all+rights+reserved,ahmad,ahmed,anas,anas+ahmad,anas+ahmad+photography,art,colors,creative,digital+art,interesting,karachi,north,north+karachi,olympus,olympus+fe100.,pakistan,point,shot","S2CellId":"144c000000000000","result":1197,"accuracy":0.005099881,"title":"Karachi+One+Way+Car+Trails","description":"Anas+-+KHI%0A%0A%3Cb%3EE+Mail%3A+%3Ca+href%3D%22mailto%3Amranasahmad%40yahoo.com%3Fsubject%3D%22%3Emranasahmad%40yahoo.com%3C%2Fa%3E++Facebook%3A+%3Ca+href%3D%22http%3A%2F%2Fwww.facebook.com%2Fhome.php%3F%23%2Fprofile.php%3Fid%3D619546922%26ref%3Dnf%22%3EJOIN+NOW%3C%2Fa%3E%3C%2Fb%3E"}
{"id":9186099941,"url":"http://farm4.staticflickr.com/3770/9186099941_d805636b88.jpg","path":"141/729/141729b14637230171e7b1c81d6544f.jpg","date":"2013-05-27","year":2013,"month":5,"lon":67.048805,"lat":24.81342,"tags":"karachi,pakistan,sindh","S2CellId":"8589400000000000","result":7437,"accuracy":0.031852696,"title":"_DSF0147"}
{"id":8078786869,"url":"http://farm9.staticflickr.com/8048/8078786869_7754786ae3.jpg","path":"517/bfa/517bfa69c26a4ddf20c09352faa999e1.jpg","date":"2012-10-11","year":2012,"month":10,"lon":67.0515,"lat":24.867834,"tags":"instagram+app,iphoneography,rise,square,square+format","S2CellId":"9662c5b000000000","result":9881,"accuracy":0.01981248,"title":"Heading+to+the+airport...+I+have+to+admit+I+didn%27t+take+the+bus%21%21+%23heartheirnow+%23eclipse2012"}
{"id":86266714,"url":"http://farm1.staticflickr.com/9/86266714_874d6ad60c.jpg","path":"753/dc8/753dc8b56a21e339dbadfc4aa77d22fe.jpg","date":"2006-01-14","year":2006,"month":1,"lon":67.00424,"lat":24.85778,"tags":"karachi,pakistan","S2CellId":"1458450000000000","result":1210,"accuracy":0.115785144,"title":"Turtle+Race+%40+Sandspit+2"}
{"id":86273608,"url":"http://farm1.staticflickr.com/42/86273608_6de87f158a.jpg","path":"f18/988/f18988f371cb2c7fdfd98e69d8c9f879.jpg","date":"2006-01-03","year":2006,"month":1,"lon":67.00424,"lat":24.85778,"tags":"karachi,pakistan","S2CellId":"5f0b2c0000000000","result":6349,"accuracy":0.038919672,"title":"DSCN2997"}
{"id":8642867364,"url":"http://farm9.staticflickr.com/8545/8642867364_32367cf012.jpg","path":"78d/2fc/78d2fcd62a62f1d6522e6f261ef93f5.jpg","date":"2013-04-11","year":2013,"month":4,"lon":67.0565,"lat":24.860098,"tags":"%D8%B3%D9%86%D8%AF%DA%BE%DB%8C+%D9%85%D8%B3%D9%84%D9%85,%D9%85%DB%81%D8%AF%DB%8C+%D9%B9%D8%A7%D9%88%D8%B1,%D9%BE%D8%A7%DA%A9%D8%B3%D8%AA%D8%A7%D9%86,%DA%A9%D8%B1%D8%A7%DA%86%DB%8C,karachi,pakistan,sindhi+muslim+cooperative+housing+society,smchs","S2CellId":"54906ad000000000","result":6216,"accuracy":0.012107657,"title":"%D9%85%DB%81%D8%AF%DB%8C+%D9%B9%D8%A7%D9%88%D8%B1+IMG-20130411-00510"}
{"id":3337485496,"url":"http://farm4.staticflickr.com/3654/3337485496_53f52f92f5.jpg","path":"1bf/976/1bf9767aa7a46ed392ac8ebaead613d5.jpg","date":"2009-03-04","year":2009,"month":3,"lon":67.00221,"lat":24.816755,"tags":"food,pakistan","S2CellId":"88de500000000000","result":8641,"accuracy":0.0026630345,"title":"Pakistan+Mar2009+267.jpg"}
{"id":6821864075,"url":"http://farm8.staticflickr.com/7011/6821864075_a8ac2640e5.jpg","path":"a1c/da8/a1cda85fccf5fb1e0be708fce4a2bd2.jpg","date":"2012-01-12","year":2012,"month":1,"lon":67.047844,"lat":24.917889,"tags":"monkey,monkey+show","S2CellId":"396d000000000000","result":2474,"accuracy":0.026405135,"title":"Donation+Time"}
{"id":2234154242,"url":"http://farm3.staticflickr.com/2209/2234154242_bc64d4489c.jpg","path":"3ee/0b4/3ee0b4d712a56e5918aba7bac4dfe712.jpg","date":"2008-01-31","year":2008,"month":1,"lon":67.07243,"lat":24.861713,"tags":"misc","S2CellId":"89b7b7b400000000","result":8869,"accuracy":0.04787032,"title":"31012008093"}
{"id":3332115381,"url":"http://farm4.staticflickr.com/3597/3332115381_7be00cb8ba.jpg","path":"40b/671/40b6718a1468e4ab451042b55f1d0e5.jpg","date":"2009-03-02","year":2009,"month":3,"lon":67.03224,"lat":24.852045,"tags":"pakistan","S2CellId":"88d0a631cabb5071","result":8563,"accuracy":0.018446097,"title":"Pakistan+Mar2009+100.jpg"}
{"id":7633789048,"url":"http://farm9.staticflickr.com/8147/7633789048_775d746dff.jpg","path":"2e9/0b9/2e90b9e4d6cad8d48dfcd6f18d5869.jpg","date":"2012-07-22","year":2012,"month":7,"lon":67.06823,"lat":24.869917,"tags":"808+pureview,nokia","S2CellId":"548ff00000000000","result":6177,"accuracy":0.008135844,"title":"Nokia+808+Pureview+out+in+the+garden"}
{"id":6227075415,"url":"http://farm7.staticflickr.com/6175/6227075415_c553eb4dbd.jpg","path":"b9b/320/b9b320eeae651b6dfb59e2badacdf64.jpg","date":"2011-10-09","year":2011,"month":10,"lon":67.007675,"lat":24.85996,"tags":"animals,cage,rabbit","S2CellId":"94ce5b4000000000","result":9726,"accuracy":0.019159077,"title":"IMG_0965","description":"Rabbit..%21%21"}
{"id":3336649899,"url":"http://farm2.staticflickr.com/1205/3336649899_026fb37b07.jpg","path":"347/1d4/3471d4a975e21e461d67936418e18.jpg","date":"2009-03-04","year":2009,"month":3,"lon":67.00221,"lat":24.816755,"tags":"food,pakistan","S2CellId":"47b3100000000000","result":4017,"accuracy":0.013328959,"title":"Pakistan+Mar2009+259.jpg"}
{"id":6725849223,"url":"http://farm8.staticflickr.com/7019/6725849223_f538f716a7.jpg","path":"143/13e/14313ef19a72e7c2e254571df6ab19.jpg","date":"2012-01-19","year":2012,"month":1,"lon":67.0142,"lat":24.86183,"tags":"animals,birds,flying,pigeon,pigeons","S2CellId":"16c0000000000000","result":1414,"accuracy":0.053582653,"title":"IMG_4038","description":"Pigeons+At+Hydri"}
{"id":4563847935,"url":"http://farm5.staticflickr.com/4058/4563847935_6c79a663be.jpg","path":"722/523/722523d1bba8d55e93b8f4e286e918.jpg","date":"2010-01-23","year":2010,"month":1,"lon":67.03076,"lat":24.84745,"tags":"2010,armed,blockade,checkpoint,fortification,guards,heavy,karachi,mariott+hotel,pakistan,security,trip,u.s.+consulate","S2CellId":"14a1bb0000000000","result":1250,"accuracy":0.05957435,"title":"Fortified+Hotel","description":"The+Mariott+Hotel+in+Karachi...+right+next+to+the+U.S.+Consulate.+That+whole+area+looks+like+a+zone+ready+for+battle.+Would+you+feel+safe+staying+there%3F"}
