{"id":7779392642,"url":"http://farm9.staticflickr.com/8303/7779392642_2d961313b2.jpg","path":"3ec/780/3ec780ccbc202961609ef59cf3324afe.jpg","date":"2012-07-26","year":2012,"month":7,"lon":-135.12756,"lat":59.552277,"tags":"2012+alaska+cruise","S2CellId":"5140000000000000","result":5964,"accuracy":0.021079216,"title":"20120726-K20B7649.jpg"}
{"id":1755623457,"url":"http://farm3.staticflickr.com/2364/1755623457_2349ea1aee.jpg","path":"7a6/6d4/7a66d4a2206d69e44b35cc17da643dfa.jpg","date":"2006-07-17","year":2006,"month":7,"lon":-136.13557,"lat":58.68943,"tags":"2006,alaska,cruise,glacier","S2CellId":"bdac000000000000","result":9963,"accuracy":0.16628157,"title":"Glacier+Bay"}
{"id":5076012916,"url":"http://farm2.staticflickr.com/1389/5076012916_ddf49b9f55.jpg","path":"1b7/2ea/1b72ea272f13327deb8225b3c6e69e.jpg","date":"2010-08-08","year":2010,"month":8,"lon":-135.80887,"lat":59.339844,"tags":"alaska,bear,bear+cub,brown+bear,chilkat,chilkat+river,cub,haines,mammal,vertebrate,wildlife","S2CellId":"56f0000000000000","result":6328,"accuracy":0.17174578,"title":"I+AM+A+ROCK%2C+I+AM+AN+ISLAND.","description":"This+little+brown+bear+cub+just+did+not+want+to+get+his+feet+wet%2C+but+eventually+took+the+plunge+when+his+mother+walked+away+and+left+him."}
{"id":4146473094,"url":"http://farm3.staticflickr.com/2782/4146473094_7ba4730350.jpg","path":"9f2/d43/9f2d4323dcb1d5b36ee7f90f125d54f.jpg","date":"2007-08-03","year":2007,"month":8,"lon":-137.04173,"lat":59.051857,"tags":"alaska,glacier+bay","S2CellId":"4615000000000000","result":2764,"accuracy":0.25550178}
{"id":4944268220,"url":"http://farm5.staticflickr.com/4143/4944268220_cc08e58d41.jpg","path":"c0a/f16/c0af169edaf3e230d32a4095ffbff81.jpg","date":"2010-08-24","year":2010,"month":8,"lon":-135.28204,"lat":59.479004,"tags":"2010,alaska,cruise,golden+princess,skagway,vacation","S2CellId":"5404000000000000","result":6091,"accuracy":0.053050697,"title":"Alaska+Cruise%2C+Day+3+-+Skagway+151"}
{"id":211145092,"url":"http://farm1.staticflickr.com/58/211145092_cf6658ef0c.jpg","path":"53a/a31/53aa31a38103cf749efb15c84de15e3.jpg","date":"2006-08-07","year":2006,"month":8,"lon":-136.42822,"lat":58.645153,"tags":"alaska,bay,glacier,glacier+bay,kayak,teamalaska2006","S2CellId":"56c4000000000000","result":6318,"accuracy":0.32458198,"title":"CIMG0433.JPG"}
{"id":7779374572,"url":"http://farm8.staticflickr.com/7279/7779374572_c7fddb199e.jpg","path":"e80/bdb/e80bdb6ec8e148c135eb5ef980d0af.jpg","date":"2012-07-26","year":2012,"month":7,"lon":-135.15036,"lat":59.570362,"tags":"2012+alaska+cruise","S2CellId":"4615000000000000","result":2764,"accuracy":0.34164596,"title":"20120726-K20B7582.jpg"}
{"id":12981724743,"url":"http://farm4.staticflickr.com/3584/12981724743_0ab06d0026.jpg","path":"78d/9ed/78d9edfebcf62861af5a137f55aaf8.jpg","date":"2013-07-25","year":2013,"month":7,"lon":-135.72246,"lat":58.331676,"tags":"alaska,alaska+marine+highway,gustavus,juneau","S2CellId":"5470000000000000","result":6094,"accuracy":0.18576843,"title":"_MG_4715a","description":"Riding+the+Alaska+Marine+Highway+ship+from+Gustavus+to+Juneau."}
{"id":12782709214,"url":"http://farm3.staticflickr.com/2835/12782709214_9dc5d9e162.jpg","path":"b60/7de/b607deb15e4252a89fc43fb01c268c.jpg","date":"2013-07-24","year":2013,"month":7,"lon":-136.2873,"lat":58.662956,"tags":"alaska,bear,glacier+bay+national+park","S2CellId":"56c4000000000000","result":6318,"accuracy":0.3659255,"title":"_MG_4636a","description":"A+Bear+in+Glacier+Bay+National+Park%2C+Alaska."}
{"id":3180900234,"url":"http://farm4.staticflickr.com/3095/3180900234_52024fb42c.jpg","path":"c52/bb9/c52bb92fc8ba7984c52badc4c1aa27.jpg","date":"2008-09-06","year":2008,"month":9,"lon":-136.37787,"lat":58.77701,"tags":"alaska,clouds,cruise,glacier+bay,glaciers,mountains,vacation,water","S2CellId":"463f000000000000","result":2783,"accuracy":0.32786247,"title":"Alaskan+Cruise+Day+06%3A+Cruising+Glacier+Bay"}
{"id":4916572014,"url":"http://farm5.staticflickr.com/4080/4916572014_8d160ee757.jpg","path":"6e1/7d4/6e17d4dd28631fa1866163d4fced65f6.jpg","date":"2010-08-05","year":2010,"month":8,"lon":-136.27544,"lat":58.19939,"tags":"chichagof+island,fox+creek,idaho+inlet,lindblad+expeditions,national+geographic+sea+bird","S2CellId":"5495f00000000000","result":6276,"accuracy":0.086600624,"title":"Fox+Creek+Hike"}
{"id":4944315836,"url":"http://farm5.staticflickr.com/4143/4944315836_58d2efdb36.jpg","path":"592/81a/59281aabdc8c5c2469a4d343b2a63667.jpg","date":"2010-08-25","year":2010,"month":8,"lon":-136.39458,"lat":58.771404,"tags":"2010,alaska,cruise,glacier+bay,golden+princess,vacation","S2CellId":"548ff00000000000","result":6177,"accuracy":0.2485987,"title":"Alaska+Cruise%2C+Day+4+-+Glacier+Bay+238"}
{"id":9303522796,"url":"http://farm4.staticflickr.com/3816/9303522796_bfb15174dd.jpg","path":"627/ef8/627ef8edb3c1adb62a22bd61d917a1f.jpg","date":"2013-07-09","year":2013,"month":7,"lon":-135.72888,"lat":58.389412,"tags":"alaska,fishing,glacier,glacier+bay,gustavus,jamescamera","S2CellId":"0d0b000000000000","result":163,"accuracy":0.020967545,"title":"Filleting+Halibut"}
{"id":541634757,"url":"http://farm2.staticflickr.com/1208/541634757_5586b7a0aa.jpg","path":"cb2/89f/cb289f536958e7194b1bd281f2b7b.jpg","date":"2007-06-04","year":2007,"month":6,"lon":-135.47481,"lat":58.23727,"tags":"cruise,xti","S2CellId":"56c4000000000000","result":6318,"accuracy":0.27131885,"title":"IMG_2387"}
{"id":4943695835,"url":"http://farm5.staticflickr.com/4117/4943695835_873e1f6e96.jpg","path":"6a5/78a/6a578a1ce4efdee1c1bf7681d92af41.jpg","date":"2010-08-25","year":2010,"month":8,"lon":-137.03436,"lat":59.041965,"tags":"2010,alaska,cruise,glacier+bay,golden+princess,panorama,vacation","S2CellId":"56b0000000000000","result":6317,"accuracy":0.17299138,"title":"Alaska+Cruise%2C+Day+4+-+Glacier+Bay+042"}
{"id":6141675334,"url":"http://farm7.staticflickr.com/6075/6141675334_2aa865d7d2.jpg","path":"f3e/263/f3e2634c139772fe86f2ee29f270e11b.jpg","date":"2011-07-31","year":2011,"month":7,"lon":-136.77979,"lat":58.9245,"tags":"alaska,glacier,glacier+bay+national+park,usa","S2CellId":"56b0000000000000","result":6317,"accuracy":0.33614388,"title":"Glacier+reflection"}
{"id":8259375,"url":"http://farm1.staticflickr.com/7/8259375_a30c333f6f.jpg","path":"b5e/880/b5e88097312e270cdfc39899fdbf50.jpg","date":"2005-04-02","year":2005,"month":4,"lon":-135.8638,"lat":58.54264,"tags":"2000,alaska,ann,august,cameron,family,irv,jason,pearce,screen+capture,vacation,video+camera","S2CellId":"56b0000000000000","result":6317,"accuracy":0.33225286,"title":"4-2-2005_+9.17.29+PM"}
{"id":4943654521,"url":"http://farm5.staticflickr.com/4077/4943654521_fc3f298eb9.jpg","path":"d43/bfa/d43bfaaf536632ee675aaf6b79bb88ad.jpg","date":"2010-08-24","year":2010,"month":8,"lon":-135.23225,"lat":59.50297,"tags":"2010,alaska,cruise,golden+princess,skagway,vacation,white+pass","S2CellId":"4cb3c00000000000","result":5851,"accuracy":0.18297099,"title":"Alaska+Cruise%2C+Day+3+-+Skagway+018"}
{"id":6141663602,"url":"http://farm7.staticflickr.com/6200/6141663602_a9bfca9487.jpg","path":"f4a/c7f/f4ac7f733623dbd013525b54a9e8ed.jpg","date":"2011-07-31","year":2011,"month":7,"lon":-136.77979,"lat":58.9245,"tags":"alaska,glacier,glacier+bay+national+park,usa","S2CellId":"56b0000000000000","result":6317,"accuracy":0.27814433,"title":"Lamplugh+Glacier+ice+cave+and+kayakers"}
{"id":3608349311,"url":"http://farm4.staticflickr.com/3334/3608349311_c98d510a48.jpg","path":"711/e23/711e239090d49fa3e3fe4f72e9cf60dd.jpg","date":"2009-06-03","year":2009,"month":6,"lon":-135.17009,"lat":59.535034,"tags":"alaska,forest,path,rainforest,sawtooth,skagway,tongass,trail,tree","S2CellId":"54be400000000000","result":6297,"accuracy":0.054852255,"title":"Denver+Glacier+Trail","description":"The+Sawtooth+Rainforest%2C+a+temperate+rainforest+that+forms+part+of+the+Tongass+National+Forest%2C+just+outside+Skagway%2C+Alaska."}
{"id":5555931841,"url":"http://farm6.staticflickr.com/5297/5555931841_56bb7925ff.jpg","path":"b2c/215/b2c2157f35b4f6b0153d9656ea3162b.jpg","date":"2009-06-01","year":2009,"month":6,"lon":-136.87935,"lat":58.92308,"tags":"alaska,glacier+bay","S2CellId":"56c4000000000000","result":6318,"accuracy":0.37482327,"title":"Glacier+Bay+scenery+%2812%29"}
{"id":7779427086,"url":"http://farm8.staticflickr.com/7125/7779427086_0c88bee982.jpg","path":"5ec/779/5ec779a3bd4bac8d8fd2b781b1c890c7.jpg","date":"2012-07-26","year":2012,"month":7,"lon":-135.3197,"lat":59.44886,"tags":"2012+alaska+cruise","S2CellId":"56c4000000000000","result":6318,"accuracy":0.3429777,"title":"20120726-K20B7731.jpg"}
{"id":3985750478,"url":"http://farm4.staticflickr.com/3100/3985750478_ea89e89887.jpg","path":"19c/8d9/19c8d9c3e177878f06d5168834e633.jpg","date":"2009-08-28","year":2009,"month":8,"lon":-135.1588,"lat":59.6362,"tags":"alaska,british+columbia,canada,inukshuk,skagway,south+klondike+highway,united+states+of+america,usa,white+pass","S2CellId":"876bb00000000000","result":7866,"accuracy":0.19993399,"title":"Inukshuk+on+the+border+between+Alaska+and+British+Columbia","description":"Inukshuk+on+the+border+between+Alaska+and+British+Columbia+on+South+Klondike+Highway+at+WHite+Pass+near+Skagway.+Photographed+on+28+August+2009.%0A%0AJoint+%C2%A9%C2%A9+Arthur+D.+Chapman+and+Audrey+Bendus."}
{"id":2532580652,"url":"http://farm4.staticflickr.com/3163/2532580652_1c87a7536e.jpg","path":"59e/33c/59e33c2ab48ebb2b5a6f23803fb75e88.jpg","date":"2008-05-23","year":2008,"month":5,"lon":-136.22836,"lat":57.96056,"tags":"2008,alaska,boardwalk,boogie,cartwheel,jeffleff,pelican","S2CellId":"5487400000000000","result":6150,"accuracy":0.081424035,"title":"Cartwheel+3"}
{"id":6013953692,"url":"http://farm7.staticflickr.com/6130/6013953692_b7a9b6b141.jpg","path":"7e1/5c7/7e15c77bea8a69e99e8020b6f9475.jpg","date":"2009-09-08","year":2009,"month":9,"lon":-135.78929,"lat":58.295574,"tags":"alaska,cruise,hoonah,vacation,whale+watching","S2CellId":"5470000000000000","result":6094,"accuracy":0.3688115,"title":"Alaska+Cruise+Day+5+288"}
{"id":12447341014,"url":"http://farm6.staticflickr.com/5547/12447341014_3208a3d36b.jpg","path":"2d3/d9f/2d3d9fb95821c7b0a9c1ce9431de1.jpg","date":"2013-07-24","year":2013,"month":7,"lon":-137.03944,"lat":59.037445,"tags":"alaska,glacier+bay+national+park,margerie+glacier","S2CellId":"5404000000000000","result":6091,"accuracy":0.22929312,"title":"_MG_4478a","description":"Margerie+Glacier+in+Glacier+Bay+National+Park%2C+Alaska."}
{"id":524384950,"url":"http://farm1.staticflickr.com/245/524384950_37f5b7cfa8.jpg","path":"d5b/af9/d5baf967ae37aea246ef68d6d7238659.jpg","date":"2007-05-17","year":2007,"month":5,"lon":-135.33244,"lat":57.050777,"tags":"2007,alaska,boat,may,sitka","S2CellId":"56c4000000000000","result":6318,"accuracy":0.2912379,"title":"Sitka+Fishing+Boats"}
{"id":4944265354,"url":"http://farm5.staticflickr.com/4096/4944265354_c5930b5b66.jpg","path":"b36/c62/b36c62aa713dca090b99e9ab1c798cc.jpg","date":"2010-08-24","year":2010,"month":8,"lon":-135.22643,"lat":59.504623,"tags":"2010,alaska,cruise,golden+princess,skagway,vacation","S2CellId":"5140000000000000","result":5964,"accuracy":0.05854695,"title":"Alaska+Cruise%2C+Day+3+-+Skagway+142"}
{"id":3960988081,"url":"http://farm3.staticflickr.com/2554/3960988081_6ff0a61e0c.jpg","path":"704/4bd/7044bdb1b90828150f77e99e4c33792.jpg","date":"2009-08-26","year":2009,"month":8,"lon":-135.3451,"lat":59.4872,"tags":"alaska,aves,bald+eagle,birds,haliaeetus,haliaeetus+leucocephalus,inland+passage,leucocephalus,raptor,united+states+of+america,usa","S2CellId":"4879740000000000","result":5489,"accuracy":0.010265209,"title":"Haliaeetus+leucocephalus+%28Bald+Eagle%29","description":"Bald+Eagle+%28Haliaeetus+leucocephalus%29+in+flight+at+Dya+Inlet+near+Skagway%2C+Alaska%2C+USA.+Photographed+on+26+August+2009."}
{"id":2711248847,"url":"http://farm4.staticflickr.com/3043/2711248847_552f2cf60e.jpg","path":"92b/e49/92be49c5d5891b4ec6a6bc12c62872f8.jpg","date":"2008-07-15","year":2008,"month":7,"lon":-135.94705,"lat":58.483807,"tags":"alaska,bay,campsite,doitlivealaska,glacier,glacier+bay,kayak,kayaking,secret+bay","S2CellId":"56c4000000000000","result":6318,"accuracy":0.06626361,"title":"Secret+Bay+campsite%2C+Beardslee+Islands%2C+Glacier+Bay"}
{"id":210832113,"url":"http://farm1.staticflickr.com/96/210832113_17bda1aedf.jpg","path":"c72/f14/c72f147c633859ef563f17021609549.jpg","date":"2006-08-01","year":2006,"month":8,"lon":-136.81377,"lat":58.846405,"tags":"alaska,bay,glacier,glacier+bay,kayak,reid,reid+inlet,teamalaska2006","S2CellId":"bda4000000000000","result":9962,"accuracy":0.21097927,"title":"CIMG0211.JPG"}
{"id":4944241260,"url":"http://farm5.staticflickr.com/4118/4944241260_5eca54061c.jpg","path":"d5f/5a5/d5f5a5cad96f1187895adec4ce3630d4.jpg","date":"2010-08-24","year":2010,"month":8,"lon":-135.27328,"lat":59.486805,"tags":"2010,alaska,cruise,golden+princess,skagway,vacation","S2CellId":"5140000000000000","result":5964,"accuracy":0.13588125,"title":"Alaska+Cruise%2C+Day+3+-+Skagway+027"}
{"id":9300685021,"url":"http://farm8.staticflickr.com/7382/9300685021_53ac0ca6c0.jpg","path":"c96/5c7/c965c77fbb703c51277a9d4be76bd584.jpg","date":"2013-07-06","year":2013,"month":7,"lon":-136.03171,"lat":58.35534,"tags":"alaska,glacier,glacier+bay,gustavus,jamescamera,whale","S2CellId":"5404000000000000","result":6091,"accuracy":0.20101859,"title":"Whale+Tail"}
{"id":12782407993,"url":"http://farm3.staticflickr.com/2865/12782407993_45e29d97be.jpg","path":"30c/e7a/30ce7a4ca7828af09141151d92b91.jpg","date":"2013-07-24","year":2013,"month":7,"lon":-136.28645,"lat":58.66227,"tags":"alaska,bear,glacier+bay+national+park","S2CellId":"56c4000000000000","result":6318,"accuracy":0.50805765,"title":"_MG_4641a","description":"A+Bear+in+Glacier+Bay+National+Park%2C+Alaska."}
{"id":4944314816,"url":"http://farm5.staticflickr.com/4114/4944314816_520035f124.jpg","path":"79e/43e/79e43e152bca0f76f22a868202127f.jpg","date":"2010-08-25","year":2010,"month":8,"lon":-136.39458,"lat":58.771404,"tags":"2010,alaska,cruise,glacier+bay,golden+princess,vacation","S2CellId":"5470000000000000","result":6094,"accuracy":0.23735884,"title":"Alaska+Cruise%2C+Day+4+-+Glacier+Bay+233"}
{"id":7779533856,"url":"http://farm9.staticflickr.com/8303/7779533856_db5351805f.jpg","path":"87a/378/87a3782eb7895fbe8a0cd58ac9072d6.jpg","date":"2012-07-26","year":2012,"month":7,"lon":-135.38144,"lat":59.258972,"tags":"2012+alaska+cruise","S2CellId":"5470000000000000","result":6094,"accuracy":0.16769823,"title":"20120726-K20B7946.jpg"}
{"id":7779554182,"url":"http://farm9.staticflickr.com/8299/7779554182_7d66e792cd.jpg","path":"887/32f/88732fa8149a2fee97adbd8651585.jpg","date":"2012-07-26","year":2012,"month":7,"lon":-135.34605,"lat":59.20036,"tags":"2012+alaska+cruise","S2CellId":"5377000000000000","result":6058,"accuracy":0.52345,"title":"20120726-K20B7985.jpg"}
{"id":540869308,"url":"http://farm2.staticflickr.com/1034/540869308_23e3f72b49.jpg","path":"c3e/838/c3e838b461fdc577526b9137b8d940bb.jpg","date":"2007-06-04","year":2007,"month":6,"lon":-135.48648,"lat":58.12826,"tags":"cruise,xti","S2CellId":"540c000000000000","result":6092,"accuracy":0.33400902,"title":"IMG_2140"}
{"id":2971336620,"url":"http://farm4.staticflickr.com/3008/2971336620_16bcb964b8.jpg","path":"9c8/6fb/9c86fbcd3f3a1ef56d6c922526c1ccd.jpg","date":"2006-08-06","year":2006,"month":8,"lon":-135.4065,"lat":59.30516,"tags":"alaska,cruise,glacier,waterfall","S2CellId":"bdbc000000000000","result":9965,"accuracy":0.11694509,"title":"Glacier+shot"}
{"id":512528984,"url":"http://farm1.staticflickr.com/216/512528984_86ac02168d.jpg","path":"20c/551/20c551523f23169f97193de3b9e975b2.jpg","date":"2007-05-16","year":2007,"month":5,"lon":-135.3205,"lat":59.45332,"tags":"train,white+pass+and+yukon+route+railway","S2CellId":"5140000000000000","result":5964,"accuracy":0.07818391,"title":"White+Pass+Around+the+Curve"}
{"id":512566775,"url":"http://farm1.staticflickr.com/228/512566775_d6f5943ae5.jpg","path":"ab5/fd7/ab5fd75078cb11a5894af447f6eb7513.jpg","date":"2007-05-16","year":2007,"month":5,"lon":-135.3205,"lat":59.45332,"tags":"train,white+pass+and+yukon+route+railway","S2CellId":"5370c00000000000","result":6047,"accuracy":0.15111618,"title":"White+Pass+Train"}
{"id":8259320,"url":"http://farm1.staticflickr.com/4/8259320_22d18e9c45.jpg","path":"5be/ffe/5beffea3c27ccf19769d8303e2d6e.jpg","date":"2005-04-02","year":2005,"month":4,"lon":-135.8638,"lat":58.54264,"tags":"2000,alaska,ann,august,cameron,family,irv,jason,pearce,screen+capture,vacation,video+camera","S2CellId":"56c4000000000000","result":6318,"accuracy":0.3157206,"title":"4-2-2005_+9.13.39+PM"}
{"id":541122244,"url":"http://farm2.staticflickr.com/1340/541122244_091b837e0d.jpg","path":"966/b53/966b5377a0791ffc5de42dd5d5d754e.jpg","date":"2007-06-04","year":2007,"month":6,"lon":-135.47481,"lat":58.23727,"tags":"cruise,humpback,whales,xti","S2CellId":"5404000000000000","result":6091,"accuracy":0.19162162,"title":"IMG_2228"}
{"id":540997706,"url":"http://farm2.staticflickr.com/1348/540997706_6ed2f4cae9.jpg","path":"29a/5bf/29a5bf2ebc14cbe54407bab9fd97086.jpg","date":"2007-06-04","year":2007,"month":6,"lon":-135.47481,"lat":58.23727,"tags":"cruise,humpback,whales,xti","S2CellId":"5470000000000000","result":6094,"accuracy":0.29237583,"title":"IMG_2186"}
{"id":810559537,"url":"http://farm2.staticflickr.com/1134/810559537_a31061cc53.jpg","path":"1a8/326/1a8326dffdb881365110defbc6e81086.jpg","date":"2007-06-21","year":2007,"month":6,"lon":-135.33296,"lat":57.051373,"tags":"alaska,boat,harbor,mountain,sitka,water","S2CellId":"5470000000000000","result":6094,"accuracy":0.41110507,"title":"Sitka+Harbor"}
{"id":12200042896,"url":"http://farm8.staticflickr.com/7390/12200042896_88e35f47bd.jpg","path":"189/4a0/1894a0f4e26cb4e9bae733cb76535dc5.jpg","date":"2013-07-24","year":2013,"month":7,"lon":-136.45216,"lat":58.825127,"tags":"alaska,brown+bear,cub,glacier+bay+national+park,grizzly+bear","S2CellId":"5404000000000000","result":6091,"accuracy":0.08495122,"title":"_MG_4229a","description":"A+Brown+Bear+or+Grizzly+Bear+and+her+three+cubs+in+Glacier+Bay+National+Park%2C+Alaska."}
{"id":9742032948,"url":"http://farm8.staticflickr.com/7402/9742032948_0beeaf8df4.jpg","path":"4ae/a07/4aea07da9d2e2b33b4619d7ad897f2d.jpg","date":"2013-08-28","year":2013,"month":8,"lon":-135.0257,"lat":57.848137,"tags":"alaska,people,safari+endeavor,scott+shephard+photography,un+cruise","S2CellId":"4d5c000000000000","result":5955,"accuracy":0.11504707,"title":"Safari+Endeavor+-+Alaska+%28August%2C+2013%29IMG_9396"}
{"id":8259203,"url":"http://farm1.staticflickr.com/4/8259203_925f42fdbb.jpg","path":"65c/79b/65c79b186e69a42aa82116b83c8e25.jpg","date":"2005-04-02","year":2005,"month":4,"lon":-135.8638,"lat":58.54264,"tags":"2000,alaska,ann,august,cameron,family,irv,jason,pearce,screen+capture,vacation,video+camera","S2CellId":"463f000000000000","result":2783,"accuracy":0.34579065,"title":"4-2-2005_+8.55.29+PM"}
{"id":211116305,"url":"http://farm1.staticflickr.com/79/211116305_2a28d615d2.jpg","path":"ee6/d88/ee6d88367dbe8e1f74e357b7adff58d1.jpg","date":"2006-08-05","year":2006,"month":8,"lon":-137.10817,"lat":58.860687,"tags":"alaska,bay,glacier,glacier+bay,johns+hopkins,johns+hopkins+inlet,kayak,teamalaska2006","S2CellId":"56b0000000000000","result":6317,"accuracy":0.31057024,"title":"Johns+Hopkins+Glacier"}
{"id":3180067727,"url":"http://farm4.staticflickr.com/3093/3180067727_071126579e.jpg","path":"a8a/483/a8a483f0c45f5823abab1886ae765778.jpg","date":"2008-09-06","year":2008,"month":9,"lon":-136.32916,"lat":58.757694,"tags":"alaska,clouds,cruise,glacier+bay,glaciers,mountains,vacation,water","S2CellId":"56c4000000000000","result":6318,"accuracy":0.15590435,"title":"Alaskan+Cruise+Day+06%3A+Cruising+Glacier+Bay"}
{"id":2856853742,"url":"http://farm4.staticflickr.com/3080/2856853742_d3272077e5.jpg","path":"c3f/76b/c3f76b50be8a1e359bbc4017641a12b3.jpg","date":"2009-09-09","year":2009,"month":9,"lon":-135.33972,"lat":57.05399,"tags":"alaska+cruise,sitka","S2CellId":"5470000000000000","result":6094,"accuracy":0.2573261,"title":"PIC_0030+%282%29"}
{"id":12254657404,"url":"http://farm3.staticflickr.com/2820/12254657404_8788788be4.jpg","path":"4c6/77f/4c677f9653b8299c8a3872801fcb.jpg","date":"2013-07-24","year":2013,"month":7,"lon":-136.49144,"lat":58.83766,"tags":"alaska,glacier+bay+national+park,kids,mountain+goats","S2CellId":"5240000000000000","result":5966,"accuracy":0.03137362,"title":"_MG_4360a","description":"Mountain+Goats+with+kids+in+Glacier+Bay+National+Park%2C+Alaska."}
{"id":12004820413,"url":"http://farm6.staticflickr.com/5548/12004820413_1fcdc552f5.jpg","path":"1ad/045/1ad045e3a271aebdf5412dba51fef3b7.jpg","date":"2013-07-23","year":2013,"month":7,"lon":-136.07747,"lat":58.529903,"tags":"alaska,bird,glacier+bay+national+park","S2CellId":"54c7000000000000","result":6307,"accuracy":0.00822041,"title":"_MG_3940a","description":"A+Bird+in+Glacier+Bay+National+Park%2C+Alaska."}
{"id":3733729128,"url":"http://farm3.staticflickr.com/2566/3733729128_75970635de.jpg","path":"1dc/706/1dc70648a247fc844247bae935b6761.jpg","date":"2009-07-17","year":2009,"month":7,"lon":-135.85443,"lat":58.303585,"tags":"5d,alaska,bay,canon,christopher+michel,glacier,gustavus,humpback,ii,killer,mark,orca,skagway,united+states,whale","S2CellId":"808e100000000000","result":7000,"accuracy":0.019839108,"title":"glacier+bay"}
{"id":6152965485,"url":"http://farm7.staticflickr.com/6210/6152965485_ba0cb2054b.jpg","path":"7e8/29e/7e829e02934bf077917d2d183f88f.jpg","date":"2011-09-08","year":2011,"month":9,"lon":-136.77155,"lat":58.90181,"tags":"alaska,alaska+cruise,bay,cruise,d200,glacier,glacier+bay,ncl,nikon,vacation","S2CellId":"9611000000000000","result":9864,"accuracy":0.10438744,"title":"Alaska+Cruise"}
{"id":2557397206,"url":"http://farm4.staticflickr.com/3150/2557397206_b2dcb6b061.jpg","path":"b21/19d/b2119da1db2d45db82e245d83412a2.jpg","date":"2008-05-24","year":2008,"month":5,"lon":-135.33714,"lat":57.05357,"tags":"alaska,boat,marina,mt+edgecumbe,sitka,volcano","S2CellId":"56c4000000000000","result":6318,"accuracy":0.22946633,"title":"IMG_7386"}
{"id":5245397828,"url":"http://farm6.staticflickr.com/5170/5245397828_cf6f906563.jpg","path":"1b1/5bb/1b15bb1a779c9cc0ce3b7b3e3351a3.jpg","date":"2009-06-01","year":2009,"month":6,"lon":-136.79901,"lat":59.912968,"tags":"ak,alaska,animals,birds,canon+450d+xsi,canon+xsi,chilkoot+trail,landscape,mountains,nature,rivers,runintherain,skagway,snow,trees,usa,water","S2CellId":"56c4000000000000","result":6318,"accuracy":0.3472651,"title":"The+Taiya+River%2C+looking+downstream%2C+towards+the+Dyea+Ruins%2FSkagway."}
{"id":5988849241,"url":"http://farm7.staticflickr.com/6131/5988849241_db0251b536.jpg","path":"9e9/81a/9e981a907af2c9ffca4d63ee9d1da2.jpg","date":"2011-07-18","year":2011,"month":7,"lon":-137.0171,"lat":59.032604,"tags":"alaska","S2CellId":"5404000000000000","result":6091,"accuracy":0.15068732,"title":"Glacier_Bay_167","description":"18+July+2011%0A%0AGlacier+Bay+AK"}
{"id":5854523047,"url":"http://farm3.staticflickr.com/2536/5854523047_ed678a06c5.jpg","path":"ac2/97c/ac297c5b43ebb1357ec2fd24cfdb98b.jpg","date":"2011-05-30","year":2011,"month":5,"lon":-135.00269,"lat":58.47798,"tags":"ak,alaska,haines,humpback+whale,united+states,whale,whales","S2CellId":"56c4000000000000","result":6318,"accuracy":0.23144813,"title":"Whale+Watching"}
{"id":7181173765,"url":"http://farm8.staticflickr.com/7083/7181173765_2db1fd53dc.jpg","path":"3ce/82f/3ce82fc0a67389307090db84f9e2f.jpg","date":"2012-06-12","year":2012,"month":6,"lon":-135.29926,"lat":59.464317,"tags":"hudson,instagram+app,iphoneography,square,square+format","S2CellId":"89dfc00000000000","result":9287,"accuracy":0.025888935,"title":"Train+car+%27hotel%27+rentable+by+overnight+hikers."}
{"id":12299345756,"url":"http://farm4.staticflickr.com/3798/12299345756_31ffe543c7.jpg","path":"bd9/762/bd9762a87ab777b1598804adcbcb2d3.jpg","date":"2013-07-24","year":2013,"month":7,"lon":-136.70653,"lat":58.91368,"tags":"alaska,brown+bear,glacier+bay+national+park,grizzly+bear","S2CellId":"56b0000000000000","result":6317,"accuracy":0.38556385,"title":"_MG_4371a","description":"A+grizzly+bear+or+brown+bear+in+Glacier+Bay+National+Park%2C+Alaska."}
{"id":224371504,"url":"http://farm1.staticflickr.com/61/224371504_643b63f7e3.jpg","path":"a65/bdd/a65bddb040ceb7fcb1f3b656b59e6770.jpg","date":"2006-08-04","year":2006,"month":8,"lon":-136.16455,"lat":58.80236,"tags":"30d-100-3324,alaska,glaciers","S2CellId":"5404000000000000","result":6091,"accuracy":0.16964538,"title":"Entering+Glacier+Bay","description":"Best+viewed+at+%3Ca+href%3D%22http%3A%2F%2Fstatic.flickr.com%2F61%2F224371504_643b63f7e3_b.jpg%22%3Elarge%3C%2Fa%3E"}
{"id":12299145364,"url":"http://farm8.staticflickr.com/7295/12299145364_b2e7282174.jpg","path":"b34/cc5/b34cc57af96e67fa11e42aa641b62e.jpg","date":"2013-07-24","year":2013,"month":7,"lon":-136.70691,"lat":58.91456,"tags":"alaska,brown+bear,glacier+bay+national+park,grizzly+bear","S2CellId":"9aab000000000000","result":9926,"accuracy":0.026329888,"title":"_MG_4377a","description":"A+grizzly+bear+or+brown+bear+in+Glacier+Bay+National+Park%2C+Alaska."}
{"id":540872234,"url":"http://farm2.staticflickr.com/1187/540872234_6e9e99cb84.jpg","path":"5cc/629/5cc6295eb125c2956be45a776e7b551a.jpg","date":"2007-06-04","year":2007,"month":6,"lon":-135.48648,"lat":58.12826,"tags":"cruise,xti","S2CellId":"5404000000000000","result":6091,"accuracy":0.31499115,"title":"IMG_2141"}
{"id":3498249675,"url":"http://farm4.staticflickr.com/3559/3498249675_45ba1304d2.jpg","path":"489/55c/48955cc32149bc066f1a6a81b0ac3f.jpg","date":"2009-05-02","year":2009,"month":5,"lon":-135.03244,"lat":58.79009,"tags":"alaska,berner%27s+bay,juneau,wildlife","S2CellId":"5404000000000000","result":6091,"accuracy":0.39545533,"title":"Kensington+Dock-2"}
{"id":5855362936,"url":"http://farm4.staticflickr.com/3293/5855362936_65c4ae8d5c.jpg","path":"fad/28a/fad28a4a3f83afdda1b18f444b82db.jpg","date":"2011-05-31","year":2011,"month":5,"lon":-135.26825,"lat":59.49005,"tags":"ak,alaska,railroad,railway,skagway,train,united+states,white+pass,white+pass+%26+yukon+route,yukon","S2CellId":"56b0000000000000","result":6317,"accuracy":0.19086677,"title":"White+Pass+%26+Yukon+Route+Railroad"}
{"id":9300820273,"url":"http://farm8.staticflickr.com/7324/9300820273_bbcd5d1ef5.jpg","path":"f03/5c5/f035c593fc01ba485f6d7aa2b1e2561.jpg","date":"2013-07-12","year":2013,"month":7,"lon":-136.07397,"lat":58.444275,"tags":"alaska,erratic,glacier,glacier+bay,gustavus,interglacial,jamescamera,stump","S2CellId":"56c4000000000000","result":6318,"accuracy":0.09763755,"title":"Interglacial+Stumps","description":"These+stumps+were+carried+by+the+glacier+as+it+advanced+down+Glacier+Bay+and+were+dropped+as+the+glacier+retreated.+They+are+around+6%2C000+years+old+and+are+just+beginning+to+rot+because+they+were+frozen+in+ice+and+preserved."}
{"id":210819405,"url":"http://farm1.staticflickr.com/89/210819405_82a5a444ac.jpg","path":"5ac/a20/5aca20a67f6f4d0d939698b48ef188f.jpg","date":"2006-07-31","year":2006,"month":7,"lon":-136.60194,"lat":58.79071,"tags":"alaska,bay,glacier,glacier+bay,kayak,teamalaska2006","S2CellId":"48d7400000000000","result":5814,"accuracy":0.060141932,"title":"CIMG0178.JPG"}
{"id":175162060,"url":"http://farm1.staticflickr.com/52/175162060_4d0442b4be.jpg","path":"aa5/be6/aa5be632f0648dbef9ca556cba9b6.jpg","date":"2006-01-01","year":2006,"month":1,"lon":-136.4296,"lat":58.778343,"tags":"alaska,cruise,glacierbay","S2CellId":"56c4000000000000","result":6318,"accuracy":0.1656942,"title":"pictures+504"}
{"id":189069993,"url":"http://farm1.staticflickr.com/55/189069993_61abde9745.jpg","path":"7cd/712/7cd7121a74ce1aeddb3158c132677d10.jpg","date":"2006-06-13","year":2006,"month":6,"lon":-135.75427,"lat":57.169388,"tags":"4x4+wilderness+adventure,alaska,me,sitka","S2CellId":"5470000000000000","result":6094,"accuracy":0.660912,"title":"DSC00774"}
{"id":1153911936,"url":"http://farm2.staticflickr.com/1254/1153911936_61cf027de8.jpg","path":"f2b/edc/f2bedc817ad7316c0b8961fe1124cf6.jpg","date":"2007-08-09","year":2007,"month":8,"lon":-136.49414,"lat":58.243053,"tags":"alaska,cruise,glacier,harvey+barrison,hbarrison,hubbard,hubbard+glacier,tauck,travel,travels,world+travel","S2CellId":"56c4000000000000","result":6318,"accuracy":0.29199415,"title":"Alaska_2007+08+09_0401"}
{"id":221965375,"url":"http://farm1.staticflickr.com/74/221965375_1e6c33e13a.jpg","path":"6bd/488/6bd488c4b8a34fd3a7ac9294fc343.jpg","date":"2006-08-03","year":2006,"month":8,"lon":-135.2417,"lat":59.25465,"tags":"30d-100-3239,alaska,cruise,skagway","S2CellId":"56b0000000000000","result":6317,"accuracy":0.04006166,"title":"Skagway","description":"To+read%2C+Select+this+%3Ca+href%3D%22http%3A%2F%2Fstatic.flickr.com%2F74%2F221965375_1e6c33e13a_b.jpg%22%3Elink%3Ca%3E%3C%2Fa%3E%3C%2Fa%3E"}
{"id":541557557,"url":"http://farm2.staticflickr.com/1289/541557557_66fc260858.jpg","path":"f76/d41/f76d41edd3c1a870d6b42b19968eaec.jpg","date":"2007-06-04","year":2007,"month":6,"lon":-135.47481,"lat":58.23727,"tags":"cruise,xti","S2CellId":"5140000000000000","result":5964,"accuracy":0.22897945,"title":"IMG_2347"}
{"id":5974535210,"url":"http://farm7.staticflickr.com/6007/5974535210_c834df112a.jpg","path":"c4d/9c4/c4d9c487abf250a478d068d569608447.jpg","date":"2011-07-07","year":2011,"month":7,"lon":-136.17554,"lat":58.694065,"tags":"%E7%BE%8E%E5%9C%8B,%E9%83%B5%E8%BC%AA,%E9%98%BF%E6%8B%89%E6%96%AF%E5%8A%A0,alaska,america,cruise","S2CellId":"5404000000000000","result":6091,"accuracy":0.2510512,"title":"2011.07.07+Alaska+Cruise+%2F+Glacier+Bay+National+Park"}
{"id":7707295902,"url":"http://farm9.staticflickr.com/8014/7707295902_3abee51b13.jpg","path":"1cb/49a/1cb49a9736d6f1b54d9713b82da87a77.jpg","date":"2012-07-26","year":2012,"month":7,"lon":-135.15344,"lat":59.584557,"tags":"2012+alaska+cruise","S2CellId":"5481000000000000","result":6095,"accuracy":0.10584007,"title":"20120726-K20B7277.jpg"}
{"id":540847424,"url":"http://farm2.staticflickr.com/1250/540847424_99954a6552.jpg","path":"a6a/9c5/a6a9c50b90b3f1c6d5782e04dcaf8.jpg","date":"2007-06-04","year":2007,"month":6,"lon":-135.48648,"lat":58.12826,"tags":"cruise,xti","S2CellId":"489f000000000000","result":5781,"accuracy":0.3309147,"title":"IMG_2133"}
{"id":4917193975,"url":"http://farm5.staticflickr.com/4117/4917193975_0347d4e90a.jpg","path":"a3f/2b1/a3f2b151ccbec664fc437b2f1eeb1ab.jpg","date":"2010-06-28","year":2010,"month":6,"lon":-135.33641,"lat":57.054314,"tags":"2010,alaska,sitka","S2CellId":"961c000000000000","result":9868,"accuracy":0.023708627,"title":"View+of+Sitka+w%2F+Mt.+Edgecumbe"}
{"id":12069543256,"url":"http://farm6.staticflickr.com/5490/12069543256_c6bd75accb.jpg","path":"761/252/76125251a3b2ba1ba625c72a6dbf449.jpg","date":"2013-07-24","year":2013,"month":7,"lon":-135.88583,"lat":58.454597,"tags":"alaska,fog,glacier+bay+national+park","S2CellId":"5470000000000000","result":6094,"accuracy":0.07295972,"title":"_MG_4030a","description":"A+Foggy+morning+in+Glacier+Bay+National+Park%2C+Alaska."}
{"id":8331329172,"url":"http://farm9.staticflickr.com/8078/8331329172_ed60542c51.jpg","path":"5da/f2e/5daf2efad95178f4c78c536d6b4b6d1.jpg","date":"2012-08-07","year":2012,"month":8,"lon":-135.3351,"lat":57.050007,"tags":"c4634,sitka,st+michael+cathedral","S2CellId":"4696240000000000","result":3021,"accuracy":0.034123972,"title":"Happy+and+Healthy+2013","description":"Cathedral+of+St.+Michael+the+Archangel%2C+Sitka"}
{"id":3961449806,"url":"http://farm3.staticflickr.com/2610/3961449806_cfda81ab48.jpg","path":"813/df0/813df0182bd1136516b59291ce48d89.jpg","date":"2009-08-26","year":2009,"month":8,"lon":-135.3097,"lat":59.4598,"tags":"alaska,cruise+ship,norwegian+line,skagway,united+states+of+america,usa","S2CellId":"56b0000000000000","result":6317,"accuracy":0.46330526,"title":"Main+street+of+Skagway+showing+Cruise+ship+in+port","description":"Main+street+of+Skagway%2C+Alaska%2C+USA%2C+showing+Norwegian+Cruise+ship+in+port+and+dominating+the+main+street.+Photographed+on+27+August+2009.%0A%0AJoint+%C2%A9%C2%A9+Arthur+D.+Chapman+and+Audrey+Bendus."}
{"id":12038525074,"url":"http://farm4.staticflickr.com/3818/12038525074_9e8811e6df.jpg","path":"148/920/1489209399abcdc440f3f879d330dccd.jpg","date":"2013-07-23","year":2013,"month":7,"lon":-135.88985,"lat":58.451473,"tags":"alaska,glacier+bay+national+park,pond","S2CellId":"47e6d00000000000","result":4688,"accuracy":0.27647668,"title":"_MG_4019a","description":"A+small+pond+in+Glacier+Bay+National+Park%2C+Alaska."}
{"id":3180059177,"url":"http://farm4.staticflickr.com/3389/3180059177_ec7ca8588a.jpg","path":"222/ccd/222ccd8430e44ddbfe2ee86324346c9.jpg","date":"2008-09-06","year":2008,"month":9,"lon":-136.41312,"lat":58.79155,"tags":"alaska,clouds,cruise,glacier+bay,glaciers,mountains,vacation,water","S2CellId":"961c000000000000","result":9868,"accuracy":0.08106727,"title":"Alaskan+Cruise+Day+06%3A+Cruising+Glacier+Bay"}
{"id":541468506,"url":"http://farm2.staticflickr.com/1330/541468506_15e308cf94.jpg","path":"366/c09/366c09e6d2be5ba773ba4cc92509.jpg","date":"2007-06-04","year":2007,"month":6,"lon":-135.47481,"lat":58.23727,"tags":"cruise,xti","S2CellId":"54c7000000000000","result":6307,"accuracy":0.119378574,"title":"IMG_2357"}
{"id":4916574180,"url":"http://farm5.staticflickr.com/4123/4916574180_731979fb31.jpg","path":"a4e/117/a4e117a441efd8c99844be74c33be4e6.jpg","date":"2010-08-05","year":2010,"month":8,"lon":-136.27544,"lat":58.19939,"tags":"chichagof+island,fox+creek,idaho+inlet,lindblad+expeditions,national+geographic+sea+bird,photodomino,photodomino-855,photodominoes","S2CellId":"12d1000000000000","result":894,"accuracy":0.029981373,"title":"Fox+Creek+Hike"}
{"id":8259455,"url":"http://farm1.staticflickr.com/8/8259455_36bf7063b8.jpg","path":"1a1/8db/1a18dbe67e2077295a69c51f4bd0b440.jpg","date":"2005-04-02","year":2005,"month":4,"lon":-135.8638,"lat":58.54264,"tags":"2000,alaska,ann,august,cameron,family,irv,jason,pearce,screen+capture,vacation,video+camera","S2CellId":"56b0000000000000","result":6317,"accuracy":0.51208913,"title":"4-2-2005_+9.25.29+PM"}
{"id":8250136,"url":"http://farm1.staticflickr.com/7/8250136_00fc40f3dd.jpg","path":"a22/6b3/a226b34eda4fa29ec82517472e50e25b.jpg","date":"2005-04-02","year":2005,"month":4,"lon":-135.8638,"lat":58.54264,"tags":"2000,alaska,ann,august,cameron,family,irv,jason,pearce,screen+capture,vacation,video+camera","S2CellId":"56c4000000000000","result":6318,"accuracy":0.12725209,"title":"4-2-2005_+7.21.29+PM"}
{"id":9588823997,"url":"http://farm6.staticflickr.com/5539/9588823997_04fc3a6d80.jpg","path":"6a7/965/6a7965d518565638cb29f71a9e85d1d1.jpg","date":"2013-08-20","year":2013,"month":8,"lon":-135.4645,"lat":58.129665,"tags":"2013,alaska,august,cruise,freund,freundmunkpearcevacation,munk,pearce,vacation","S2CellId":"5404000000000000","result":6091,"accuracy":0.1396238,"title":"IMG_2383.JPG"}
{"id":3021069589,"url":"http://farm4.staticflickr.com/3273/3021069589_bdc5b687d4.jpg","path":"e56/171/e561713b6b10689c5471b328c6ecd120.jpg","date":"2007-07-21","year":2007,"month":7,"lon":-135.46402,"lat":58.12948,"tags":"location%2Fnorth+america%2Fusa%2Fak%2Ficy+strait+point,people%2Ffamily%2Fparent%2Fsoon-guem,people%2Ffamily%2Fsibling%2Fseo-kyung,thing%2Ftree","S2CellId":"5494c00000000000","result":6235,"accuracy":0.075740024,"title":"Wedding+950"}
{"id":541239147,"url":"http://farm2.staticflickr.com/1318/541239147_2ac16c4336.jpg","path":"15e/430/15e430bbfbfd7ecb3ca93b46ce19e3f.jpg","date":"2007-06-04","year":2007,"month":6,"lon":-135.47481,"lat":58.23727,"tags":"cruise,xti","S2CellId":"88d0a631cabb5071","result":8563,"accuracy":0.124113075,"title":"IMG_2231"}
{"id":541500204,"url":"http://farm2.staticflickr.com/1194/541500204_73fddaf458.jpg","path":"3fe/d1e/3fed1e97eaff15b8fe407484df173c0.jpg","date":"2007-06-04","year":2007,"month":6,"lon":-135.47481,"lat":58.23727,"tags":"cruise,xti","S2CellId":"56c4000000000000","result":6318,"accuracy":0.32835394,"title":"IMG_2374"}
{"id":6141742808,"url":"http://farm7.staticflickr.com/6182/6141742808_044a9d00e0.jpg","path":"d41/bb3/d41bb3a8e0beec8422927d41505afcdf.jpg","date":"2011-07-31","year":2011,"month":7,"lon":-136.77979,"lat":58.9245,"tags":"alaska,glacier,glacier+bay+national+park,usa","S2CellId":"56b0000000000000","result":6317,"accuracy":0.24206,"title":"Mountain+reflection"}
{"id":6059530614,"url":"http://farm7.staticflickr.com/6063/6059530614_b19c585b08.jpg","path":"2bf/2d7/2bf2d77990f3c8e35e123b91c2b62349.jpg","date":"2011-07-06","year":2011,"month":7,"lon":-135.14728,"lat":59.59664,"tags":"2011,alaska,alaska+cruise,skagway,summer,usa,white+pass+railway","S2CellId":"4617000000000000","result":2765,"accuracy":0.12064642,"title":"20110706-IMG_1261"}
{"id":6013415145,"url":"http://farm7.staticflickr.com/6009/6013415145_2f7158759e.jpg","path":"ac6/d28/ac6d28e1d79e254af971f8cabd0af9e.jpg","date":"2009-09-08","year":2009,"month":9,"lon":-135.78929,"lat":58.295574,"tags":"alaska,cruise,hoonah,vacation,whale+watching","S2CellId":"5404000000000000","result":6091,"accuracy":0.42772368,"title":"Alaska+Cruise+Day+5+326"}
{"id":2339525350,"url":"http://farm3.staticflickr.com/2312/2339525350_7753fff4af.jpg","path":"eb8/2d5/eb82d5f7c0c26e13173cb194e4e9cab.jpg","date":"2004-06-21","year":2004,"month":6,"lon":-135.88573,"lat":58.454582,"tags":"alaska,bartlett+cove,sunset,usa","S2CellId":"5489c00000000000","result":6155,"accuracy":0.13750064}
{"id":3760776005,"url":"http://farm4.staticflickr.com/3467/3760776005_4af5709a84.jpg","path":"aa9/24f/aa924f9991e69564a9efbfe793d243d.jpg","date":"2009-07-15","year":2009,"month":7,"lon":-135.45747,"lat":58.119514,"tags":"alaska,cruise","S2CellId":"5470000000000000","result":6094,"accuracy":0.01969104,"title":"IMG_5184"}
{"id":3365301885,"url":"http://farm4.staticflickr.com/3569/3365301885_43bc5059ee.jpg","path":"c85/b9d/c85b9ddb5e4577a2149f9d4fcde1ac.jpg","date":"2009-03-18","year":2009,"month":3,"lon":-136.18129,"lat":59.06158,"tags":"alaska,east+arm,glacier+bay,kayak,kayaking,panorama,white+thunder+ridge","S2CellId":"45df000000000000","result":2759,"accuracy":0.41850674,"title":"White+Thunder+Ridge+in+Glacier+Bay"}
{"id":210804056,"url":"http://farm1.staticflickr.com/83/210804056_b1864482d5.jpg","path":"357/718/357718f35f91a1418181255f2662d5c.jpg","date":"2006-07-30","year":2006,"month":7,"lon":-136.03409,"lat":58.722954,"tags":"alaska,bay,glacier,glacier+bay,kayak,teamalaska2006","S2CellId":"5404000000000000","result":6091,"accuracy":0.34782964,"title":"CIMG0124.JPG"}
{"id":287847388,"url":"http://farm1.staticflickr.com/117/287847388_e96cf7dcb4.jpg","path":"a15/89c/a1589c3766dabfa48a93197ed3a79dea.jpg","date":"2006-11-03","year":2006,"month":11,"lon":-135.55782,"lat":59.338444,"tags":"alaska,b%C3%A4r,bear,haines,usa","S2CellId":"808de50000000000","result":6992,"accuracy":0.006581457,"title":"Unbenannt-100"}
{"id":5949418602,"url":"http://farm7.staticflickr.com/6017/5949418602_512a83b5ff.jpg","path":"524/f23/524f234c789fe9b177c33f8c75e676f.jpg","date":"2011-07-01","year":2011,"month":7,"lon":-135.27829,"lat":59.48366,"tags":"2011,ak,alaska,barber+shop,canadian,canuck,character,cruise,dcl,disney,disney+cruise+line,disney+wonder,disneyphotochallenge,donald+duck,flannel,goldrush+trail+camp+and+salmon+bake,hat,liarsville,logans,lumberjack,plaid,port+adventure,rustic,shack,skagway,summer,vacation,yukon","S2CellId":"1328c00000000000","result":1003,"accuracy":0.03729158,"title":"Yukon+Donald+at+Barbershop","description":"Donald+Duck+decked+out+in+his+hearty+prospector+duds+at+the+Liarsville+Gold+Rush+Trail+Camp+in+Skagway%2C+Alaska.%0A%0AThe+excursion+to+Liarsville+includes+a+salmon+bake+%28wood-fired+wild+Alaskan+salmon+-+yum%21%29%2C+panning+for+gold+%28every+pan+guaranteed+to+contain+a+couple+of+tiny+flakes%29%2C+live+music+and+storytelling+in+a+recreation+of+the+camp+that+thrived+there+during+the+gold+rush.%0A%0AIf+you+book+through+Disney+as+one+of+their+%22Port+Adventures%22+you%27ll+see+a+special+version+of+the+show+that+includes+puppets%2C+and+one+or+more+Disney+characters+will+join+you+during+the+gold+panning.+On+our+trip+it+was+Kenai+and+Koda+from+Brother+Bear%2C+as+well+as+Donald.%0A%0ADisney+worked+with+various+Alaskan+tour+operators+to+create+special+versions+of+their+offerings+that+are+tailored+more+to+families+than+their+normal+events."}
{"id":541363841,"url":"http://farm2.staticflickr.com/1364/541363841_bf38df0bf4.jpg","path":"92a/361/92a3617da781f7e77868b73797d999.jpg","date":"2007-06-04","year":2007,"month":6,"lon":-135.47481,"lat":58.23727,"tags":"cruise,xti","S2CellId":"5404000000000000","result":6091,"accuracy":0.45716572,"title":"IMG_2273"}
{"id":8605810545,"url":"http://farm9.staticflickr.com/8538/8605810545_858f6e9117.jpg","path":"6cd/146/6cd146fc8d91ee489887540c413484f.jpg","date":"2012-07-18","year":2012,"month":7,"lon":-135.30576,"lat":59.466885,"tags":"alaska,cruise,vacation","S2CellId":"5140000000000000","result":5964,"accuracy":0.03054757,"title":"IMAG0148"}
{"id":7762517168,"url":"http://farm8.staticflickr.com/7246/7762517168_dc326ce6ce.jpg","path":"79b/a11/79ba116a331d49554ea6c8ab5d844f5.jpg","date":"2012-08-04","year":2012,"month":8,"lon":-135.59966,"lat":57.009144,"tags":"admiralty+dream,alaska+cruises+christopher+michel,allen+marine,christopher+michel","S2CellId":"56c4000000000000","result":6318,"accuracy":0.1257181,"title":"Alaska+aboard+the+Admiralty+Dream","description":"Admiralty+Dream"}
{"id":2856853770,"url":"http://farm4.staticflickr.com/3166/2856853770_d6e2e1aa41.jpg","path":"19b/a7a/19ba7a5f336386b8692be271c55e2dc.jpg","date":"2009-09-09","year":2009,"month":9,"lon":-135.33972,"lat":57.05399,"tags":"alaska+cruise,sitka","S2CellId":"5470000000000000","result":6094,"accuracy":0.42057598,"title":"PIC_0031+%282%29"}
{"id":210812428,"url":"http://farm1.staticflickr.com/75/210812428_d871c3516f.jpg","path":"da7/591/da7591a976511c791912c8824f45c9.jpg","date":"2006-07-30","year":2006,"month":7,"lon":-136.49774,"lat":58.787865,"tags":"alaska,bay,fog,glacier,glacier+bay,kayak,teamalaska2006","S2CellId":"5470000000000000","result":6094,"accuracy":0.1886499,"title":"CIMG0146.JPG"}
{"id":3879069233,"url":"http://farm3.staticflickr.com/2575/3879069233_9139a24d94.jpg","path":"3c9/ec3/3c9ec36796d65e97cd8b9c6aea282f.jpg","date":"2009-08-19","year":2009,"month":8,"lon":-135.33662,"lat":57.05464,"tags":"alaska,sitka","S2CellId":"5404000000000000","result":6091,"accuracy":0.024509618,"title":"IMG_4461"}
{"id":38511510,"url":"http://farm1.staticflickr.com/33/38511510_fdfe652275.jpg","path":"142/2c2/1422c2452b91493ede5d6e32377ab854.jpg","date":"2005-08-29","year":2005,"month":8,"lon":-137.07881,"lat":58.86739,"tags":"alaska,animals,glacier+bay,seal","S2CellId":"4ec0000000000000","result":5959,"accuracy":0.37220252,"title":"Harbor+Seals"}
{"id":1153137453,"url":"http://farm2.staticflickr.com/1300/1153137453_1653b24948.jpg","path":"21b/89e/21b89e1ea89ad6f88d0e32e4e12beaa.jpg","date":"2007-08-09","year":2007,"month":8,"lon":-136.49414,"lat":58.243053,"tags":"alaska,cruise,glacier,harvey+barrison,hbarrison,hubbard,hubbard+glacier,tauck,travel,travels,world+travel","S2CellId":"56b0000000000000","result":6317,"accuracy":0.31708118,"title":"Alaska_2007+08+09_0445"}
{"id":4903079337,"url":"http://farm5.staticflickr.com/4118/4903079337_8c4b6beebc.jpg","path":"999/284/999284c3b7fcf64946f4f299d986515.jpg","date":"2010-08-04","year":2010,"month":8,"lon":-135.07724,"lat":57.33852,"tags":"alaska,baranof+island,ethan,hannah,kelp+bay","S2CellId":"548e400000000000","result":6158,"accuracy":0.060493127,"title":"Ethan+and+Hannah"}
{"id":12312509104,"url":"http://farm8.staticflickr.com/7351/12312509104_8ba4da09a1.jpg","path":"fee/23f/fee23fc68f3234a7412ec47a0ed464d.jpg","date":"2013-07-24","year":2013,"month":7,"lon":-136.87506,"lat":58.959656,"tags":"alaska,glacier+bay+national+park,lamplugh+glacier","S2CellId":"56c4000000000000","result":6318,"accuracy":0.1857888,"title":"_MG_4390a","description":"Lamplugh+Glacier+in+Glacier+Bay+National+Park%2C+Alaska."}
{"id":6013951728,"url":"http://farm7.staticflickr.com/6144/6013951728_1ef202c1ab.jpg","path":"cdd/8e8/cdd8e82dc95483fb8787758ec878c4a.jpg","date":"2009-09-08","year":2009,"month":9,"lon":-135.78929,"lat":58.295574,"tags":"alaska,cruise,hoonah,vacation,whale+watching","S2CellId":"5404000000000000","result":6091,"accuracy":0.34360775,"title":"Alaska+Cruise+Day+5+280","description":"Another+breach...+just+missed+it."}
{"id":2295623544,"url":"http://farm4.staticflickr.com/3090/2295623544_b44935773a.jpg","path":"607/811/607811b748b69921dc186fc2cfb3d37.jpg","date":"2006-06-27","year":2006,"month":6,"lon":-135.25131,"lat":59.500877,"tags":"alaska,cold,ice,ship,summer,water","S2CellId":"bc70000000000000","result":9960,"accuracy":0.27653602}
{"id":3232665575,"url":"http://farm4.staticflickr.com/3359/3232665575_a5bd4653a9.jpg","path":"5f6/f21/5f6f215f3cdfac6739e3d7a112e89a1.jpg","date":"2008-07-01","year":2008,"month":7,"lon":-136.24841,"lat":57.981712,"tags":"alaska,pelican,sun,sunrise,water","S2CellId":"56c4000000000000","result":6318,"accuracy":0.31916025,"title":"Sunnyside","description":"The+view+of+Sunnyside+Bay++near+Pelican%2C+AK.+It%27s+called+Sunnyside+because+the+sun+reaches+this+side+before+the+mountains+across+the+inlet."}
{"id":234912275,"url":"http://farm1.staticflickr.com/87/234912275_2f146269d5.jpg","path":"cf8/ce3/cf8ce34213f37dee997b4b65e88a37b3.jpg","date":"2006-08-03","year":2006,"month":8,"lon":-135.21355,"lat":59.55172,"tags":"ak,alaska,canon,canon+sd450,mountains,rail,railroad,sd450,skagway,train,travel,valley,white+pass","S2CellId":"5370c00000000000","result":6047,"accuracy":0.1426776,"title":"Rapids","description":"%3Ca+href%3D%22http%3A%2F%2Fwww.flickr.com%2Fgroups%2Fworld%2Fpool%2Ftags%2Falaska%2F%22%3EBack+to+Alaska%3C%2Fa%3E+-+%3Ca+href%3D%22http%3A%2F%2Fwww.flickr.com%2Fgroups%2Fworld%2F%22%3EVisit+the+World%3C%2Fa%3E"}
{"id":5854828613,"url":"http://farm6.staticflickr.com/5271/5854828613_d468b13c19.jpg","path":"d0f/0ef/d0f0ef455769568938a3a0cd06586a.jpg","date":"2011-05-31","year":2011,"month":5,"lon":-135.32661,"lat":59.450756,"tags":"ak,alaska,celebrity,celebrity+infinity,ship,skagway,united+states","S2CellId":"4d4f000000000000","result":5953,"accuracy":0.09376226,"title":"Celebrity+Infinity"}
{"id":3627686934,"url":"http://farm4.staticflickr.com/3659/3627686934_be570aa5cc.jpg","path":"867/db4/867db48cf12d83608a4514f3cbbea14.jpg","date":"2006-07-05","year":2006,"month":7,"lon":-135.33646,"lat":57.054688,"tags":"2006,alaska,cruise,july,oosterdam,otters,sitka","S2CellId":"5404000000000000","result":6091,"accuracy":0.15099207,"title":"P7050115"}
{"id":263031727,"url":"http://farm1.staticflickr.com/118/263031727_c6c39b2bb3.jpg","path":"121/56c/12156c3efe60f6d4a152dd065d5a67f.jpg","date":"2006-10-06","year":2006,"month":10,"lon":-135.3465,"lat":57.04923,"tags":"ak,alaska,boats,sitka,southeast","S2CellId":"540c000000000000","result":6092,"accuracy":0.29253152,"title":"sitka7","description":"Small+boats+docked+in+Sitka"}
{"id":3880778460,"url":"http://farm3.staticflickr.com/2446/3880778460_622421882c.jpg","path":"278/4ab/2784ab6ba6a1befbcaaac677a5b94c3.jpg","date":"2009-08-17","year":2009,"month":8,"lon":-135.37614,"lat":59.214233,"tags":"500d,alaska,all,beach,canon,chilkat,cruise,eos,haines,honeymoon,kelgaya+bay,park,state,t1i,tamron+18-270,tamron+af+18-270mm+f%2F3.5-6.3+di+ii+vc+ld+aspherical+%28if%29","S2CellId":"5470000000000000","result":6094,"accuracy":0.22069837,"title":"IMG_2954"}
{"id":12136918833,"url":"http://farm6.staticflickr.com/5525/12136918833_24cd62be02.jpg","path":"5c7/ac5/5c7ac5e684056b7c2a5aba56a51b4.jpg","date":"2013-07-24","year":2013,"month":7,"lon":-136.03812,"lat":58.63821,"tags":"alaska,bird,glacier+bay+national+park,puffin,south+marble+island","S2CellId":"5470000000000000","result":6094,"accuracy":0.045325387,"title":"_MG_4105a","description":"Puffins+by+South+Marble+Island+in+Glacier+Bay+National+Park%2C+Alaska."}
{"id":4968797068,"url":"http://farm5.staticflickr.com/4149/4968797068_4073956afe.jpg","path":"182/58b/18258baa317157dbd9353e1fa928d6b.jpg","date":"2010-07-12","year":2010,"month":7,"lon":-135.23592,"lat":58.23555,"tags":"person,robin+ciordia,woman","S2CellId":"4c90000000000000","result":5830,"accuracy":0.17922167,"title":"Robin+Ciordia","description":"Everyone+needs+a+moment+far+away+from+everything+where+they+can+recount+and+laugh."}
