{"id":4853152563,"url":"http://farm5.staticflickr.com/4123/4853152563_573f09063d.jpg","path":"9b9/69a/9b969a53816d2d782e98254af0eb22.jpg","date":"2010-08-01","year":2010,"month":8,"lon":-108.76594,"lat":44.752098,"tags":"ball,chester,dog,druid+labs+blog","S2CellId":"88f5b00000000000","result":8731,"accuracy":0.032822203,"title":"i+need+that+ball"}
{"id":3985109318,"url":"http://farm4.staticflickr.com/3463/3985109318_84c037a70d.jpg","path":"2c8/ea3/2c8ea3997ecf3f51d3cbfbecc74bad.jpg","date":"2009-10-05","year":2009,"month":10,"lon":-108.94923,"lat":44.670246,"tags":"cody,cody%2C+wyoming,elmada,heart+mountain,heart+mountain+relocation+camp,internment,internment+camp,japanese+internment,japanese+internment+camp,united+states,united+states+of+america,usa,world+war+ii,wy,wyo,wyoming","S2CellId":"877c000000000000","result":7905,"accuracy":0.02284948,"title":"Heart+Mountain+Memorials"}
{"id":5089956917,"url":"http://farm5.staticflickr.com/4083/5089956917_78dc57d44e.jpg","path":"a13/848/a1384898767cf15a1c7db275a74f90.jpg","date":"2010-10-08","year":2010,"month":10,"lon":-108.19885,"lat":44.88215,"tags":"bear,bison,buffalo,geysers,grizzly,tourism,wildlife,wyoming,yellowstone","S2CellId":"1330400000000000","result":1119,"accuracy":0.047237642,"title":"three%27s+a+crowd"}
{"id":7347139562,"url":"http://farm8.staticflickr.com/7216/7347139562_9c9399d34c.jpg","path":"e2f/483/e2f4832fd5913f521432e33469675e8.jpg","date":"2012-06-03","year":2012,"month":6,"lon":-108.26348,"lat":44.963257,"tags":"annual,asteraceae,helianthus+petiolaris,herb,involucral+bracts,mid+summer,native,prairie+sunflower,yellow","S2CellId":"864e640000000000","result":7620,"accuracy":0.019243497,"title":"Helianthus+petiolaris","description":"The+lanceolate+involucral+bracts+not+abruptly+contracting+to+a+tip+are+very+different+from+those+of+Helianthus+annuus."}
{"id":7273547110,"url":"http://farm8.staticflickr.com/7076/7273547110_aaf93c593b.jpg","path":"f7a/a92/f7aa92bd46d384a97da98ec3bc7cd4.jpg","date":"2012-05-19","year":2012,"month":5,"lon":-108.26061,"lat":44.963963,"tags":"astragalus+gracilis,fabaceae,habit,habitat,herb,leguminosae,native,perennial,pryor+mountains,sagebrush+steppe,slender+milkvetch,stipules,wyoming","S2CellId":"864e640000000000","result":7620,"accuracy":0.06868597,"title":"Astragalus+gracilis","description":"The+stipules+are+united+on+the+side+of+stem+opposite+the+point+of+attachment+of+the+petiole+in+this+Astragalus+species."}
{"id":2152589347,"url":"http://farm3.staticflickr.com/2246/2152589347_5aaa3172f0.jpg","path":"def/d1a/defd1adb318827c7e0d604ede16e.jpg","date":"2007-12-29","year":2007,"month":12,"lon":-108.896484,"lat":44.527843,"tags":"vacation","S2CellId":"45d4000000000000","result":2755,"accuracy":0.019584194,"title":"100_0300"}
