{"id":3850614633,"url":"http://farm3.staticflickr.com/2518/3850614633_e8e4b4453b.jpg","path":"b23/f69/b23f6918b8ede174233eed1187d5d3ef.jpg","date":"2009-08-22","year":2009,"month":8,"lon":-116.46315,"lat":52.00734,"tags":"262+km+sw+of+edmonton,alberta,boy,canada,children,friends,girl,julie,leisure,nature,outdoors,recreation","S2CellId":"8769700000000000","result":7857,"accuracy":0.15114544,"title":"Rest+on+the+rock"}
{"id":2985568058,"url":"http://farm4.staticflickr.com/3196/2985568058_d5a50f92c3.jpg","path":"94c/ddd/94cddd5b43e7f0c0218e42a78ee685.jpg","date":"2008-09-07","year":2008,"month":9,"lon":-117.0,"lat":52.0,"tags":"lukeinbanff","S2CellId":"48cf000000000000","result":5786,"accuracy":0.21086006,"title":"DSCF2024.JPG"}
{"id":12247876074,"url":"http://farm8.staticflickr.com/7426/12247876074_2a98471aa8.jpg","path":"af1/256/af12567c19b6bb7417c3c7cfc2419a.jpg","date":"2014-01-18","year":2014,"month":1,"lon":-116.34484,"lat":52.07522,"tags":"forest,ice,mountains,nature,river,sheep,snow,trees,water,wildlife","S2CellId":"534e400000000000","result":6028,"accuracy":0.23051868,"title":"David+Thompson+Highway","description":"Photos+taken+on+DTH11+particularly+Preachers+Point%2C+Kootney+Plains+and+Whirlpool+Point%2C+Alberta"}
{"id":10680087745,"url":"http://farm4.staticflickr.com/3685/10680087745_4ef47dacf0.jpg","path":"256/491/25649106e2e1125917e89af205018e8.jpg","date":"2013-10-26","year":2013,"month":10,"lon":-116.35662,"lat":52.387474,"tags":"nordegg","S2CellId":"5140000000000000","result":5964,"accuracy":0.0481132,"title":"P1080636"}
{"id":10680160643,"url":"http://farm6.staticflickr.com/5497/10680160643_07f40a6d7e.jpg","path":"30d/27f/30d27f32573e65311a3c50d23f696f.jpg","date":"2013-10-26","year":2013,"month":10,"lon":-116.32828,"lat":52.38343,"tags":"nordegg","S2CellId":"5377000000000000","result":6058,"accuracy":0.7030756,"title":"P1080608"}
{"id":7499832400,"url":"http://farm9.staticflickr.com/8423/7499832400_d8ac0d7c90.jpg","path":"40e/4d9/40e4d9ca1646d673abf5e718ad3632d7.jpg","date":"2012-06-30","year":2012,"month":6,"lon":-116.35348,"lat":52.390156,"tags":"alberta,author,canada,clearwater+county,nature,tuca","S2CellId":"46b54f0000000000","result":3070,"accuracy":0.0077056554,"title":"IMG_0105"}
{"id":1541429124,"url":"http://farm3.staticflickr.com/2060/1541429124_0d93d9d463.jpg","path":"6e3/8a8/6e38a8dde4adcff1d6712e7465dec398.jpg","date":"2007-10-06","year":2007,"month":10,"lon":-116.883545,"lat":52.03222,"tags":"mountains,rocky,travels,trip,vancouver","S2CellId":"883cae5000000000","result":8363,"accuracy":0.005327525,"title":"A+teapot+at+the+Coffee+shop+on+the+top+of+the+Jasper+National+Park"}
{"id":8816239050,"url":"http://farm9.staticflickr.com/8555/8816239050_a0e7f483c8.jpg","path":"ad7/a20/ad7a20e32ef9f6c777a1930227f118.jpg","date":"2013-05-15","year":2013,"month":5,"lon":-116.47881,"lat":52.189293,"tags":"11,abraham,alberta,banff,british,campground,camping,canada,columbia,david,highway,house,jasper,mountain,mountains,national,park,pass,reservoir,resort,rocky,spring,spring4,thompson,water","S2CellId":"8769700000000000","result":7857,"accuracy":0.09921938,"title":"David+Thompson+Highway+Country+Alberta","description":"Includes+photos+from+the+David+Thompson+Highway+11+Rocky+Mountains+Alberta+near+Nordegg+and+the+David+Thompson+Resort"}
{"id":2849296787,"url":"http://farm4.staticflickr.com/3191/2849296787_b5a95e98db.jpg","path":"64b/885/64b8859ec484307b76a45b75af902875.jpg","date":"2008-09-06","year":2008,"month":9,"lon":-116.90933,"lat":52.068333,"tags":"osm","S2CellId":"5140000000000000","result":5964,"accuracy":0.14503588,"title":"P080906184"}
{"id":5936082794,"url":"http://farm7.staticflickr.com/6133/5936082794_b0e6d01a59.jpg","path":"14b/c26/14bc26f24d6aa050685eb645bc9f926d.jpg","date":"2011-07-02","year":2011,"month":7,"lon":-116.488205,"lat":52.24504,"tags":"clouds,forest,lake,landscape,mountains,nature,sky,the+rockies,water","S2CellId":"5377000000000000","result":6058,"accuracy":0.55424935}
{"id":12247619053,"url":"http://farm4.staticflickr.com/3692/12247619053_c3e3e89650.jpg","path":"e26/d51/e26d5134ca652d5dfe8f9bc8ae319e8.jpg","date":"2014-01-18","year":2014,"month":1,"lon":-116.36868,"lat":52.069157,"tags":"forest,ice,mountains,nature,river,sheep,snow,trees,water,wildlife","S2CellId":"80cf000000000000","result":7266,"accuracy":0.011084011,"title":"David+Thompson+Highway","description":"Photos+taken+on+DTH11+particularly+Preachers+Point%2C+Kootney+Plains+and+Whirlpool+Point%2C+Alberta"}
{"id":2849433254,"url":"http://farm4.staticflickr.com/3219/2849433254_10bb7cde54.jpg","path":"de1/c81/de1c81844ea1c24f24e4e62fbc15786.jpg","date":"2008-09-02","year":2008,"month":9,"lon":-116.36289,"lat":52.387386,"tags":"diamond,htc,phone,shozu","S2CellId":"5377000000000000","result":6058,"accuracy":0.20022115,"title":"20080902_073","description":"-+Camera+phone+upload+powered+by+%3Ca+href%3D%22http%3A%2F%2Fwww.shozu.com%2F%3Futm_source%3Dupload%26utm_medium%3Dgraphic%26utm_campaign%3Dupload_graphic%2F%22+target%3D%22_newwindow%22%3EShoZu%3C%2Fa%3E"}
{"id":404336185,"url":"http://farm1.staticflickr.com/168/404336185_8dbc9234ac.jpg","path":"ecb/933/ecb93311a15d8adaa444ae53827a460.jpg","date":"2007-02-24","year":2007,"month":2,"lon":-116.22659,"lat":52.427284,"tags":"2007,alberta,canada,canadian,climb,climbing,corridor,david,festival,ice,ice+festival,icefest,nordegg,rockies,thompson","S2CellId":"8099900000000000","result":7112,"accuracy":0.059192114,"title":"HPIM2397"}
{"id":8816243334,"url":"http://farm3.staticflickr.com/2831/8816243334_eb781fbd2a.jpg","path":"172/336/1723368d83a2bde68050ac32c539f482.jpg","date":"2013-05-15","year":2013,"month":5,"lon":-116.47881,"lat":52.189293,"tags":"11,abraham,alberta,banff,british,campground,camping,canada,columbia,david,highway,house,jasper,mountain,mountains,national,park,pass,reservoir,resort,rocky,spring,spring4,thompson,water","S2CellId":"5351f00000000000","result":6036,"accuracy":0.08643593,"title":"David+Thompson+Highway+Country+Alberta","description":"Includes+photos+from+the+David+Thompson+Highway+11+Rocky+Mountains+Alberta+near+Nordegg+and+the+David+Thompson+Resort+Lake+Abraham+Lake+Reservoir"}
{"id":404353120,"url":"http://farm1.staticflickr.com/187/404353120_6c472e39ca.jpg","path":"d35/b39/d35b39c316895f27c17f97617e10b437.jpg","date":"2007-02-24","year":2007,"month":2,"lon":-116.22659,"lat":52.427284,"tags":"2007,alberta,canada,canadian,climb,climbing,corridor,david,festival,ice,ice+festival,icefest,nordegg,rockies,thompson","S2CellId":"5487400000000000","result":6150,"accuracy":0.03701715,"title":"HPIM2471"}
{"id":6048392658,"url":"http://farm7.staticflickr.com/6181/6048392658_8e9b7469d3.jpg","path":"d8b/a32/d8ba32966ca85c61cd5d759ca8bdcbf.jpg","date":"2011-08-13","year":2011,"month":8,"lon":-116.36203,"lat":52.035477,"tags":"environment,nature,outdoors","S2CellId":"5370c00000000000","result":6047,"accuracy":0.08103488,"title":"Enjoying+the+view"}
