{"id":22114615,"url":"http://farm1.staticflickr.com/16/22114615_b0d8ed3699.jpg","path":"b72/c77/b72c77e8d94c58b58bedd1351ab872ba.jpg","date":"2005-06-21","year":2005,"month":6,"lon":7.381439,"lat":61.961067,"tags":"norway,samiuskela,stryn","S2CellId":"4ec0000000000000","result":5959,"accuracy":0.060303677,"title":"Snow+mover","description":"Small+snow+mover+in+action"}
{"id":2349919904,"url":"http://farm3.staticflickr.com/2309/2349919904_d608ebd67e.jpg","path":"73f/95c/73f95c43c741b30b7c1d67caf26b2c.jpg","date":"2006-09-06","year":2006,"month":9,"lon":8.371582,"lat":61.47412,"tags":"jotunheimen,norway","S2CellId":"4615000000000000","result":2764,"accuracy":0.4176186,"title":"IMG_2026"}
{"id":5859587078,"url":"http://farm6.staticflickr.com/5112/5859587078_a1dd733931.jpg","path":"77a/f46/77af4621543f1eaf7754c5fba1e8629e.jpg","date":"2011-06-12","year":2011,"month":6,"lon":6.820575,"lat":61.861923,"tags":"norway","S2CellId":"45df000000000000","result":2759,"accuracy":0.066843115,"title":"IMG_4545"}
{"id":5977453547,"url":"http://farm7.staticflickr.com/6142/5977453547_79a6787a68.jpg","path":"a0a/25f/a0a25fe1cf70d1d7e2adc7acab9607a.jpg","date":"2010-07-19","year":2010,"month":7,"lon":7.206344,"lat":60.91842,"tags":"aurland,aurlandfjord,ciel,cielsky,doublyniceshot,fjord,norv%C3%A8ge,norway,sky,sognefjord","S2CellId":"463f000000000000","result":2783,"accuracy":0.23263931,"title":"Aurland+Fjord"}
{"id":4227366511,"url":"http://farm3.staticflickr.com/2513/4227366511_e733ef6edf.jpg","path":"bd8/98f/bd898ff5fe142696e8ead82c44f83a2.jpg","date":"2009-12-27","year":2009,"month":12,"lon":6.693291,"lat":60.542973,"tags":"granvin,hordaland,nor,norway","S2CellId":"463f000000000000","result":2783,"accuracy":0.04213833,"title":"Winter+Wonderland+-+2"}
{"id":4948105912,"url":"http://farm5.staticflickr.com/4073/4948105912_e36e5d398e.jpg","path":"b8f/25c/b8f25c03cb3055ee426f34a7482f5.jpg","date":"2010-08-28","year":2010,"month":8,"lon":6.681618,"lat":61.310226,"tags":"2010+fjaerland+en+bergen,dolfijn,dolphin,fjaerland,noorwegen,norge,norway","S2CellId":"56b0000000000000","result":6317,"accuracy":0.13707115,"title":"Fjaerland-279_edited-1"}
{"id":81986244,"url":"http://farm1.staticflickr.com/40/81986244_ec01ef36eb.jpg","path":"157/7e5/1577e5da6c2212b47e62995d4d8baf3c.jpg","date":"2005-09-24","year":2005,"month":9,"lon":8.409175,"lat":61.384266,"tags":"fondsbu,galdebergtinden,hiking,jotunheimen,mountain,norway","S2CellId":"48b0000000000000","result":5782,"accuracy":0.058130573,"title":"IMG_1554.JPG","description":"Snow+over+Bygdin"}
{"id":2774546948,"url":"http://farm4.staticflickr.com/3290/2774546948_8d794431a0.jpg","path":"f88/cdb/f88cdbd2c9c65d1beffcac206c4b945.jpg","date":"2008-08-18","year":2008,"month":8,"lon":6.288299,"lat":60.168797,"tags":"guttorm+flatab%C3%B8,hardanger,hiking,mauranger,nordrepollen,river,selfportrait,waterfall","S2CellId":"54cd000000000000","result":6310,"accuracy":0.20102723,"title":"17072008097","description":"Going+up+by+the+river%2Fwaterfall+in+Nordrepollen+in+Mauranger+on+a+rainfull+day+in+July%2C+this+is+what+you+will+see.+The+idyllic+place+may+in+some+years+be+ruined+by+a+tunnell+from+Jondal."}
{"id":4892584502,"url":"http://farm5.staticflickr.com/4121/4892584502_e1c7d66f61.jpg","path":"19b/72c/19b72c2797603b49e2c2d1f2f2ce424a.jpg","date":"2010-08-04","year":2010,"month":8,"lon":6.573944,"lat":62.646076,"tags":"2010,norway","S2CellId":"4613000000000000","result":2763,"accuracy":0.25663912,"title":"P1000595"}
{"id":7596054182,"url":"http://farm8.staticflickr.com/7137/7596054182_d46fc5ecc9.jpg","path":"98d/eba/98deba7adf2838c7d93eebf3d2616dec.jpg","date":"2012-07-18","year":2012,"month":7,"lon":6.422781,"lat":60.62908,"tags":"earlybird,instagram+app,iphoneography,square,square+format","S2CellId":"4724000000000000","result":3252,"accuracy":0.03638466,"title":"Bastian+p%C3%A5+Vangen+%23Voss+%23vestland"}
{"id":3781705750,"url":"http://farm3.staticflickr.com/2536/3781705750_153510bbae.jpg","path":"ae1/632/ae1632b447659d94b4028f191cd26a5.jpg","date":"2009-07-27","year":2009,"month":7,"lon":7.884954,"lat":61.491215,"tags":"jotunheimen,norway,styggdalsbreen","S2CellId":"4615000000000000","result":2764,"accuracy":0.17767912,"title":"Styggdalsbreen","description":"On+the+route+from+Turtagro+to+the+DNT+Hut+at+Skogadalsboen%2C+a+day+which+started+off+sunny%2C+but+that+didn%27t+last.+By+2pm+it+was+back+to+heavy+Norwegian+rain"}
{"id":4002134978,"url":"http://farm4.staticflickr.com/3453/4002134978_af964b1ccc.jpg","path":"4a4/730/4a47308e552cb64368d9aee67793b83a.jpg","date":"2009-10-11","year":2009,"month":10,"lon":6.520214,"lat":61.212337,"tags":"sommer,tur","S2CellId":"4771400000000000","result":3386,"accuracy":0.15894394,"title":"Balestrand","description":"Esefjorden+mot+Keipen"}
{"id":9686978776,"url":"http://farm8.staticflickr.com/7413/9686978776_8d6907c5d0.jpg","path":"187/184/187184e7df91ed54e55c87ff249728cd.jpg","date":"2013-09-01","year":2013,"month":9,"lon":7.978477,"lat":60.733826,"tags":"2013,autumn,buskerud,cloudberries,colours,fauna,flora,flowers,herfst,hovet,mosses,mountains,multer,noorwegen,norway,september+1,stolsvatnet,vegetation","S2CellId":"463f000000000000","result":2783,"accuracy":0.0850944,"title":"Flora+and+fauna+in+the+Norwegian+mountains+%28Stolsvatnet%29","description":"September+1%2C+2013%0AZoekend+naar+de+vermaarde+Noorse+multer+%28cloudberries%29%2C+was+ik+verrast+door+de+rijkdom+aan+vegetatie%2C+de+herfstkleuren+daarin%2C+heel+subtiel%2C+maar+o+zo+sterk+qua+pigment.+Kleine+details+heb+ik+vast+willen+leggen+via+mijn+eenvoudige+camera%2C+maar+vaak+was+het+niet+mogelijk%3A+de+bloemetjes+zijn+o+zo+klein+in+de+mossen%21%21+%0ASearching+for+the+famous+Norwegian+cloudberries+I+was+surprised+by+the+richness+of+the+vegetation%2C+the+colours+in+the+plants+and+berries%2C+their+leafs....%2C+very+subtle%2Cbut+o+so+strong+pigmented.+I+wanted+to+shoot+little+details+with+my+simple+camera+but+often+it+was+impossible%3A+the+flowers+of+the+mosses+were+oh+so+tiny.+%0AI+need+another+camera+to+film+Norway.%0A%3A%29"}
{"id":5597824739,"url":"http://farm6.staticflickr.com/5025/5597824739_939d0500ef.jpg","path":"c92/f89/c92f89883ec652725dcb631426717f9.jpg","date":"2011-03-14","year":2011,"month":3,"lon":6.765469,"lat":62.664417,"tags":"%C3%A5lesund,alesund,berge,hurtigruten,landscape,landschaft,molde,mountains,norway,norwegen,sea,see","S2CellId":"5487400000000000","result":6150,"accuracy":0.06287785,"title":"Between+%C3%85lesund+and+Molde","description":"On+the+half+way%2C+between+%C3%85lesund+and+Molde%2C+near+the+island+of+Otr%C3%B8ya.%0A%0AOtr%C3%B8ya%2C+Norway"}
{"id":461908898,"url":"http://farm1.staticflickr.com/237/461908898_896a615605.jpg","path":"a1b/f51/a1bf518dfba1c4c4f6c16feedcd1bf8.jpg","date":"2007-04-16","year":2007,"month":4,"lon":8.763656,"lat":61.50243,"tags":"bessegen,galdh%C3%B6piggen,joutenheimen,karin,vandring","S2CellId":"4615000000000000","result":2764,"accuracy":0.17952104,"title":"Joutenheimen+2006+2+021"}
{"id":9105636543,"url":"http://farm6.staticflickr.com/5471/9105636543_1466b3e8f3.jpg","path":"c38/3d0/c383d098295e7636dc839d98b7251d48.jpg","date":"2013-05-01","year":2013,"month":5,"lon":6.155333,"lat":62.47333,"tags":"norway","S2CellId":"4617000000000000","result":2765,"accuracy":0.21636349,"title":"Norway"}
{"id":6785079402,"url":"http://farm8.staticflickr.com/7190/6785079402_9f55e1dd2a.jpg","path":"b23/5e2/b235e2866c4a7acde16926d788de8d3.jpg","date":"2011-07-04","year":2011,"month":7,"lon":6.973571,"lat":62.07174,"tags":"clouds,fjords,geiranger,landscape,mountains,norway","S2CellId":"463f000000000000","result":2783,"accuracy":0.19633414,"title":"Geiranger+fjord+14"}
{"id":5923138859,"url":"http://farm7.staticflickr.com/6021/5923138859_b38f5e3895.jpg","path":"255/8da/2558da6126e74b0e1d93cf98a9c1e67.jpg","date":"2011-07-10","year":2011,"month":7,"lon":6.605379,"lat":61.99842,"tags":"bakke,dead,death,farm,hipstamatic,hornindal,norge,norway,pig,pig+farm,watts","S2CellId":"4887c74000000000","result":5711,"accuracy":0.0034755976,"title":"Incredibly+Dead+Pig","description":"Watts+Lens%2C+Ina%27s+1935+Film%2C+No+Flash"}
{"id":2831021317,"url":"http://farm4.staticflickr.com/3210/2831021317_827c925e9f.jpg","path":"364/4e5/3644e5fdf9e7ffd5f22eecec764bb610.jpg","date":"2008-09-05","year":2008,"month":9,"lon":7.347793,"lat":61.956448,"tags":"autumn,mountains,nature,norway","S2CellId":"4615000000000000","result":2764,"accuracy":0.3215491,"title":"_MG_8656"}
{"id":6908437838,"url":"http://farm8.staticflickr.com/7075/6908437838_a41fe5ee4f.jpg","path":"87c/7e7/87c7e74c51c7c1ef6cb9e340eee2803a.jpg","date":"2004-07-27","year":2004,"month":7,"lon":7.684593,"lat":62.558315,"tags":"geiranger,nature,norway,trollveien","S2CellId":"4615000000000000","result":2764,"accuracy":0.089297615,"title":"Trollveien%2C+Norway","description":"fujifilm"}
{"id":31774621,"url":"http://farm1.staticflickr.com/21/31774621_8afb1a45ff.jpg","path":"2a4/cf8/2a4cf88e901743144ed7787e148618ec.jpg","date":"2005-07-30","year":2005,"month":7,"lon":8.567962,"lat":60.870533,"tags":"fla,hallingdal,norway","S2CellId":"465a400000000000","result":2886,"accuracy":0.024150973,"title":"Noorwegen-Zweden+20050162","description":"Fla+in+Hallingdal+Norway.+Vassfaret+Bjornepark"}
{"id":2734006507,"url":"http://farm4.staticflickr.com/3173/2734006507_60816b64f4.jpg","path":"b61/095/b61095346cbeb02f63c2a29c5966e9d4.jpg","date":"2008-07-25","year":2008,"month":7,"lon":6.92441,"lat":61.333275,"tags":"20080725,dag21,scandinavi%C3%AB","S2CellId":"6027000000000000","result":6570,"accuracy":0.0068304846,"title":"Selseng","description":"Tijdsas"}
{"id":2828751550,"url":"http://farm4.staticflickr.com/3075/2828751550_d9e3663707.jpg","path":"364/9c5/3649c56b72f80acf420dc5accbc5061.jpg","date":"2008-09-04","year":2008,"month":9,"lon":6.063079,"lat":62.543865,"tags":"natur,nature,norwayphotos","S2CellId":"5470000000000000","result":6094,"accuracy":0.21746618,"title":"_MG_8460"}
{"id":4855018568,"url":"http://farm5.staticflickr.com/4115/4855018568_0b5b7230c2.jpg","path":"d61/256/d612566129715e9339a6986336c3f3e9.jpg","date":"2010-06-23","year":2010,"month":6,"lon":6.175174,"lat":62.47107,"tags":"alesund,norway","S2CellId":"463cfd0000000000","result":2779,"accuracy":0.409585,"title":"Alesund"}
{"id":6331608696,"url":"http://farm7.staticflickr.com/6232/6331608696_524f005d4e.jpg","path":"614/9ab/6149abd834fe6ed7e5f8da6b2c85856d.jpg","date":"2011-07-16","year":2011,"month":7,"lon":6.164435,"lat":62.474377,"tags":"%C3%A5lesund,aalensund,alesund,m%C3%B6re+og+romsdal,m%C3%B8re+og+romsdal,moere+og+romsdal,more+og+romsdal,noreg,norge,norway,norwegen","S2CellId":"4617000000000000","result":2765,"accuracy":0.8579122,"title":"nor_2011_282","description":"%C3%85lesund+vom+Berg+Aksla+aus+gesehen"}
{"id":81986968,"url":"http://farm1.staticflickr.com/41/81986968_ec6846eaf8.jpg","path":"9a5/461/9a546153c39bb81adf21a2b8ee57198c.jpg","date":"2005-09-24","year":2005,"month":9,"lon":8.409175,"lat":61.384266,"tags":"fondsbu,galdebergtinden,hiking,jotunheimen,mountain,norway","S2CellId":"488e400000000000","result":5768,"accuracy":0.42438266,"title":"IMG_1558.JPG","description":"Where+did+Galdebergtinden+go%3F%3F%3F"}
{"id":3935062848,"url":"http://farm3.staticflickr.com/2578/3935062848_ef9cae0bc0.jpg","path":"696/3f1/6963f1f523797c23babb6eb3378bf4a.jpg","date":"2009-09-05","year":2009,"month":9,"lon":7.557272,"lat":61.98158,"tags":"258+turistveg,breed+wollegras,breedbladig+wollegras,broad-leaved+cotton-grass,eriophorum+latifolium,more+og+romsdal,noorwegen,norge,norway,sogn+og+fjordane,white,wit","S2CellId":"132e400000000000","result":1056,"accuracy":0.010931615,"title":"Cotton-grass"}
{"id":2527824997,"url":"http://farm3.staticflickr.com/2146/2527824997_45fa0bd592.jpg","path":"d13/259/d1325931742f2cc573247dc4d38c38c.jpg","date":"2007-08-13","year":2007,"month":8,"lon":8.293647,"lat":60.565823,"tags":"by-nc-sa,cc,creative+commons,noreg,norge,noruega,norvegia,norway","S2CellId":"4691000000000000","result":2978,"accuracy":0.058111016,"title":"Oslo+to+Geilo"}
{"id":3573231414,"url":"http://farm4.staticflickr.com/3648/3573231414_d3570717df.jpg","path":"ea5/5c9/ea55c9cf9250fdc759754b2877c89119.jpg","date":"2009-05-26","year":2009,"month":5,"lon":6.538066,"lat":61.20912,"tags":"balestrand,balestrand+summit,conference,kviknes+hotel,presentation,sustainable+tourism,vestforsk","S2CellId":"0d19331000000000","result":217,"accuracy":0.10063317,"title":"Erling+Sande"}
{"id":9387720486,"url":"http://farm8.staticflickr.com/7339/9387720486_007d3d9a67.jpg","path":"191/b58/191b5893df9fe9772a1f9a32f854712.jpg","date":"2013-07-22","year":2013,"month":7,"lon":6.853752,"lat":61.664135,"tags":"briksdal,fjelde.+mountains,norge,norway,sogn+og+fjordane,vandfald,waterfall","S2CellId":"478f900000000000","result":3690,"accuracy":0.12634823,"title":"Briksdal"}
{"id":3687711714,"url":"http://farm3.staticflickr.com/2617/3687711714_1e18db415f.jpg","path":"2e6/bb4/2e6bb4cafa7ec9dbaf1d4475d70290.jpg","date":"2009-06-28","year":2009,"month":6,"lon":7.093048,"lat":62.6899,"tags":"ferry,molde,norway","S2CellId":"5404000000000000","result":6091,"accuracy":0.28112093,"title":"Leaving+Vestnes"}
{"id":3688824671,"url":"http://farm3.staticflickr.com/2448/3688824671_8b92de4cf5.jpg","path":"2ef/e90/2efe90de75b0ee36eb99f38da6543a24.jpg","date":"2009-06-18","year":2009,"month":6,"lon":6.786048,"lat":60.85879,"tags":"norway,norwegen","S2CellId":"463f000000000000","result":2783,"accuracy":0.4920821,"title":"0906_Kreuzfahrt_Norwegen_0333","description":"norwegische+Landschaft+rund+um+Voss%2C+Stahlheim%2C+Flam%2C+Myrdal"}
{"id":9712121510,"url":"http://farm8.staticflickr.com/7425/9712121510_8e55c6931d.jpg","path":"f04/5f8/f045f877f14b7165c1e3182fcfad8ea6.jpg","date":"2013-09-09","year":2013,"month":9,"lon":8.559547,"lat":60.6297,"tags":"%C3%A5l,bebyggelse,buskerud,norge,sentrum","S2CellId":"4647000000000000","result":2811,"accuracy":0.11120393,"title":"20130909-IMG_3379.jpg","description":"Utsikt+fra+Thon+Hotell+Hallingdal"}
{"id":4538613035,"url":"http://farm5.staticflickr.com/4053/4538613035_7e452910e8.jpg","path":"e53/f66/e53f6613a4d66e5bcdf8c611c56deef.jpg","date":"2009-09-26","year":2009,"month":9,"lon":8.682975,"lat":61.45157,"tags":"h%C3%B8gdebrotet","S2CellId":"48d5000000000000","result":5789,"accuracy":0.06933932,"title":"H%C3%B8gdebrotet"}
{"id":629032428,"url":"http://farm2.staticflickr.com/1089/629032428_881a84072e.jpg","path":"735/893/735893151a1aef9d1deb8baa5a356846.jpg","date":"2007-06-26","year":2007,"month":6,"lon":7.327709,"lat":61.01614,"tags":"aurlandsvegen,car,glacier,laerdal,lplarge,mountain,mountain+pass,nicolas+masse,nicoze,norway,scandinavia,snow,sogn+og+fjorndane,vanishing+point","S2CellId":"45c4000000000000","result":2753,"accuracy":0.050232083,"title":"Aurlandsvegen","description":"A+bit+of+snow+left+in+mid-june..."}
{"id":4794584000,"url":"http://farm5.staticflickr.com/4134/4794584000_6d5fe74cce.jpg","path":"6b9/f2a/6b9f2af2c3d698d0b73852212f8de8.jpg","date":"2010-07-01","year":2010,"month":7,"lon":7.112188,"lat":60.864098,"tags":"2010,norway","S2CellId":"463f000000000000","result":2783,"accuracy":0.4044403,"title":"IMG_1843"}
{"id":6064370269,"url":"http://farm7.staticflickr.com/6185/6064370269_e690eb7ece.jpg","path":"b65/443/b654436765156aef8e25e349c6ee027.jpg","date":"2011-08-01","year":2011,"month":8,"lon":6.284179,"lat":61.090168,"tags":"fiordos,noruega,norway","S2CellId":"463f000000000000","result":2783,"accuracy":0.13750361,"title":"Campo+de+fresas+-+Strawberry+fields"}
{"id":3189573912,"url":"http://farm4.staticflickr.com/3471/3189573912_0f853a05d7.jpg","path":"27b/c17/27bc17bc18caf676fa2b6333efd2b8.jpg","date":"2008-08-07","year":2008,"month":8,"lon":7.113132,"lat":61.230106,"tags":"fjord,fjordane,lomumo,norge,noruega,norway,skjolden,sogn,sognefjord,sognefjorden","S2CellId":"463f000000000000","result":2783,"accuracy":0.25012457,"title":"Sognefjord+15"}
{"id":5956876077,"url":"http://farm7.staticflickr.com/6009/5956876077_fcd454c181.jpg","path":"1fe/9ed/1fe9ed3ef34ce1a6a192c4c15d2fd9c4.jpg","date":"2011-07-12","year":2011,"month":7,"lon":7.961572,"lat":61.38365,"tags":"%C3%B8vre+%C3%A5rdal,nor,norway,sogn+og+fjordane","S2CellId":"4674000000000000","result":2948,"accuracy":0.09975535,"title":"IMG_1075"}
{"id":5110483010,"url":"http://farm2.staticflickr.com/1213/5110483010_b0731d2ec1.jpg","path":"961/b51/961b514daf8a1e1158edaeb8d9d1b.jpg","date":"2010-10-24","year":2010,"month":10,"lon":7.085108,"lat":61.23164,"tags":"rune%C2%A9sj%C3%B8berg,sn%C3%B8m%C3%A5king","S2CellId":"4799400000000000","result":3776,"accuracy":0.018912813,"title":"Sn%C3%B8m%C3%A5king+24.10.10+05"}
{"id":3689614686,"url":"http://farm4.staticflickr.com/3592/3689614686_0e3f98ee9f.jpg","path":"ccd/a84/ccda84eb32e19df0b8bf80ec7f883a7e.jpg","date":"2009-06-18","year":2009,"month":6,"lon":6.691116,"lat":60.838955,"tags":"norway,norwegen,stalheim","S2CellId":"463f000000000000","result":2783,"accuracy":0.38836077,"title":"0906_Kreuzfahrt_Norwegen_0309","description":"Blick+von+Hotel+in+Stalheim"}
{"id":9295607692,"url":"http://farm8.staticflickr.com/7295/9295607692_54d416d0bf.jpg","path":"1fd/ba9/1fdba910efaf867ac13d4c539afdef3e.jpg","date":"2013-06-09","year":2013,"month":6,"lon":7.431111,"lat":61.103542,"tags":"noorwegen","S2CellId":"46f9000000000000","result":3115,"accuracy":0.0122281145,"title":"Driekleurigviooltje"}
{"id":480644122,"url":"http://farm1.staticflickr.com/193/480644122_3bfdea20e1.jpg","path":"d2b/96c/d2b96c9f83bcb38c5b3b29e98bcf.jpg","date":"2007-05-02","year":2007,"month":5,"lon":7.734375,"lat":60.84491,"tags":"bogdanowicz,nature,norway,piotr","S2CellId":"4889300000000000","result":5756,"accuracy":0.18997197,"title":"My+Favorite+%235"}
{"id":4844595800,"url":"http://farm5.staticflickr.com/4150/4844595800_dc95571232.jpg","path":"97c/e8b/97ce8bed9120e595703ea95f8c785386.jpg","date":"2010-06-09","year":2010,"month":6,"lon":7.185402,"lat":62.111973,"tags":"geiranger,moere+og+romsdal,nor,norway,poladroid","S2CellId":"4785500000000000","result":3566,"accuracy":0.07443932,"title":"aida_1006_001","description":"Blick+auf+die+Adlerkehre+im+Geirangerjford"}
{"id":5962696327,"url":"http://farm7.staticflickr.com/6143/5962696327_aeeaba420e.jpg","path":"5eb/12a/5eb12ae1fd21e178291d48fd12cd2bc.jpg","date":"2011-07-14","year":2011,"month":7,"lon":8.493804,"lat":62.744762,"tags":"hildelarswedding,norway","S2CellId":"9611000000000000","result":9864,"accuracy":0.029653957,"title":"Fjord+BBQ"}
{"id":3464817021,"url":"http://farm4.staticflickr.com/3566/3464817021_a9dd3b9d89.jpg","path":"6fb/5da/6fb5da8e7a424f461626eeb71a91725.jpg","date":"2008-07-24","year":2008,"month":7,"lon":6.115093,"lat":60.09498,"tags":"%C3%A6nes,mauranger,mountains,norway,river,stream,travel","S2CellId":"4615000000000000","result":2764,"accuracy":0.18587653,"title":"%C3%86nes+river"}
{"id":4862971461,"url":"http://farm5.staticflickr.com/4114/4862971461_5a73fda30d.jpg","path":"4a9/0b9/4a90b98c5d6d8fa175bd8cfdf89c87.jpg","date":"2010-08-05","year":2010,"month":8,"lon":6.300166,"lat":60.627335,"tags":"fjords,landscape,norge,noruega,norway,water","S2CellId":"4617000000000000","result":2765,"accuracy":0.39143398,"title":"Noruega+%2F+Voss"}
{"id":5064605900,"url":"http://farm5.staticflickr.com/4105/5064605900_ed73192f04.jpg","path":"81a/c92/81ac924af26fbd1563e96e6f204b161.jpg","date":"2010-06-29","year":2010,"month":6,"lon":7.336206,"lat":62.188057,"tags":"geiranger,herdal+farm,norway","S2CellId":"463f000000000000","result":2783,"accuracy":0.503644,"title":"Farm+Falls"}
{"id":2711242370,"url":"http://farm4.staticflickr.com/3067/2711242370_fecbfd7eb8.jpg","path":"5a4/1b6/5a41b6ca6b88cd851b7aea8262289ea4.jpg","date":"2008-07-17","year":2008,"month":7,"lon":7.179908,"lat":62.272354,"tags":"norway","S2CellId":"463f000000000000","result":2783,"accuracy":0.18687315,"title":"PICT3207","description":"Eisdalen-Linge+ferry++on+N63+from++trip+to+Norway+in+2008"}
{"id":204606584,"url":"http://farm1.staticflickr.com/71/204606584_fc9b9fb613.jpg","path":"8ec/5dc/8ec5dcf06a9e03e5c9d7be3762be33e.jpg","date":"2006-03-16","year":2006,"month":3,"lon":6.984558,"lat":60.966652,"tags":"norway","S2CellId":"463f000000000000","result":2783,"accuracy":0.23209454,"title":"DSC00765"}
{"id":3712366326,"url":"http://farm3.staticflickr.com/2539/3712366326_4b4d4f5caf.jpg","path":"c27/571/c27571e4511f4381ec1dab6a1bcb6882.jpg","date":"2009-06-25","year":2009,"month":6,"lon":7.269377,"lat":62.048885,"tags":"geiranger,norway,norwegen,panorama","S2CellId":"5370c00000000000","result":6047,"accuracy":0.038018964,"title":"0906_Kreuzfahrt_Norwegen_1547"}
{"id":8015306407,"url":"http://farm9.staticflickr.com/8313/8015306407_21f96416d0.jpg","path":"734/763/7347632d25249ae4341e6b8a37263ee.jpg","date":"2012-09-23","year":2012,"month":9,"lon":6.36251,"lat":62.435226,"tags":"%C3%A6ple,%D1%8F%D0%B1%D0%BB%D0%BE%D0%BA%D0%BE,%E0%A4%B8%E0%A5%87%E0%A4%AC,%E3%83%AA%E3%83%B3%E3%82%B4,%E8%8B%B9%E6%9E%9C,%E8%98%8B%E6%9E%9C,%EC%82%AC%EA%B3%BC,apel,apfel,appl,apple,elma,eple,garden,mansanas,manzana,mela,norwegian,omena","S2CellId":"80e9500000000000","result":7405,"accuracy":0.0059041604,"title":"Apple%2C+eple%2C+mela%2C+appl%2C+%C3%A6ple%2C+omena%2C+%E8%8B%B9%E6%9E%9C%2C+%E8%98%8B%E6%9E%9C%2C+mansanas%2C+Apfel%2C+%E0%A4%B8%E0%A5%87%E0%A4%AC%2C+apel%2C+%E3%83%AA%E3%83%B3%E3%82%B4%2C+%EC%82%AC%EA%B3%BC%2C+%D1%8F%D0%B1%D0%BB%D0%BE%D0%BA%D0%BE%2C+manzana%2C+elma%2C+%D8%B3%DB%8C%D8%A8%D8%B3%DB%8C%D8%A8","description":"Prince+apple+from+my+norwegian+garden+2012"}
{"id":8150698203,"url":"http://farm9.staticflickr.com/8196/8150698203_7a2a1658d8.jpg","path":"f93/e67/f93e671ab1eefcf7921e7d20a581e0.jpg","date":"2012-11-03","year":2012,"month":11,"lon":7.210721,"lat":62.097378,"tags":"speiderting","S2CellId":"882b34cc00000000","result":8250,"accuracy":0.02411802,"title":"Hvem+stemmer+n%C3%A5","description":"Vi+ser+ikke+dette+i+ordentlige+avstemminger"}
{"id":8191514681,"url":"http://farm9.staticflickr.com/8061/8191514681_ba861a1502.jpg","path":"fa9/8ce/fa98ce66cdb643d2a15c62425502cbc.jpg","date":"2010-07-12","year":2010,"month":7,"lon":7.190022,"lat":60.907047,"tags":"blue,canon,clouds,eos,fall,fjord,flower,flowers,forest,green,insect,landscape,leaves,macro,mountains,nature,norway,sea,sky,sun,sunset,tree,trees,water","S2CellId":"bda4000000000000","result":9962,"accuracy":0.08289368,"title":"Aurlandsfjellet"}
{"id":31775118,"url":"http://farm1.staticflickr.com/21/31775118_96898e258e.jpg","path":"994/9aa/9949aa26cc8af614dd612f27a84eea8.jpg","date":"2005-07-30","year":2005,"month":7,"lon":8.567962,"lat":60.870533,"tags":"fla,hallingdal,norway","S2CellId":"45d4000000000000","result":2755,"accuracy":0.153987,"title":"Noorwegen-Zweden+20050168","description":"Fla+in+Hallingdal+Norway.+Vassfaret+Bjornepark"}
{"id":5755399857,"url":"http://farm3.staticflickr.com/2328/5755399857_faea76a80a.jpg","path":"194/1f4/1941f4901387b922c3266c84f65de2ef.jpg","date":"2009-07-30","year":2009,"month":7,"lon":8.813438,"lat":61.493954,"tags":"gjende,gjendesheim,jotunheimen","S2CellId":"4615000000000000","result":2764,"accuracy":0.2405738,"title":"Gjendesheim+evening","description":"If+you+can+count+22%3A20+as+evening.+Looking+along+Lake+Gjende+toward+Memurubu+%28centre+distance%29+from+Gjendesheim"}
{"id":4916380357,"url":"http://farm5.staticflickr.com/4078/4916380357_0f885ef4c7.jpg","path":"9ff/779/9ff7795edeaa8ead7447ff552d05d4b.jpg","date":"2010-07-27","year":2010,"month":7,"lon":7.200679,"lat":60.918835,"tags":"aurland,aurlandsfjord,b%26w,byn,fiordo,fiordos,fjord,kinos,marcos+suarez,noruega,norway,sognefjord","S2CellId":"54c7000000000000","result":6307,"accuracy":0.08080441,"title":"Aurlandsfjorden","description":"Atardecer+en+el+fiordo+de+Aurland+%28Noruega%29"}
{"id":4947991461,"url":"http://farm5.staticflickr.com/4091/4947991461_1c05de902b.jpg","path":"6d3/db7/6d3db780c48796978d2bf3cdd531e1e.jpg","date":"2010-08-27","year":2010,"month":8,"lon":6.210159,"lat":61.12864,"tags":"noruega","S2CellId":"463f000000000000","result":2783,"accuracy":0.28741997,"title":"Puerto"}
{"id":5862240567,"url":"http://farm6.staticflickr.com/5030/5862240567_d277451134.jpg","path":"8c4/46d/8c446da5158e909682c9b95b9b7a5d.jpg","date":"2011-06-11","year":2011,"month":6,"lon":7.6655,"lat":62.838333,"tags":"norway","S2CellId":"4615000000000000","result":2764,"accuracy":0.16473863,"title":"%E7%B2%BE%E9%9D%88%E4%B9%8B%E8%B7%AF"}
{"id":5982494824,"url":"http://farm7.staticflickr.com/6144/5982494824_1f51340406.jpg","path":"a2a/4fc/a2a4fc8a6b5c912a2fd7997d8430f84d.jpg","date":"2010-07-20","year":2010,"month":7,"lon":7.101974,"lat":60.79796,"tags":"flam,flambana,myrdal,norv%C3%A8ge,norway","S2CellId":"463f000000000000","result":2783,"accuracy":0.19393726,"title":"Embouteillage","description":"Vous+pouvez+zoomer+sur+la+ch%C3%A8vre+qui+pr%C3%A9sente+son+post%C3%A9rieur.+Ou+pas."}
{"id":9460012289,"url":"http://farm4.staticflickr.com/3776/9460012289_4dbba53f34.jpg","path":"f26/8e8/f268e87d1e213ef0d596e03c1fa7a4b6.jpg","date":"2013-07-17","year":2013,"month":7,"lon":6.848087,"lat":60.19283,"tags":"hardangervidda,norge,norway,snow","S2CellId":"4ec0000000000000","result":5959,"accuracy":0.040518764,"title":"Vattagilsl%C3%B8kene"}
{"id":5042241560,"url":"http://farm5.staticflickr.com/4090/5042241560_68003e0e96.jpg","path":"ad8/cc9/ad8cc97e2627a6ebd5b4d2368e8386d.jpg","date":"2008-06-01","year":2008,"month":6,"lon":7.191925,"lat":62.106453,"tags":"bergen,fjord,hurtigruten,jun2008,norway","S2CellId":"463f000000000000","result":2783,"accuracy":0.41392106,"title":"summer+waterfall","description":"Bergen+Norway+-+juny+2008"}
{"id":651478101,"url":"http://farm2.staticflickr.com/1124/651478101_fa4c8bcf8c.jpg","path":"cce/0e8/cce0e8188446f66ccdb4cd39a4fe44f0.jpg","date":"2007-06-15","year":2007,"month":6,"lon":6.376361,"lat":60.621178,"tags":"norge,norv%C3%A8ge,noway,voss","S2CellId":"463f000000000000","result":2783,"accuracy":0.50716907,"title":"2007-06-15","description":"Lac+de+Voss"}
{"id":1393494744,"url":"http://farm2.staticflickr.com/1350/1393494744_37f200bc91.jpg","path":"f64/dad/f64dad631051ecfdc811d4be592aaa6.jpg","date":"2007-09-13","year":2007,"month":9,"lon":6.402454,"lat":60.353027,"tags":"near+herand,norway","S2CellId":"488e400000000000","result":5768,"accuracy":0.057651445,"title":"Near+Herand"}
{"id":7469805220,"url":"http://farm9.staticflickr.com/8019/7469805220_4c56fbdac4.jpg","path":"2e1/526/2e15263e2be2faf9607342dc8dfd58ec.jpg","date":"2012-06-06","year":2012,"month":6,"lon":6.809721,"lat":61.84323,"tags":"dmc-lx5,lx5,norway,olden,panasonic","S2CellId":"4617000000000000","result":2765,"accuracy":0.30050892,"title":"P1010949"}
{"id":944649324,"url":"http://farm2.staticflickr.com/1357/944649324_6230c5d62e.jpg","path":"e0a/773/e0a77343207e27c0acab1eb2b754c9.jpg","date":"2007-07-30","year":2007,"month":7,"lon":8.382868,"lat":61.74717,"tags":"eiriksofav,hdr,norway,r%C3%B8isheim,stabbur","S2CellId":"463f000000000000","result":2783,"accuracy":0.29162773,"title":"Roisheim+HDR+2","description":"From+the+R%C3%B8isheim+hotel+in+B%C3%B8verdalen%2C+Norway.+A+truly+fantastic+place."}
{"id":1438979285,"url":"http://farm2.staticflickr.com/1195/1438979285_01edc0b515.jpg","path":"77a/bf2/77abf2399aad783aeabec3313ff5ff.jpg","date":"2007-08-21","year":2007,"month":8,"lon":8.53054,"lat":61.501408,"tags":"hiking,jotunheimen,landscape,mountains,muru,norge,norway,norwegen,river,scandinavia,trekking","S2CellId":"4615000000000000","result":2764,"accuracy":0.25350127,"title":"Muru"}
{"id":4392148012,"url":"http://farm3.staticflickr.com/2804/4392148012_6384b745ba.jpg","path":"a37/a78/a37a78fece532c5ddfcfe49d620c5.jpg","date":"2010-02-13","year":2010,"month":2,"lon":6.719512,"lat":60.376198,"tags":"boat,eidfjord,fjord+norway,lofthus","S2CellId":"4617000000000000","result":2765,"accuracy":0.12170598,"title":"DSCN5920"}
{"id":245550570,"url":"http://farm1.staticflickr.com/94/245550570_cd3cd767a6.jpg","path":"338/11c/33811c316ab128b38d4937dddc9a959.jpg","date":"2006-09-17","year":2006,"month":9,"lon":6.071834,"lat":62.10115,"tags":"3ex,hdr,lauvstad,rainbow,volda","S2CellId":"4785500000000000","result":3566,"accuracy":0.20027333,"title":"Rainbow"}
{"id":3189574314,"url":"http://farm4.staticflickr.com/3486/3189574314_95571cd0aa.jpg","path":"378/0f1/3780f17ba910232e4ebbaedb533146e.jpg","date":"2008-08-07","year":2008,"month":8,"lon":7.113132,"lat":61.230106,"tags":"fjord,fjordane,lomumo,norge,noruega,norway,skjolden,sogn,sognefjord,sognefjorden","S2CellId":"463f000000000000","result":2783,"accuracy":0.4021268,"title":"Sognefjord+16"}
{"id":3711534059,"url":"http://farm3.staticflickr.com/2563/3711534059_e76d4f3b4e.jpg","path":"91c/93e/91c93e3529312facf33aceafa0656f48.jpg","date":"2009-06-25","year":2009,"month":6,"lon":7.267799,"lat":62.03932,"tags":"geiranger,norway,norwegen,panorama","S2CellId":"4ec0000000000000","result":5959,"accuracy":0.055249367,"title":"0906_Kreuzfahrt_Norwegen_1522","description":"Rentiere"}
{"id":5102317979,"url":"http://farm5.staticflickr.com/4110/5102317979_7d2954ff73.jpg","path":"afd/852/afd852838b6f5a9cc22cdbf43f169135.jpg","date":"2010-10-20","year":2010,"month":10,"lon":7.085108,"lat":61.23164,"tags":"opprykksfest2010,rune%C2%A9sj%C3%B8berg","S2CellId":"46f5000000000000","result":3113,"accuracy":0.010296665,"title":"Opprykksfest+20.10.10+42","description":"Harald+Aabrekk+holder+tale+p%C3%A5+Sogndal+Hotell.+Dag+Martin+Fardal%2C+H%C3%A5vard+Flo"}
{"id":5165017193,"url":"http://farm5.staticflickr.com/4092/5165017193_5cd8f2cce3.jpg","path":"ee9/12c/ee912c23b0f41921caf2dd95ebf23b36.jpg","date":"2010-05-11","year":2010,"month":5,"lon":6.920652,"lat":60.93762,"tags":"berge,cliffs,fjord,fjord+tour,gudvangen,klippen,mountains,n%C3%A6r%C3%B8yfjord,nor,norway,norwegen,sogn+og+fjordane,sognefjord,unesco,village,world+heritage","S2CellId":"463f000000000000","result":2783,"accuracy":0.61017364,"title":"Dangerous+Curves","description":"Fjordtour%0A%3Ca+href%3D%22http%3A%2F%2Fde.wikipedia.org%2Fwiki%2FN%25c3%25a6r%25c3%25b8yfjord%22+rel%3D%22nofollow%22%3EN%C3%A6r%C3%B8yfjord%3C%2Fa%3E%2C+Aurland%2C+Norway"}
{"id":3689214253,"url":"http://farm3.staticflickr.com/2603/3689214253_3c1ba2483a.jpg","path":"946/c37/946c379c376a6e6d654bae85d2c2bc1.jpg","date":"2009-06-19","year":2009,"month":6,"lon":7.759944,"lat":62.48899,"tags":"andalsnes,berg,gebirge,mountain,norway,norwegen,trollveccen,trollwand","S2CellId":"4771400000000000","result":3386,"accuracy":0.03172918,"title":"0906_Kreuzfahrt_Norwegen_0429","description":"Trollwand+bei+Andalsnes"}
{"id":358152519,"url":"http://farm1.staticflickr.com/140/358152519_b10f1fd2c4.jpg","path":"fdc/866/fdc866d489eddb20bf6a195ba3d4e54.jpg","date":"2007-01-13","year":2007,"month":1,"lon":8.552856,"lat":60.862595,"tags":"+after+ski,+norway,+party,hemsedal","S2CellId":"5490151000000000","result":6184,"accuracy":0.005180305,"title":"J%C3%A4germeister+2"}
{"id":4905077236,"url":"http://farm5.staticflickr.com/4119/4905077236_fb24323236.jpg","path":"ea1/7f6/ea17f68b58d3ed63495ec9737e4d4fe5.jpg","date":"2010-08-14","year":2010,"month":8,"lon":8.717651,"lat":61.50206,"tags":"jotunheimen","S2CellId":"4615000000000000","result":2764,"accuracy":0.07172381,"title":"DSC_0245"}
{"id":8423926289,"url":"http://farm9.staticflickr.com/8495/8423926289_3691beeecb.jpg","path":"3cd/aa9/3cdaa92e9e51381493097b8391a9047.jpg","date":"2011-02-01","year":2011,"month":2,"lon":6.480817,"lat":61.735348,"tags":"byrkjelo,hendelse,mailbox,red,skyer,sn%C3%B8,snow,sol,steder,v%C3%A6r,winter","S2CellId":"463f000000000000","result":2783,"accuracy":0.054799963,"title":"The+red+mailbox+stand."}
{"id":4954874834,"url":"http://farm5.staticflickr.com/4154/4954874834_329c7e18cc.jpg","path":"dbd/683/dbd68338c5a49e56126d2da04ea099.jpg","date":"2010-08-24","year":2010,"month":8,"lon":7.684772,"lat":60.418694,"tags":"%D0%BD%D0%BE%D1%80%D0%B2%D0%B5%D0%B3%D0%B8%D1%8F,%E3%83%8E%E3%83%AB%E3%82%A6%E3%82%A7%E3%83%BC,%E6%8C%AA%E5%A8%81,europe,fagerheim,finse,hordaland,house,nature,noorwegen,nor,norge,norja,norra,noruega,norv%C3%A8ge,norvegia,norway,norwegen","S2CellId":"45cc000000000000","result":2754,"accuracy":0.3561378,"title":"Halne+Fjellstova","description":"%3Ca+href%3D%22http%3A%2F%2Fwww.halne.no%2F%22+rel%3D%22nofollow%22%3EHalne+Fjellstova%3C%2Fa%3E.%0AHardangervidda%2C+5785+V%C3%B8ringfoss%2C+Norway%2C+2010."}
{"id":5064667280,"url":"http://farm5.staticflickr.com/4130/5064667280_fd255e8f56.jpg","path":"7bd/da0/7bdda05b583cfadc9f27822d12cf97.jpg","date":"2010-10-04","year":2010,"month":10,"lon":7.216772,"lat":62.10099,"tags":"farm,fjord,geiranger,geirangerfjord,norway,sheep,unesco,vester%C3%A5s+gard,world+heritage+site","S2CellId":"4889300000000000","result":5756,"accuracy":0.2529479,"title":"Vester%C3%A5s+gard"}
{"id":4916163801,"url":"http://farm5.staticflickr.com/4093/4916163801_5fb211c789.jpg","path":"fbb/6df/fbb6dfcaa72f692c642252f08494533e.jpg","date":"2010-07-30","year":2010,"month":7,"lon":6.911945,"lat":61.851532,"tags":"b%26w,byn,flickr,innvikfjorden,kinos,lago+loen,loen,lovatnet,marcos+suarez,nordfjord,noruega,norway,pano,panoramica,stryn,stryn+komunne","S2CellId":"536c000000000000","result":6045,"accuracy":0.1746968,"title":"Lago+Loen"}
{"id":448637826,"url":"http://farm1.staticflickr.com/172/448637826_186b1ad45b.jpg","path":"89f/0ea/89f0ea74b65ded5343a6768d046e951.jpg","date":"2007-04-06","year":2007,"month":4,"lon":8.898496,"lat":60.42152,"tags":"animal+park,animals,langedrag,sheep,zoo","S2CellId":"1e95700000000000","result":1473,"accuracy":0.03622962,"title":"Sheep","description":"Pictures+from+%3Ca+href%3D%22http%3A%2F%2Fwww.langedrag.no%2F%22%3EEKT+Langedrag%3C%2Fa%3E"}
{"id":6201835759,"url":"http://farm7.staticflickr.com/6168/6201835759_9590962b65.jpg","path":"9ed/56e/9ed56e1a7a5bf95ff1eb3ba879010cc.jpg","date":"2011-07-05","year":2011,"month":7,"lon":6.89289,"lat":62.628796,"tags":"fjord,m%C3%B8re+og+romsdal,norge,norway,norwegen,randoms,tomrefjorden","S2CellId":"4617000000000000","result":2765,"accuracy":0.06026113,"title":".+.+."}
{"id":2515013212,"url":"http://farm4.staticflickr.com/3037/2515013212_6be5c55fa0.jpg","path":"df6/727/df67273ad4b26b89c902ddb9fa1c129.jpg","date":"2008-05-22","year":2008,"month":5,"lon":7.173557,"lat":60.923676,"tags":"fl%C3%A5m,noruega,sognefjorf,undredal","S2CellId":"4771400000000000","result":3386,"accuracy":0.531548,"title":"Noruega+-+Aurlandsfjorden","description":"Una+vez+de+vuelta+a+Fl%C3%A5m+con+el+Fl%C3%A5msbana+y+en+cuesti%C3%B3n+de+unos+pocos+minutos%2C+es+posible+coger+un+peque%C3%B1o+barco+que+se+adentra+en+el+Aurlandsfjorden."}
{"id":3179878570,"url":"http://farm4.staticflickr.com/3346/3179878570_ef91f6f44d.jpg","path":"619/925/6199252478e1a0b1e1e4cade9d32f.jpg","date":"2009-01-06","year":2009,"month":1,"lon":6.151362,"lat":62.471226,"tags":"%C3%A5lesund,january,snow,swans,winter","S2CellId":"89e3709c00000000","result":9318,"accuracy":0.025040843,"title":"DSC00243","description":"Swans+in+January"}
{"id":3712396224,"url":"http://farm4.staticflickr.com/3483/3712396224_b76034ac67.jpg","path":"92a/511/92a511ab9acd540f1977e13cc52f0a.jpg","date":"2009-06-25","year":2009,"month":6,"lon":7.276872,"lat":62.030697,"tags":"geiranger,norway,norwegen","S2CellId":"12b5ec0000000000","result":810,"accuracy":0.12340041,"title":"0906_Kreuzfahrt_Norwegen_1568"}
{"id":217748101,"url":"http://farm1.staticflickr.com/59/217748101_1882d0f8c3.jpg","path":"128/125/12812571ee5a41ee39c7a4f01d4c1e58.jpg","date":"2006-08-15","year":2006,"month":8,"lon":6.177749,"lat":62.47368,"tags":"noruega,norway","S2CellId":"4617000000000000","result":2765,"accuracy":0.7771288,"title":"%C3%85lesund+de+noche"}
{"id":9687986936,"url":"http://farm3.staticflickr.com/2883/9687986936_445f8cf062.jpg","path":"66e/c1b/66ec1b27c750e1f25a6555d7d7a05b.jpg","date":"2013-09-05","year":2013,"month":9,"lon":8.303904,"lat":60.6153,"tags":"2013,50,autumn,hagafoss,herfst,hol,holsfjorden,hovsfjorden,kommune,noorwegen,norway,road+to+aurland,september","S2CellId":"4709cd0000000000","result":3137,"accuracy":0.06790787,"title":"Biking+between+Hovet%2C+Hol+and+Hagafoss%2C+Norway+%2F+Flower+in+front+of+the+%22Hol+Sparebank%22","description":"September+5%2C+2013%0AAn+extremely+beautiful+sunny+day...%2C+taking+you+with+me+on+a+bike+tour.%0A%0AEen+uitzonderlijk+mooie+zonnige+dag......%2C+waarbij+ik+je+meeneem+met+een+fietstocht+%28langs+Hol+-spreek+uit%3A+Hoel-+en+Hagafoss%29"}
{"id":6100451644,"url":"http://farm7.staticflickr.com/6185/6100451644_4b01928e03.jpg","path":"e09/230/e09230e39b418c642468132d1d7d933.jpg","date":"2011-08-20","year":2011,"month":8,"lon":8.663063,"lat":61.549038,"tags":"jotunheimen","S2CellId":"4889300000000000","result":5756,"accuracy":0.09172928,"title":"Sandy+beaches+of+Norway"}
{"id":2149490970,"url":"http://farm3.staticflickr.com/2082/2149490970_32154ba02f.jpg","path":"294/3b5/2943b589eb7443d9aa75f8a1a18fdf1f.jpg","date":"2007-12-30","year":2007,"month":12,"lon":6.702604,"lat":60.57204,"tags":"%C3%B8vre+vassenden,granvin,granvinsvatnet,landscape,reflection","S2CellId":"463f000000000000","result":2783,"accuracy":0.22067057,"title":"%C3%98vre+Vassenden-6"}
{"id":5170350524,"url":"http://farm2.staticflickr.com/1223/5170350524_ab3b8fe431.jpg","path":"394/d8c/394d8cce1ffe74c212da3d4ff587caf.jpg","date":"2010-08-15","year":2010,"month":8,"lon":6.567077,"lat":60.44943,"tags":"hardangervidda,norwegen,norwegen2010","S2CellId":"463f000000000000","result":2783,"accuracy":0.07655805,"title":"Blick+auf+die+Hardangervidda"}
{"id":257244027,"url":"http://farm1.staticflickr.com/85/257244027_8219d25741.jpg","path":"a96/1ad/a961ada939a75fb1b089fccc2d7c169.jpg","date":"2006-09-16","year":2006,"month":9,"lon":8.779449,"lat":61.378304,"tags":"norge,norway,norwegen,wikingerpfeil","S2CellId":"486ab00000000000","result":4916,"accuracy":0.022253064,"title":"Norge+-+Sept.+2006+-+Jotunheimen+-+Raslet+-+Pfeil+-+Pil","description":"Norge+-+Sept.+2006+-+Jotunheimen+-+Raslet+-+Pfeil+-+Pil"}
{"id":7378951988,"url":"http://farm8.staticflickr.com/7092/7378951988_7f09c6dba6.jpg","path":"1e8/e77/1e8e77b5c572b61a84f53862ee6e20.jpg","date":"2012-06-10","year":2012,"month":6,"lon":6.14582,"lat":60.372463,"tags":"hardangerfjord,mountains,nordheimsund,norge,norway,norwegian,norwegian+scenery,scenery","S2CellId":"961c000000000000","result":9868,"accuracy":0.07709118,"title":"Hardangerfjord","description":"Taken+from+the+beach+in+Nordheimsund%2C+Norway"}
{"id":4550833932,"url":"http://farm5.staticflickr.com/4049/4550833932_455878d9b7.jpg","path":"64a/1d2/64a1d2f6a0166b5b6a68101fe09018f.jpg","date":"2010-04-24","year":2010,"month":4,"lon":6.722222,"lat":60.842777,"tags":"animals,deer,domestic,driving,fjords,flock,nature,norway,red+deer,road,sight,surprising,wild","S2CellId":"5370c00000000000","result":6047,"accuracy":0.03731804,"title":"Flock+of+ten+red+deer+by+the+road","description":"A+flock+of+ten+red+deer+%28hjort%29+was+grazing+by+the+road+from+Voss+to+Gudvangen.+They+acted+almost+as+tame+as+a+flock+of+sheep.%0A%0AI+stepped+out+of+the+car%2C+took+photos%2C+waved+to+cars+to+slow+down%2C+tehy+started+running+to+another+part+of+the+field%2C+I+started+filming%2C+but+all+in+all+they+acted+as+if+they+were+almost+domesticated."}
{"id":5064033393,"url":"http://farm5.staticflickr.com/4113/5064033393_ccb8c3d37f.jpg","path":"582/633/58263328d1c9b8b3b4462268fe06bc9.jpg","date":"2010-10-03","year":2010,"month":10,"lon":6.148825,"lat":62.470116,"tags":"%C3%A5lesund,norway","S2CellId":"4611000000000000","result":2762,"accuracy":0.08362495,"title":"%C3%85lesund"}
{"id":2860151989,"url":"http://farm4.staticflickr.com/3208/2860151989_f281889d43.jpg","path":"e81/cad/e81cadbf7d82fa0241ef2bf48cb6cde.jpg","date":"2008-06-25","year":2008,"month":6,"lon":6.836585,"lat":60.877426,"tags":"clear,day,mountain,norway,norway+in+a+nutshell,scandinavia08,valley","S2CellId":"463f000000000000","result":2783,"accuracy":0.39987016,"title":"Norwegian+Mountain+Valley"}
{"id":4180001114,"url":"http://farm5.staticflickr.com/4046/4180001114_5b4c3e0fb6.jpg","path":"c08/f65/c08f6567a09952a2c6be9865baefe9f6.jpg","date":"2005-07-01","year":2005,"month":7,"lon":7.897796,"lat":61.360867,"tags":"camera,compact,digital,emacp,moss,nature,norway,rock,vacation","S2CellId":"48d1000000000000","result":5787,"accuracy":0.03426926,"title":"rock+%26+moss"}
{"id":3688835019,"url":"http://farm3.staticflickr.com/2484/3688835019_8f411ae5d1.jpg","path":"9e9/155/9e915522e26ef9dad539e96ab25b287f.jpg","date":"2009-06-18","year":2009,"month":6,"lon":6.843744,"lat":60.87954,"tags":"norway,norwegen,viking,waterfall,wikinger","S2CellId":"463f000000000000","result":2783,"accuracy":0.53396404,"title":"0906_Kreuzfahrt_Norwegen_0352","description":"Nachbau+von+Wikinger-Geb%C3%A4uden"}
{"id":9684166223,"url":"http://farm6.staticflickr.com/5483/9684166223_4fa20f4f94.jpg","path":"80f/3da/80f3da18f34aca18bdd6427746ad48a4.jpg","date":"2013-09-04","year":2013,"month":9,"lon":8.566246,"lat":60.625217,"tags":"%C3%A5l,2013,bloembakken,bloemen,colours,dahlias,flowerpots,flowers,kleuren,licht,norway,railway+station,september+4,sunlight,treinstation","S2CellId":"89c2f34000000000","result":9103,"accuracy":0.008289606,"title":"Flowers+%28Railway+Station+%C3%85l%2C+Norway%29","description":"September+4%2C+2013%0ASurprising+Beauties+at+Railway+Station+%C3%85l%2C+Norway.....+The+latest+rays+of+sun+made+them+shine+in+a+special+way.+%0AVerrassendebloemenpracht+op+treinstation+%C3%85l%2C+Noorwegen%2C+De+zomerperiode+duurt+hier+kort+maar+men+maakt+er+dan+ook+een+werkelijke+pracht+van%2C+in+die+vele+bloembakken+die+je+overal+tegenkomt+hier.+%28In+%C3%85l%29"}
{"id":6466662307,"url":"http://farm8.staticflickr.com/7159/6466662307_c7d3895bf8.jpg","path":"679/de5/679de5bcbd7bab7cdd78257d2a0504.jpg","date":"2011-07-07","year":2011,"month":7,"lon":7.502988,"lat":60.60228,"tags":"finse,hordaland,norway","S2CellId":"463f000000000000","result":2783,"accuracy":0.064129174,"title":"Rail+bike","description":"Road+bike%2C+mountain+bike+or+rail+bike%3B+the+choice+is+yours."}
{"id":227499746,"url":"http://farm1.staticflickr.com/93/227499746_28345d689f.jpg","path":"d9e/6b2/d9e6b2ae55eedb40e8166de66a6e95.jpg","date":"2006-08-28","year":2006,"month":8,"lon":7.316894,"lat":60.28341,"tags":"bergen,norway,norwegen","S2CellId":"0d56c00000000000","result":472,"accuracy":0.011022837,"title":"9312"}
{"id":6333848799,"url":"http://farm7.staticflickr.com/6110/6333848799_03cef4c7d7.jpg","path":"9d4/bea/9d4bea821f1f602ea99c2fb86032fc.jpg","date":"2011-07-16","year":2011,"month":7,"lon":6.086339,"lat":61.854733,"tags":"nordfjord,noreg,norge,norway,norwegen,sogn+og+fjordane","S2CellId":"540c000000000000","result":6092,"accuracy":0.1966506,"title":"nor_2011_304","description":"Nordfjord"}
{"id":7243087130,"url":"http://farm8.staticflickr.com/7100/7243087130_70c4fc9191.jpg","path":"13b/e1a/13be1a8ca7126516c779c9dffd5323.jpg","date":"2012-05-20","year":2012,"month":5,"lon":7.085277,"lat":61.219166,"tags":"barn,cabin,chimney,hiking,sogndal,stedje%C3%A5sen","S2CellId":"463f000000000000","result":2783,"accuracy":0.02614242,"title":"Barncabin"}
{"id":7716449206,"url":"http://farm9.staticflickr.com/8424/7716449206_2b79de1d19.jpg","path":"71e/43d/71e43dd5455ac458cc60edd28e466fee.jpg","date":"2012-07-16","year":2012,"month":7,"lon":6.895465,"lat":60.48573,"tags":"ferge,ferry,noorwegen,norge,norway,veerpond","S2CellId":"4617000000000000","result":2765,"accuracy":0.16154762,"title":"Ferge"}
{"id":4840770448,"url":"http://farm5.staticflickr.com/4129/4840770448_ec5c7ddae8.jpg","path":"208/383/208383c0d4b7fd2ae7c563d51e517e2d.jpg","date":"2010-07-08","year":2010,"month":7,"lon":7.353973,"lat":60.933517,"tags":"no2010","S2CellId":"464b400000000000","result":2815,"accuracy":0.011642163,"title":"Lichen+II"}
{"id":4538616165,"url":"http://farm3.staticflickr.com/2740/4538616165_2b772a76cb.jpg","path":"a4b/c9e/a4bc9e44d9e1558b94efec9b3b318ae8.jpg","date":"2009-09-26","year":2009,"month":9,"lon":8.682975,"lat":61.45157,"tags":"h%C3%B8gdebrotet","S2CellId":"48d6c00000000000","result":5813,"accuracy":0.09889909,"title":"H%C3%B8gdebrotet"}
{"id":5650832096,"url":"http://farm6.staticflickr.com/5066/5650832096_2a92d68e23.jpg","path":"a2a/6a4/a2a6a4e3722ea6658f31489e508b81.jpg","date":"2010-08-17","year":2010,"month":8,"lon":6.911945,"lat":60.56711,"tags":"norwegen,norwegen2010,ulvik,ulvikfjord","S2CellId":"45df000000000000","result":2759,"accuracy":0.026533104,"title":"Blumen+am+Stra%C3%9Fenrand+in+Ulvik"}
{"id":6078969974,"url":"http://farm7.staticflickr.com/6066/6078969974_92184ab257.jpg","path":"a2c/b52/a2cb52a103d46b643c48028de3feb34.jpg","date":"2011-07-12","year":2011,"month":7,"lon":7.22145,"lat":62.094727,"tags":"bateaux+de+crosi%C3%A8re,croisi%C3%A8re,cruise+ships,fjord,fjord+de+geiranger,flydalsjuvet,geiranger,geirangerfjord,geirangerfjorden,kryssning,kryssningsfartyg,m%C3%B8re+og+romsdal,norge,norv%C3%A8ge,norway,norwegencruise","S2CellId":"463f000000000000","result":2783,"accuracy":0.28297126,"title":"2011-07-12","description":"Geiranger.+Vue+sur+le+fjord+depuis+Flydalsjuvet."}
{"id":9719038103,"url":"http://farm8.staticflickr.com/7420/9719038103_5af22c5534.jpg","path":"4af/bf2/4afbf2b645f73adc2c9461a312ed32fb.jpg","date":"2013-08-22","year":2013,"month":8,"lon":8.753013,"lat":61.20473,"tags":"by+christine,norway,norway+trip+2013","S2CellId":"45d9000000000000","result":2756,"accuracy":0.11675363,"title":"P8221082"}
{"id":9824297855,"url":"http://farm4.staticflickr.com/3735/9824297855_678bf85351.jpg","path":"d1f/dd6/d1fdd68a2aa611747d30797493261a.jpg","date":"2013-06-16","year":2013,"month":6,"lon":6.668186,"lat":61.125088,"tags":"kalbakk,mountain+hut,norway,sogn+og+fjordane","S2CellId":"47b4c00000000000","result":4026,"accuracy":0.041543737,"title":"Fjordane-2345"}
{"id":2711163138,"url":"http://farm4.staticflickr.com/3054/2711163138_1ba7e6d7ac.jpg","path":"ba2/1ca/ba21ca6f7ac9db50b4e63203ed71f1f.jpg","date":"2008-07-16","year":2008,"month":7,"lon":6.80912,"lat":61.763824,"tags":"norway","S2CellId":"4617000000000000","result":2765,"accuracy":0.18892004,"title":"PICT3171","description":"Oldevatn+camping+from++trip+to+Norway+in+2008"}
{"id":2757290604,"url":"http://farm4.staticflickr.com/3264/2757290604_1f98647e56.jpg","path":"71c/d32/71cd326be69b903f6b56a4afa0abd79e.jpg","date":"2008-08-07","year":2008,"month":8,"lon":7.285359,"lat":61.65784,"tags":"glacier,mountain,nigardsbreen,norway","S2CellId":"5404000000000000","result":6091,"accuracy":0.18146098,"description":"%3Ca+href%3D%22http%3A%2F%2Fwww.vimeo.com%2F5991766%22+rel%3D%22nofollow%22%3Ewww.vimeo.com%2F5991766%3C%2Fa%3E"}
{"id":5117962215,"url":"http://farm2.staticflickr.com/1262/5117962215_60e4c2aed3.jpg","path":"774/8c8/7748c897b427c7b93a654831527c6a.jpg","date":"2010-10-26","year":2010,"month":10,"lon":7.085108,"lat":61.23164,"tags":"rune%C2%A9sj%C3%B8berg","S2CellId":"47c3e40000000000","result":4235,"accuracy":0.08989765,"title":"Eirik+Bakke+signering+12","description":"Trond+Fylling%2C+Eirik+Bakke"}
{"id":8118894559,"url":"http://farm9.staticflickr.com/8050/8118894559_e19e5f76b1.jpg","path":"32e/377/32e37793f15b5e5e43a1fb35d2a6484.jpg","date":"2012-09-02","year":2012,"month":9,"lon":7.878227,"lat":60.698895,"tags":"hallingdal,hallingskarvet,hovet,nature,norway,strandavatnet,sudndalsfjorden","S2CellId":"463f000000000000","result":2783,"accuracy":0.21717478,"title":"Strandavatnet%2C+Hovet%2C+Norway"}
{"id":8191509659,"url":"http://farm9.staticflickr.com/8062/8191509659_c694bac6de.jpg","path":"2e4/73a/2e473a59fc5765b1dab1207a4b22bbe6.jpg","date":"2010-07-12","year":2010,"month":7,"lon":7.190022,"lat":60.907047,"tags":"blue,canon,clouds,eos,fall,fjord,flower,flowers,forest,green,insect,landscape,leaves,macro,mountains,nature,norway,sea,sky,sun,sunset,tree,trees,water","S2CellId":"4615000000000000","result":2764,"accuracy":0.666857,"title":"Aurlandsfjellet"}
{"id":5744500029,"url":"http://farm4.staticflickr.com/3375/5744500029_1594bc1b07.jpg","path":"8e5/f51/8e5f516a9af49cd513695db5bc9e5d2.jpg","date":"2009-04-12","year":2009,"month":4,"lon":6.605379,"lat":61.99842,"tags":"bakke,child,children,farm,farmer,hornindal,nordfjord,norge,norway,pen,pig,pig+farm,pigs","S2CellId":"47b3100000000000","result":4017,"accuracy":0.06685193,"title":"No+Hands%21"}
{"id":2612606107,"url":"http://farm4.staticflickr.com/3053/2612606107_6a6d4f3745.jpg","path":"f33/361/f33361535e8425bdfcd9631909ae467.jpg","date":"2008-06-20","year":2008,"month":6,"lon":6.9104,"lat":61.93798,"tags":"norway,sking,stryn,summerski","S2CellId":"4615000000000000","result":2764,"accuracy":0.24487133}
{"id":4735341133,"url":"http://farm5.staticflickr.com/4081/4735341133_20fc7f5a68.jpg","path":"4ad/76c/4ad76c7db239fb8620328c4424eafd1.jpg","date":"2010-06-07","year":2010,"month":6,"lon":6.238041,"lat":62.469322,"tags":"alesund,boat,norway","S2CellId":"12c9100000000000","result":838,"accuracy":0.07946066,"title":"Sunnmore+Museum"}
{"id":6021819454,"url":"http://farm7.staticflickr.com/6123/6021819454_6322102d3a.jpg","path":"e54/7bf/e547bf57ecf74c9c14b9bc534378f4d8.jpg","date":"2011-07-20","year":2011,"month":7,"lon":7.213382,"lat":62.094997,"tags":"flowers,nature,trips","S2CellId":"54bf400000000000","result":6299,"accuracy":0.005914507,"title":"the+two"}
{"id":6096450140,"url":"http://farm7.staticflickr.com/6207/6096450140_fb261bd363.jpg","path":"fcc/69f/fcc69f88aeda1a5e6bcec1637a5a229d.jpg","date":"2011-08-18","year":2011,"month":8,"lon":7.9953,"lat":61.503044,"tags":"hike,hiking,jotunheimen,natur,nature,norway,norwegen,remote,wandern,wilderness","S2CellId":"488e400000000000","result":5768,"accuracy":0.08465111,"title":"Over+the+Fannar%C3%A5k+glacier","description":"Jotunheimen+view+from+Fannar%C3%A5ken%2C+Aug%27+11."}
{"id":6195896469,"url":"http://farm7.staticflickr.com/6156/6195896469_1599ece283.jpg","path":"b1f/19c/b1f19cd79e4380e0cd101c5b4a8ad745.jpg","date":"2010-03-08","year":2010,"month":3,"lon":6.638059,"lat":60.584812,"tags":"cascate,norvegia,norway,skjervsfossen,waterfalls","S2CellId":"463f000000000000","result":2783,"accuracy":0.22004305,"title":"Skjervsfossen+Waterfalls+-+Road+13%2C+Norway+-+June+15%2C+1989","description":"Scan+of+an+old+slide."}
{"id":9460068037,"url":"http://farm3.staticflickr.com/2813/9460068037_6547f3eb6c.jpg","path":"889/b7d/889b7dda3123e9ab53a595939aea885.jpg","date":"2013-07-25","year":2013,"month":7,"lon":6.122303,"lat":60.6466,"tags":"norge,norway","S2CellId":"5470000000000000","result":6094,"accuracy":0.10207527,"title":"Vosso"}
{"id":4794044525,"url":"http://farm5.staticflickr.com/4140/4794044525_02bb2cdecf.jpg","path":"b94/f68/b94f68c632e11ae54c4e6d584287b2.jpg","date":"2010-07-01","year":2010,"month":7,"lon":6.979064,"lat":60.96911,"tags":"2010,norway","S2CellId":"463f000000000000","result":2783,"accuracy":0.3291586,"title":"IMG_1880"}
{"id":5121563974,"url":"http://farm2.staticflickr.com/1374/5121563974_83fe8606b3.jpg","path":"7f9/579/7f9579bb847792209b3b6d5d127e702f.jpg","date":"2010-10-20","year":2010,"month":10,"lon":7.085108,"lat":61.23164,"tags":"jubel,m%C3%A5lfeiring,rune%C2%A9sj%C3%B8berg,scoring","S2CellId":"47c3e40000000000","result":4235,"accuracy":0.12782359,"title":"Sogndal+-+Fredrikstad+201029","description":"Henrik+Furebotn%2C+Ole+J%C3%B8rgen+Halvorsen%2C+Per+Egil+Flo%2C+Ulrik+Flo"}
{"id":3678248917,"url":"http://farm3.staticflickr.com/2532/3678248917_d48cd80235.jpg","path":"c57/a6f/c57a6f2c86ffbfa8126055229f2b6a.jpg","date":"2009-05-22","year":2009,"month":5,"lon":7.164974,"lat":60.904064,"tags":"animal,boat,duetos,escandin%C3%A1via,europa,europe,fiorde,fjord,fjordane,flam-gudvangen,flying,gaivota,mel%27s+photos,mel+toledo,meltoledo%27s+photos,meltoledo+flickr,nature,natureza,norge,noruega,norway,norway+in+a+nutshell,og,scandinavia,seagull,sogn,voando,voo","S2CellId":"4ec0000000000000","result":5959,"accuracy":0.27527872,"title":"Norway+in+a+nutshell","description":"Boat+from+Fl%C3%A5m+to+Gudvangen.%0AN%C3%A6r%C3%B8yfjord"}
{"id":9399981093,"url":"http://farm4.staticflickr.com/3773/9399981093_31bc61e4f1.jpg","path":"5db/823/5db8238112e1957dfd227522ca3654d.jpg","date":"2013-07-06","year":2013,"month":7,"lon":6.831888,"lat":61.664867,"tags":"flower,nature,norway,orchid","S2CellId":"4761000000000000","result":3310,"accuracy":0.010379821,"title":"Dactylorhiza+maculata","description":"Heath+Spotted+Orchid+%28Dactylorhiza+maculata%29"}
{"id":3688574345,"url":"http://farm3.staticflickr.com/2629/3688574345_271706a14b.jpg","path":"af3/bda/af3bda25276e83a6b0bc4b1df077bd3a.jpg","date":"2009-06-18","year":2009,"month":6,"lon":7.099047,"lat":60.762703,"tags":"flam,flamsbahn,landscape,norway,norwegen,wasserfall,waterfall","S2CellId":"4615000000000000","result":2764,"accuracy":0.29265156,"title":"0906_Kreuzfahrt_Norwegen_0220","description":"Landschaft%2C+die+man+w%C3%A4hrend+der+Fahrt+mit+der+Flamsbahn+genie%C3%9Fen+kann"}
{"id":6759555921,"url":"http://farm8.staticflickr.com/7166/6759555921_7396c8367f.jpg","path":"74c/11d/74c11dc426a1b6347e5c67289bb5bff2.jpg","date":"2010-12-15","year":2010,"month":12,"lon":6.854524,"lat":61.181225,"tags":"antique+photographs,archives,europe,fjordane,fotobevaring,fotosamling,fotosoga,fylkestinget,gamle+bilder,historic+and+old+photos,historic+image,historic+norge,historic+norway,historiske+fotofotoarkiv,history,leikanger,medlemer,nor,norge,norway,old,old+photography,old+photos,old+pictures,parti,photohistory,politikk,siri-bente+fuhr,sogn,sogn+og+fjordane","S2CellId":"87d8d40000000000","result":8014,"accuracy":0.06803101,"title":"Siri-Bente+Fuhr","description":"Siri-Bente+Fuhr.+Foto%3A+Kristj%C3%A1n+Logason."}
{"id":3189569710,"url":"http://farm4.staticflickr.com/3335/3189569710_b24b07395f.jpg","path":"3ba/a9b/3baa9be3e1d4c1d1401fb05962182a51.jpg","date":"2008-08-07","year":2008,"month":8,"lon":7.113132,"lat":61.230106,"tags":"fjord,fjordane,lomumo,norge,noruega,norway,skjolden,sogn,sognefjord,sognefjorden","S2CellId":"463f000000000000","result":2783,"accuracy":0.45099142,"title":"Sognefjord+05"}
{"id":3895224730,"url":"http://farm3.staticflickr.com/2598/3895224730_20fb952a0f.jpg","path":"355/27b/35527bdf4e79416092d08a36162ae65f.jpg","date":"2008-08-06","year":2008,"month":8,"lon":6.414529,"lat":60.71349,"tags":"norge,norway,waterfall","S2CellId":"463dc00000000000","result":2782,"accuracy":0.33617812,"description":"%3Ca+href%3D%22http%3A%2F%2Fwww.vimeo.com%2F4066389%22+rel%3D%22nofollow%22%3Ewww.vimeo.com%2F4066389%3C%2Fa%3E"}
{"id":1112933738,"url":"http://farm2.staticflickr.com/1394/1112933738_02fd4a2f8f.jpg","path":"a25/e76/a25e76c77df051a21b6aec81b1ffe4a2.jpg","date":"2007-08-06","year":2007,"month":8,"lon":7.112703,"lat":60.94569,"tags":"bergen,d50,norway,norway+in+a+nutshell,sigma+17-70mm+f2.8-4.5+dc+macro,sognefjord,tnoguchi","S2CellId":"463f000000000000","result":2783,"accuracy":0.5978256,"description":"Bergen%2C+Norway+2007"}
{"id":9107588626,"url":"http://farm4.staticflickr.com/3757/9107588626_5d44af06bf.jpg","path":"44f/ba6/44fba6c520c42c387f7da81668dfde3.jpg","date":"2013-04-29","year":2013,"month":4,"lon":7.1555,"lat":62.192833,"tags":"norway","S2CellId":"5351f00000000000","result":6036,"accuracy":0.018087493,"title":"Norway"}
{"id":2258951668,"url":"http://farm3.staticflickr.com/2382/2258951668_0fc81090d6.jpg","path":"423/18e/42318ebe1b2ba9b895d07f89d23d9171.jpg","date":"2008-02-11","year":2008,"month":2,"lon":7.166776,"lat":60.499374,"tags":"clouds,d70s,holiday,mountains,nikon,norway,running,tour,travel,trip,vacation,water","S2CellId":"463f000000000000","result":2783,"accuracy":0.55819494,"title":"Running+water"}
{"id":5173977881,"url":"http://farm5.staticflickr.com/4124/5173977881_4b05f13dfb.jpg","path":"8a9/2ed/8a92ed77da77f1a0a9507d8aa9f8b312.jpg","date":"2010-08-15","year":2010,"month":8,"lon":7.018053,"lat":61.927547,"tags":"beautiful,berge,fjord,fjordland,montains,norway,norwegen,stein,stone,strynsvatn,wasser,water","S2CellId":"4771400000000000","result":3386,"accuracy":0.34092882,"title":"Strynsvatn"}
{"id":9462740902,"url":"http://farm4.staticflickr.com/3832/9462740902_b06f6f3c0d.jpg","path":"892/95c/89295c8ae341b7f989dff8f7bd2c0.jpg","date":"2013-07-11","year":2013,"month":7,"lon":6.562786,"lat":60.069595,"tags":"hardangervidda,norge,norway","S2CellId":"4771400000000000","result":3386,"accuracy":0.222133,"title":"Odda"}
{"id":2910338940,"url":"http://farm4.staticflickr.com/3030/2910338940_4fed2d41e5.jpg","path":"18b/05b/18b05bfd6bb571c3214fe3cf1e15db.jpg","date":"2008-09-28","year":2008,"month":9,"lon":7.169426,"lat":62.73964,"tags":"apple","S2CellId":"3442abc400000000","result":2077,"accuracy":0.0023247465,"title":"I%27ve+an+Apple","description":"En+realidad%2C+tengo+un+Dell+con+una+manzana+encima...+bueno%2C+ten%C3%ADa+porque+la+manzana+me+la+com%C3%AD."}
{"id":9195200592,"url":"http://farm8.staticflickr.com/7447/9195200592_e4154e55a2.jpg","path":"69f/844/69f8448e447a6ac326e387d4d44d0a7.jpg","date":"2013-06-30","year":2013,"month":6,"lon":8.448336,"lat":60.5886,"tags":"%C3%A5l,2013,breie,buskerud,june,norway,summer","S2CellId":"864e640000000000","result":7620,"accuracy":0.028480215,"title":"Aconitum+napellus%2C+Monkshood%2C+Monnikskap","description":"Warning%3A+Aconitum+is+a+medicinal+herb+and+at+the+same+time+poisonous%21+Professionals+in+the+Chinese+medicine+and+in+the+Ayurveda+know+how+to+diminish+the+poison+%2F+toxide+substances.+The+plant+is+very+dangerous%2C+and+in+a+certain+doses+you+can+die+within+some+hours."}
{"id":5121562436,"url":"http://farm2.staticflickr.com/1319/5121562436_1ca8665543.jpg","path":"17f/df1/17fdf11ba935ad48e188b259e6b27593.jpg","date":"2010-10-20","year":2010,"month":10,"lon":7.085108,"lat":61.23164,"tags":"hodeduell,rune%C2%A9sj%C3%B8berg","S2CellId":"47eac00000000000","result":4697,"accuracy":0.15914266,"title":"Sogndal+-+Fredrikstad+201025","description":"Even+Hovland%2C+Ahyee%2C+Aye+Elvis"}
{"id":5802004762,"url":"http://farm3.staticflickr.com/2319/5802004762_e9cca23567.jpg","path":"bcf/f40/bcff404dc93874553dfa2cd0ac1c36a.jpg","date":"2011-06-02","year":2011,"month":6,"lon":6.150873,"lat":62.47108,"tags":"%C3%A5lesund,%C5%93lesund,art-nouveau,glass,glasses,jugend,lightroom,table,tableware","S2CellId":"3e5e700000000000","result":2606,"accuracy":0.04629268,"title":"Art-nouveau+table","description":"%C3%85lesund%2C+Jugendstilseteret++%0A%3Ca+href%3D%22http%3A%2F%2Fwww.jugendstilsenteret.no%2F%22+rel%3D%22nofollow%22%3Ewww.jugendstilsenteret.no%2F%3C%2Fa%3E"}
{"id":2068631239,"url":"http://farm3.staticflickr.com/2195/2068631239_e939f47c64.jpg","path":"c97/f18/c97f189182421797f499d3b7e5ebcce.jpg","date":"2007-06-28","year":2007,"month":6,"lon":6.218261,"lat":60.413853,"tags":"skandinavia","S2CellId":"4615000000000000","result":2764,"accuracy":0.17379959,"title":"Geirangerfjord+Norway+BP"}
{"id":1211990109,"url":"http://farm2.staticflickr.com/1189/1211990109_553beb2a20.jpg","path":"bb3/650/bb3650de935f198a23475187d3e6498.jpg","date":"2007-08-13","year":2007,"month":8,"lon":6.860767,"lat":60.89656,"tags":"fjord,n%C3%A6r%C3%B8yfjord,norway","S2CellId":"463f000000000000","result":2783,"accuracy":0.41386932,"title":"SSL13113"}
{"id":5539239825,"url":"http://farm6.staticflickr.com/5051/5539239825_bcc9631c68.jpg","path":"772/bd7/772bd7e2849821e8acfd132d674b5b.jpg","date":"2011-03-19","year":2011,"month":3,"lon":6.362736,"lat":62.435265,"tags":"d7","S2CellId":"465a400000000000","result":2886,"accuracy":0.0043724263,"title":"Sn%C3%B8klokker+-+Galanthus+nivalis"}
{"id":7013439329,"url":"http://farm8.staticflickr.com/7216/7013439329_c481ed96a0.jpg","path":"66e/daa/66edaa35f84b7b8d7451491788c2d2e.jpg","date":"2012-03-24","year":2012,"month":3,"lon":8.316478,"lat":60.61191,"tags":"2012,50,biking+from+hol+to+hovet,buskerud,hol,holsfjorden,hovet,norway,spring","S2CellId":"479d900000000000","result":3821,"accuracy":0.11324371,"title":"Holsfjorden%2C+Norway"}
{"id":2793935810,"url":"http://farm4.staticflickr.com/3142/2793935810_7847a64696.jpg","path":"235/a4a/235a4a46ae6c62faf849a495db2c4df.jpg","date":"2008-08-04","year":2008,"month":8,"lon":6.934947,"lat":60.958443,"tags":"honeymoon,norway","S2CellId":"4771400000000000","result":3386,"accuracy":0.45075113,"title":"Honeymoon+in+Norway","description":"Honeymoon+in+Norway%2C+July%2FAugust+2008%0A%0AHoneymoon+in+Norway%2C+July%2FAugust+2008"}
{"id":4179240499,"url":"http://farm3.staticflickr.com/2748/4179240499_c510555b53.jpg","path":"111/5f7/1115f77f8170bdd9c86493728564b2d2.jpg","date":"2005-06-27","year":2005,"month":6,"lon":7.102839,"lat":60.95022,"tags":"animal,camera,cat,compact,digital,emacp,norway,summer,undredal,vacation","S2CellId":"89d4d40000000000","result":9260,"accuracy":0.018212073,"title":"Undredal+cat"}
{"id":4746118929,"url":"http://farm5.staticflickr.com/4100/4746118929_35bc535ec8.jpg","path":"34c/580/34c580232e5097ca2d1d19f93227f753.jpg","date":"2010-06-29","year":2010,"month":6,"lon":7.207287,"lat":62.101753,"tags":"geiranger,norway","S2CellId":"463f000000000000","result":2783,"accuracy":0.39037845,"title":"Geirangerfjord"}
{"id":3572408627,"url":"http://farm4.staticflickr.com/3555/3572408627_8babec8e98.jpg","path":"6bb/f39/6bbf3949271f67d27c29a9fcbad918d.jpg","date":"2009-05-25","year":2009,"month":5,"lon":6.538066,"lat":61.20912,"tags":"balestrand,balestrand+summit,conference,filming,georg+arnestad,kviknes+hotel,photographer%3A+marte+lange+vik,presentation,sustainable+tourism,tv2,vestforsk","S2CellId":"0d19331000000000","result":217,"accuracy":0.05182418,"title":"Georg+Arnestad+listening%2C+TV2+filming","description":"Photographer%3A+Marte+Lange+Vik"}
{"id":240987050,"url":"http://farm1.staticflickr.com/92/240987050_6253ac793a.jpg","path":"3f8/8e7/3f88e7b13531593b648cc4c53d0cb0.jpg","date":"2006-07-02","year":2006,"month":7,"lon":7.199478,"lat":62.10083,"tags":"fjord,geiranger,north,norway","S2CellId":"45df000000000000","result":2759,"accuracy":0.042557932,"title":"DSC3034","description":"Views+from+around+Geiranger+Fjord%2C+Norway"}
{"id":3689980480,"url":"http://farm3.staticflickr.com/2436/3689980480_3b2ffff19a.jpg","path":"c44/3dd/c443ddf1facf257404075136856d782.jpg","date":"2009-06-19","year":2009,"month":6,"lon":7.704838,"lat":62.554348,"tags":"adalsnes,norway,norwegen","S2CellId":"4617000000000000","result":2765,"accuracy":0.13981721,"title":"0906_Kreuzfahrt_Norwegen_0417","description":"Landschaft+bei+Andalsnes"}
{"id":3894489849,"url":"http://farm3.staticflickr.com/2540/3894489849_d4e164086d.jpg","path":"db1/fa5/db1fa5bf09b7d79b721f8fe7c91dc87.jpg","date":"2008-08-06","year":2008,"month":8,"lon":6.61743,"lat":60.42438,"tags":"church,mountain,norge,norway,utne","S2CellId":"4865700000000000","result":4876,"accuracy":0.076913364,"description":"%3Ca+href%3D%22http%3A%2F%2Fwww.vimeo.com%2F4066389%22+rel%3D%22nofollow%22%3Ewww.vimeo.com%2F4066389%3C%2Fa%3E"}
{"id":9494847126,"url":"http://farm4.staticflickr.com/3690/9494847126_f1197e4ee4.jpg","path":"be9/62c/be962c5cb78fcb2c9a74125a16bfb6d8.jpg","date":"2013-08-11","year":2013,"month":8,"lon":7.116458,"lat":60.86302,"tags":"anchor,fla%CC%8Am,rallarvegen,rope","S2CellId":"5487400000000000","result":6150,"accuracy":0.1661161,"title":"Ship+anchor+ropes"}
{"id":4892557468,"url":"http://farm5.staticflickr.com/4142/4892557468_397084ff7a.jpg","path":"14a/58d/14a58df4a243e5bbe0494c17289ecdd.jpg","date":"2010-08-04","year":2010,"month":8,"lon":6.638488,"lat":62.67099,"tags":"2010,norway","S2CellId":"47b3100000000000","result":4017,"accuracy":0.052563377,"title":"P1000588"}
{"id":6202227422,"url":"http://farm7.staticflickr.com/6172/6202227422_df9e44e2e8.jpg","path":"2fe/cb0/2fecb08ff78eb7cff50b22eca817eb0.jpg","date":"2011-07-05","year":2011,"month":7,"lon":6.89289,"lat":62.628796,"tags":"fjord,m%C3%B8re+og+romsdal,norge,norway,norwegen,tomrefjorden","S2CellId":"5404000000000000","result":6091,"accuracy":0.19843248,"title":".+.+."}
{"id":1142948126,"url":"http://farm2.staticflickr.com/1013/1142948126_cb1d9cfc3e.jpg","path":"51c/8fc/51c8fcf72fc4a1a67c30208a1188c8.jpg","date":"2007-08-13","year":2007,"month":8,"lon":6.843143,"lat":60.88319,"tags":"fjord,gudvangen,n%C3%A6r%C3%B8yfjord,norway","S2CellId":"463f000000000000","result":2783,"accuracy":0.4588798,"title":"N070813_1655_794"}
{"id":3387954124,"url":"http://farm4.staticflickr.com/3178/3387954124_38c694ba66.jpg","path":"fd3/9f5/fd39f5ac51e286c712605d8d2b7a5175.jpg","date":"2009-03-11","year":2009,"month":3,"lon":8.996416,"lat":60.817387,"tags":"%C3%B8rterst%C3%B8len,full+moon,golsfjellet,mond,moon,night,night+images,noreg,norge,norway,vollmond,winter","S2CellId":"45d4000000000000","result":2755,"accuracy":0.21603611,"title":"Full+Moon","description":"%3Ca+href%3D%22http%3A%2F%2Fbighugelabs.com%2Fflickr%2Fonblack.php%3Fid%3D3387954124%22%3EView+On+Black%3C%2Fa%3E"}
{"id":5360501738,"url":"http://farm6.staticflickr.com/5008/5360501738_2ab081bec5.jpg","path":"cb7/8b5/cb78b583fb87e1ca42c7812e7d6deb.jpg","date":"2011-01-11","year":2011,"month":1,"lon":7.105461,"lat":61.232468,"tags":"christianblom","S2CellId":"476daec000000000","result":3370,"accuracy":0.01902473,"title":"10+Espen+Olsen","description":"Espen+Olsen"}
{"id":8731843775,"url":"http://farm8.staticflickr.com/7290/8731843775_a7833c18b5.jpg","path":"d23/522/d235222c562e85fe28a2872068fa61f.jpg","date":"2013-05-11","year":2013,"month":5,"lon":7.156411,"lat":62.734734,"tags":"blossom,cherry,molde,norge,norway,pink,spring","S2CellId":"60188cc400000000","result":6500,"accuracy":0.04515157,"title":"Cherry+Blossoms","description":"May+in+Molde"}
{"id":2823704679,"url":"http://farm4.staticflickr.com/3272/2823704679_d210367f9e.jpg","path":"bfd/29f/bfd29f55d5e9774d11d385abf11cfb.jpg","date":"2008-08-24","year":2008,"month":8,"lon":6.846483,"lat":61.682766,"tags":"norway","S2CellId":"4d24000000000000","result":5939,"accuracy":0.11007506,"title":"Mushroom"}
{"id":7378953110,"url":"http://farm6.staticflickr.com/5457/7378953110_8fa16ac3ff.jpg","path":"d3d/bc1/d3dbc12362dee75a715445f056f256ba.jpg","date":"2012-06-10","year":2012,"month":6,"lon":6.47129,"lat":60.62606,"tags":"amazing,hordaland,hordaland+scenery,norge,norway,norwegian,norwegian+mountains,scenic,snow,snow+mountains,summer,valley,voss,voss+scenery","S2CellId":"5470000000000000","result":6094,"accuracy":0.09290192,"title":"Beautiful+Norway","description":"Some+scenery+near+Voss%2C+Norway"}
{"id":4642408272,"url":"http://farm4.staticflickr.com/3357/4642408272_916c9c5e51.jpg","path":"2de/e8e/2dee8efb3385ecbea7ef6b5c9bf5e.jpg","date":"2010-05-22","year":2010,"month":5,"lon":8.667054,"lat":61.15835,"tags":"lake,neset,norge,norway,oppland,vang,vangsmj%C3%B8sa,vangsmj%C3%B8se,vangsmj%C3%B8si","S2CellId":"5470000000000000","result":6094,"accuracy":0.057847355,"title":"Lake+Vangsmj%C3%B8sa","description":"Making+a+brief+stop+along+highway+E16+at+Neset%2C+on+the+eastern+end+of+%3Ca+href%3D%22http%3A%2F%2Fen.wikipedia.org%2Fwiki%2FVangsmj%25c3%25b8se%22+rel%3D%22nofollow%22%3ELake+Vangsmj%C3%B8sa%3C%2Fa%3E+in+Vang%2C+Oppland%2C+to+take+in+the+view+of+the+distant%2C+snow-capped+mountains.+At+this+point+we+still+had+93+km+to+drive%2C+to+reach+L%C3%A6rdal%2C+and+from+there+many+more+miles+to+reach+our+destination%2C+Fl%C3%A5m.%0A%0AVangsmj%C3%B8sa%2C+also+known+as+Vangsmj%C3%B8se+or+Vangsmj%C3%B8si%2C+is+a+lake+in+Oppland+county%2C+Norway%2C+with+a+shoreline+47+km+long+and+a+largest+depth+of+154+meters.+The+lake+surface+is+at+an+elevation+of+466+m+above+sea+level."}
{"id":3427783977,"url":"http://farm4.staticflickr.com/3543/3427783977_f430c770f6.jpg","path":"53f/ef6/53fef632a7d5983823c9d22844a6d81.jpg","date":"2006-07-23","year":2006,"month":7,"lon":7.117767,"lat":60.861298,"tags":"fjord,flam,norway,sunset","S2CellId":"463f000000000000","result":2783,"accuracy":0.31251335,"title":"Fjord+at+Sunset","description":"Sunset+in+the+middle+of+the+night+from+the+dock+at+the+end+of+the+Aurlandsfjord+in+Fl%C3%A5m%2C+Norway."}
{"id":6102177621,"url":"http://farm7.staticflickr.com/6066/6102177621_c11b938b31.jpg","path":"f45/c83/f45c832b4848ca27bce345468ccc6ee6.jpg","date":"2011-07-24","year":2011,"month":7,"lon":7.10884,"lat":60.85645,"tags":"aurland,bergen,boats,fjordane,fl%C3%A5m+line,flam,lake,mountain,myrdal,nature,norwegian+state+railways,railway,sailboats,water","S2CellId":"4771400000000000","result":3386,"accuracy":0.16432002,"title":"Fl%C3%A5m","description":"24%2F07%2F2011+-+El+pueblo+vikingo+en+Gudvangen%2C+Fl%C3%A5m%2C+tren+en+direcci%C3%B3n+a+Myrdal+y%2C+al+final%2C+un+poco+de+Beitost%C3%B8len%0A%3Ca+href%3D%22http%3A%2F%2F7diasenbeitostolen.tumblr.com%2Fpost%2F8057884634%2Fgudvangen-flam-myrdal-beitostolen%22+rel%3D%22nofollow%22%3E7diasenbeitostolen.tumblr.com%2Fpost%2F8057884634%2Fel-pueblo-v...%3C%2Fa%3E"}
{"id":8544654683,"url":"http://farm9.staticflickr.com/8105/8544654683_9fe86de3c0.jpg","path":"66d/6ff/66d6ffa837caf725e1a1f3845b6db479.jpg","date":"2013-02-12","year":2013,"month":2,"lon":7.504005,"lat":60.601803,"tags":"%E6%8C%AA%E5%A8%81,hiver,invierno,noruega,norv%C3%A8ge,norway,norwegen,nsb,train,winter","S2CellId":"4617000000000000","result":2765,"accuracy":0.25278583,"title":"Dans+le+train+entre+Oslo+et+Bergen","description":"Dans+le+train+Oslo+-+Bergen%2C+Norv%C3%A8ge%2C+f%C3%A9vrier+2013.%0A%3Ca+href%3D%22http%3A%2F%2Fwww.benontherun.com%2Fpost%2Ftrain-oslo-bergen%22+rel%3D%22nofollow%22%3Ewww.benontherun.com%2Fpost%2Ftrain-oslo-bergen%3C%2Fa%3E"}
{"id":6279388728,"url":"http://farm7.staticflickr.com/6102/6279388728_df9bc7c7db.jpg","path":"da9/233/da9233c3d76cb6d18610f849297e787.jpg","date":"2011-10-25","year":2011,"month":10,"lon":6.547679,"lat":60.07075,"tags":"aurora,aurora+borealis,borealis,hardanger,nordlys,norge,northern+lights,norway,odda","S2CellId":"45c4000000000000","result":2753,"accuracy":0.5638624,"title":"Aurora+borealis%2C+Odda+Nordlys","description":"Northern+lights%2C+aurora+borealis%2C+in+Odda+-+Norway.+Part+of+a+timelapse%3A+%3Ca+href%3D%22http%3A%2F%2Fvimeo.com%2F31233942%22+rel%3D%22nofollow%22%3Evimeo.com%2F31233942%3C%2Fa%3E"}
{"id":7376352484,"url":"http://farm8.staticflickr.com/7105/7376352484_d786984d59.jpg","path":"61a/df3/61adf36e19c9a5dba42facab5e116a9d.jpg","date":"2012-06-13","year":2012,"month":6,"lon":6.546988,"lat":60.066097,"tags":"baltic+rally,baltichero,norway","S2CellId":"0d57900000000000","result":474,"accuracy":0.14092077,"title":"DSC_0754_5_6.jpg"}
{"id":697588945,"url":"http://farm2.staticflickr.com/1267/697588945_18ad91a9da.jpg","path":"3ae/25d/3ae25d854f48655526db5dc559ad5893.jpg","date":"2007-06-15","year":2007,"month":6,"lon":6.937351,"lat":60.9484,"tags":"fjord,gudvangen,naeroyfjord,norge,norv%C3%A8ge,norway,sognefjord","S2CellId":"4617000000000000","result":2765,"accuracy":0.1216518,"title":"2007-06-15","description":"Naeroyfjord"}
{"id":4844028512,"url":"http://farm5.staticflickr.com/4129/4844028512_676a89740e.jpg","path":"751/aaa/751aaa2e6d9f853d76dba96874f3d.jpg","date":"2009-03-28","year":2009,"month":3,"lon":8.703575,"lat":61.563103,"tags":"jotunheimen,jotunheimenneckman,nckmnjtnh10","S2CellId":"48d6c00000000000","result":5813,"accuracy":0.06863808,"title":"Felplacerade"}
{"id":49078795,"url":"http://farm1.staticflickr.com/32/49078795_4cc456ddbd.jpg","path":"917/9e0/9179e0142bdf4b949677285ace1acc61.jpg","date":"2005-10-03","year":2005,"month":10,"lon":6.413269,"lat":60.627995,"tags":"publicphoto,tree,voss","S2CellId":"537dc00000000000","result":6064,"accuracy":0.08084143,"title":"voss"}
{"id":3698191807,"url":"http://farm3.staticflickr.com/2456/3698191807_1fb7976744.jpg","path":"3ca/5e0/3ca5e0f017e963f3347ebd3822e1d59.jpg","date":"2009-06-01","year":2009,"month":6,"lon":6.118419,"lat":61.496967,"tags":"j%C3%B8lstramuseet","S2CellId":"463f000000000000","result":2783,"accuracy":0.43878323,"title":"2009-06-01+-+Norway"}
{"id":4539254278,"url":"http://farm5.staticflickr.com/4005/4539254278_384f43be44.jpg","path":"c23/a8d/c23a8ddfe25093bcb4dddc8cba5a5e6e.jpg","date":"2009-09-26","year":2009,"month":9,"lon":8.682975,"lat":61.45157,"tags":"h%C3%B8gdebrotet","S2CellId":"183c000000000000","result":1427,"accuracy":0.11338562,"title":"H%C3%B8gdebrotet"}
{"id":3711370099,"url":"http://farm3.staticflickr.com/2578/3711370099_1025b3c299.jpg","path":"1be/133/1be133d1fc417c83128fc361d1b4141f.jpg","date":"2009-06-25","year":2009,"month":6,"lon":7.099338,"lat":62.10529,"tags":"fjord,norway,norwegen,wasserfall,waterfall","S2CellId":"4617000000000000","result":2765,"accuracy":0.31549945,"title":"0906_Kreuzfahrt_Norwegen_1389","description":"Fahrt+nach+Geiranger+durch+pr%C3%A4chtige+Fjorde"}
{"id":9494855724,"url":"http://farm3.staticflickr.com/2868/9494855724_dfb7c0ae65.jpg","path":"5c9/6bb/5c96bb1ab43dc5b0dd5faa8986ff6249.jpg","date":"2013-08-11","year":2013,"month":8,"lon":7.104977,"lat":60.769012,"tags":"fla%CC%8Am,norway,rallarvegen,train,valley","S2CellId":"463f000000000000","result":2783,"accuracy":0.6757118,"title":"Landscapes+from+Fl%C3%A5m+train"}
{"id":5217597789,"url":"http://farm6.staticflickr.com/5121/5217597789_8ea44015b7.jpg","path":"417/31e/41731eb37f196717a18c410d9295cf0.jpg","date":"2010-09-19","year":2010,"month":9,"lon":8.201836,"lat":61.53406,"tags":"colours,feather,lom,nor,norway,oppland,snow,white","S2CellId":"3b30000000000000","result":2535,"accuracy":0.0025531934,"title":"Camouflage","description":"The+white+feather+of+a+grouse+on+fresh+white+snow."}
{"id":1131127560,"url":"http://farm2.staticflickr.com/1115/1131127560_1f954ea8d3.jpg","path":"ad5/deb/ad5deb06d315497f7299623dbae83.jpg","date":"2007-07-21","year":2007,"month":7,"lon":6.987304,"lat":61.10477,"tags":"boat,karen,norway,sognefjord","S2CellId":"4771400000000000","result":3386,"accuracy":0.433641,"title":"DSCN3686"}
{"id":2176109732,"url":"http://farm3.staticflickr.com/2336/2176109732_ee9e80b00f.jpg","path":"d8b/196/d8b196fecbb196caecf41bc777cb182.jpg","date":"2007-07-25","year":2007,"month":7,"lon":7.120259,"lat":60.83749,"tags":"flaam,norway,waterfall","S2CellId":"463f000000000000","result":2783,"accuracy":0.2789491,"title":"Flam"}
{"id":2272923248,"url":"http://farm3.staticflickr.com/2383/2272923248_b7899a4827.jpg","path":"187/f7d/187f7da9dc4058c490df73965d34d41.jpg","date":"2008-02-18","year":2008,"month":2,"lon":6.718912,"lat":60.53854,"tags":"granvin,landscape,landskap","S2CellId":"4caec00000000000","result":5835,"accuracy":0.055100787,"title":"Winter+and+water","description":"Metadata+disappeared+when+saving+to+TIFF+I+think.+As+all+my+other+photos%2C+this+is+taken+with+a+Pentax+K10D.+The+lens+used+is+a+Sigma+10-20mm+f%2F4-5%2C6.+%0A%0A10mm%2C+ISO200%2C+f%2F6%2C7%2C+1%2F125s."}
{"id":1478265627,"url":"http://farm2.staticflickr.com/1215/1478265627_7cc1096330.jpg","path":"d26/388/d26388c5615fc232957ff46c99376e0.jpg","date":"2005-07-26","year":2005,"month":7,"lon":8.024139,"lat":61.559998,"tags":"%C2%A9+delpax,bergen,delpax,landscape,mirror,norway,norwegen,olympus","S2CellId":"4615000000000000","result":2764,"accuracy":0.19157049,"title":"Spiegelung+%231"}
{"id":6096249554,"url":"http://farm7.staticflickr.com/6187/6096249554_92845ec771.jpg","path":"347/042/3470428550c2c014336195fdb1ae22.jpg","date":"2011-08-20","year":2011,"month":8,"lon":8.715934,"lat":61.486332,"tags":"besseggen,grat,jotunheimen,lake,norway,norwegen,ridge,see","S2CellId":"488e400000000000","result":5768,"accuracy":0.33154696,"title":"Lakes+Gjende+and+Leirungen","description":"Seen+from+Besseggen+ridge%2C+Aug+%2711."}
{"id":2835671037,"url":"http://farm4.staticflickr.com/3252/2835671037_2683b912ef.jpg","path":"add/828/add828b2ffd9101cfd197dec8d15f1b.jpg","date":"2008-09-06","year":2008,"month":9,"lon":6.625099,"lat":60.482178,"tags":"granvin,h%C3%A5li","S2CellId":"bda4000000000000","result":9962,"accuracy":0.23012622,"title":"Crossing"}
{"id":2961303303,"url":"http://farm4.staticflickr.com/3060/2961303303_80061c944a.jpg","path":"332/2e5/3322e5b622398f3feee5f8f5add4919.jpg","date":"2008-10-19","year":2008,"month":10,"lon":7.117083,"lat":62.73918,"tags":"flower","S2CellId":"47a85c0000000000","result":3946,"accuracy":0.0070001553,"title":"Pink+Rose"}
{"id":5881932561,"url":"http://farm6.staticflickr.com/5062/5881932561_4f164282ca.jpg","path":"8d5/718/8d57186f885bcf731fd6629dcb85.jpg","date":"2011-06-25","year":2011,"month":6,"lon":6.551842,"lat":62.104584,"tags":"%C3%B8rsta,bj%C3%B8rke,fjord,hipstamatic,hj%C3%B8rundfjord,norge,norway,sailboat,sunnm%C3%B8re","S2CellId":"a9d5c00000000000","result":9945,"accuracy":0.15250133,"title":"Old+Sailboat+%40Bj%C3%B8rke","description":"Watts+Lens%2C+Big+Up+Film%2C+No+Flash"}
{"id":651475089,"url":"http://farm2.staticflickr.com/1375/651475089_5a126f38f4.jpg","path":"dbb/1cf/dbb1cf9b6d6cf43104696581926328.jpg","date":"2007-06-15","year":2007,"month":6,"lon":6.376361,"lat":60.621178,"tags":"norge,norv%C3%A8ge,noway,voss","S2CellId":"873f000000000000","result":7805,"accuracy":0.044034258,"title":"2007-06-15","description":"Lac+de+Voss"}
{"id":2228665355,"url":"http://farm3.staticflickr.com/2207/2228665355_47b86486e2.jpg","path":"321/2ff/3212ff68b4c0759515da24a52eb69063.jpg","date":"2008-01-22","year":2008,"month":1,"lon":6.1417,"lat":60.371277,"tags":"holiday,norheimsund,norway,norwegen,urlaub","S2CellId":"864e640000000000","result":7620,"accuracy":0.008407813,"title":"Norheimsund"}
{"id":379835982,"url":"http://farm1.staticflickr.com/178/379835982_717515d39f.jpg","path":"105/6f2/1056f2fe9d7d25380107a34a60fb6.jpg","date":"2006-08-23","year":2006,"month":8,"lon":7.422294,"lat":60.846165,"tags":"aurlandsdalen,hiking,landscape,norge,norway,steep,trekking,valley","S2CellId":"463f000000000000","result":2783,"accuracy":0.5797071,"title":"Aurlandselvi"}
{"id":2349615061,"url":"http://farm4.staticflickr.com/3187/2349615061_712f62af5f.jpg","path":"c97/e47/c97e47c4fcfff1c1c9a2cc336dfc8f96.jpg","date":"2008-03-21","year":2008,"month":3,"lon":8.42514,"lat":61.474365,"tags":"jotunheimen,norway","S2CellId":"4615000000000000","result":2764,"accuracy":0.17698796,"title":"Storadalen","description":"View+down+Storadalen"}
{"id":4735977168,"url":"http://farm5.staticflickr.com/4102/4735977168_b3cbd7277b.jpg","path":"11b/853/11b853eb98f02a85974049347e34dd71.jpg","date":"2010-06-07","year":2010,"month":6,"lon":6.238041,"lat":62.469322,"tags":"alesund,boat,norway","S2CellId":"89e3300000000000","result":9307,"accuracy":0.028197113,"title":"Sunnmore+Museum"}
{"id":5982469862,"url":"http://farm7.staticflickr.com/6008/5982469862_f29b950cf7.jpg","path":"1b6/fa3/1b6fa37334d2fa50611234a71ff6de8.jpg","date":"2011-07-06","year":2011,"month":7,"lon":6.298942,"lat":60.077003,"tags":"bondhusbreen,glacier,gletsjer,holiday,noorwegen,norway","S2CellId":"4617000000000000","result":2765,"accuracy":0.26101598,"title":"Norge%3A+Bondhusbreen"}
{"id":9462833696,"url":"http://farm3.staticflickr.com/2889/9462833696_7e81a1c981.jpg","path":"c49/a20/c49a2018dad3ee7dbc65e92bc9cc8.jpg","date":"2013-07-21","year":2013,"month":7,"lon":6.611516,"lat":60.471096,"tags":"norge,norway","S2CellId":"4771400000000000","result":3386,"accuracy":0.14228736,"title":"Kvanndal"}
{"id":5951555843,"url":"http://farm7.staticflickr.com/6137/5951555843_438c227d46.jpg","path":"c25/ea2/c25ea28d34231c87ba57a23316c5481.jpg","date":"2011-07-11","year":2011,"month":7,"lon":8.618415,"lat":62.66447,"tags":"hildelarswedding,norway","S2CellId":"466b000000000000","result":2939,"accuracy":0.08754377,"title":"The+Convoy+North"}
{"id":9409588059,"url":"http://farm6.staticflickr.com/5325/9409588059_cbb70e754c.jpg","path":"6cd/489/6cd48987c7e17417e763aa1f1744152.jpg","date":"2013-06-26","year":2013,"month":6,"lon":7.264366,"lat":61.658554,"tags":"breheimen,glacier,jostedalsbreen,nigardsbreen","S2CellId":"4615000000000000","result":2764,"accuracy":0.13941234,"title":"Nigardsbreen","description":"Nigardsbreen+and+the+Jostedalsbreen+icecap"}
{"id":4144987882,"url":"http://farm3.staticflickr.com/2710/4144987882_cb762ddd67.jpg","path":"d07/498/d07498c4eb93ae0eb89563c7478174.jpg","date":"2009-08-26","year":2009,"month":8,"lon":6.889286,"lat":60.57849,"tags":"cascada,cascade,catarata,fall,juaninda,landscape,naturaleza,noruega,paisaje,thenaturesgreenpeace,viajes,waterfalls","S2CellId":"882c9c0000000000","result":8271,"accuracy":0.079645656,"title":"La+Ca%C3%ADda","description":"Una+parada+en+la+carretera%2C+entre+Ulvik+y+Voss+%28Noruega%29%2C+y+a+100+metros+estaba+esto.%0ALas+hay+a+cientos+en+Noruega.%0AEst%C3%A1+tomada+a+pulso%2C+apoyado+en+un+%C3%A1rbol."}
{"id":2750911970,"url":"http://farm4.staticflickr.com/3167/2750911970_3d5eb5714d.jpg","path":"99e/e38/99ee38a05f7f263aea25d9d40375eee.jpg","date":"2008-07-13","year":2008,"month":7,"lon":6.844482,"lat":60.88135,"tags":"craig+tidball,devonaire+eye,devonshire+media,mountains,tidball,travel","S2CellId":"463f000000000000","result":2783,"accuracy":0.5597419,"title":"Norway+Fjords+306"}
{"id":227269644,"url":"http://farm1.staticflickr.com/89/227269644_56fdca560a.jpg","path":"6bd/3c9/6bd3c96fd6a173ced09040b9e7474b61.jpg","date":"2006-08-11","year":2006,"month":8,"lon":7.833251,"lat":60.507458,"tags":"norway","S2CellId":"7c06c00000000000","result":6897,"accuracy":0.029701188,"title":"IMGP2243","description":"Photo+by+Pi."}
{"id":5979671153,"url":"http://farm7.staticflickr.com/6144/5979671153_2f40ea2a11.jpg","path":"409/4d3/4094d3a04999f8c2c938ba412c57fa12.jpg","date":"2011-07-16","year":2011,"month":7,"lon":8.387374,"lat":61.741768,"tags":"farm,glacier,jotunheim,leirdalsvegen,leirvassbu,mountains,norge,norway,road,valley","S2CellId":"4615000000000000","result":2764,"accuracy":0.19147795,"title":"The+dirt+road","description":"Some+might+think+it%27s+not+a+bright+idea+to+take+a+rental+car+on+a+15-kilometer+rough%2C+single-lane+road+that+climbs+up+a+valley+into+the+mountains%2C+but+since+it%27s+a+toll+road%2C+it+was+in+pretty+good+condition.++++This+is+where+it+starts."}
{"id":2386898067,"url":"http://farm3.staticflickr.com/2147/2386898067_9eb95e76c6.jpg","path":"d31/cbf/d31cbf40e93bbf56c1172e49610b185.jpg","date":"2008-04-03","year":2008,"month":4,"lon":7.085691,"lat":60.967278,"tags":"oslo","S2CellId":"4617000000000000","result":2765,"accuracy":0.15749693,"title":"ferry+from+Gudnvangen+to+Fl%C3%A5m+by+Fjord%21"}
{"id":6989871832,"url":"http://farm8.staticflickr.com/7215/6989871832_2d42207efb.jpg","path":"608/d6f/608d6fd2a763bdef01284e2bbac966e.jpg","date":"2012-05-01","year":2012,"month":5,"lon":8.292274,"lat":60.613953,"tags":"50,biking,caique,colours,hol,holsfjorden,hovet,light,may+1+2012,nature,norway,springtime,sun,warmth,water","S2CellId":"8096f70000000000","result":7102,"accuracy":0.12661031,"title":"A+caique+in+Holsfjorden"}
{"id":6329397518,"url":"http://farm7.staticflickr.com/6218/6329397518_f090c7010f.jpg","path":"fb2/5d9/fb25d9d95616cadcefdc4625f836c.jpg","date":"2011-06-14","year":2011,"month":6,"lon":7.331213,"lat":61.0076,"tags":"norway","S2CellId":"463f000000000000","result":2783,"accuracy":0.49945992,"title":"%E9%9B%AA%E4%B9%8B%E8%B7%AF+stengt+om+vinteren"}
{"id":1112935698,"url":"http://farm2.staticflickr.com/1077/1112935698_362127e9f7.jpg","path":"98a/dd0/98add056127df4851cf4644eb5bc996c.jpg","date":"2007-08-06","year":2007,"month":8,"lon":7.112703,"lat":60.94569,"tags":"bergen,lightroom,norway,norway+in+a+nutshell,printpositivecolor,sognefjord,tnoguchi","S2CellId":"463f000000000000","result":2783,"accuracy":0.55682176,"description":"Bergen%2C+Norway+2007"}
{"id":3792664934,"url":"http://farm3.staticflickr.com/2538/3792664934_fdded802c6.jpg","path":"8d1/f35/8d1f35c1efc22dab0ce2bebb0e4cf6e.jpg","date":"2009-07-05","year":2009,"month":7,"lon":7.120513,"lat":60.953777,"tags":"aurlandsfjord,fjord,norge,norway","S2CellId":"4771400000000000","result":3386,"accuracy":0.3110688,"title":"Another+waterfall","description":"Aurlandsfjord"}
{"id":6385023781,"url":"http://farm7.staticflickr.com/6059/6385023781_96408e36b6.jpg","path":"1f6/3be/1f63bec3b84f6e94d77c39547ed5d0.jpg","date":"2011-07-23","year":2011,"month":7,"lon":7.193047,"lat":62.103188,"tags":"geiranger","S2CellId":"463f000000000000","result":2783,"accuracy":0.26811746,"title":"IMG_6112.JPG","description":"Geiranger"}
{"id":8168180553,"url":"http://farm8.staticflickr.com/7128/8168180553_cd33dafbe2.jpg","path":"fdb/aa7/fdbaa77252cc8b4efa4e97ccd937f197.jpg","date":"2012-07-10","year":2012,"month":7,"lon":7.560997,"lat":62.368565,"tags":"green+rocks","S2CellId":"45df000000000000","result":2759,"accuracy":0.1973285,"title":"Troll+Farm","description":"Outside+Muri%2C+the+fields+were+emerald+among+the+dark+rock."}
{"id":8192590144,"url":"http://farm9.staticflickr.com/8479/8192590144_a646444a15.jpg","path":"e21/55c/e2155c19a3f845b34c2a9ff0b0c1a.jpg","date":"2010-07-13","year":2010,"month":7,"lon":7.190022,"lat":60.907047,"tags":"blue,canon,clouds,eos,fall,fjord,flower,flowers,forest,green,insect,landscape,leaves,macro,mountains,nature,norway,sea,sky,sun,sunset,tree,trees,water","S2CellId":"463f000000000000","result":2783,"accuracy":0.37355325,"title":"Norwegian+mountains+farm","description":"No+roads+for+cars"}
{"id":4510237858,"url":"http://farm3.staticflickr.com/2248/4510237858_ff4f55bfed.jpg","path":"e2b/c3f/e2bc3f4b806d6637c5c45ff83fb8e66.jpg","date":"2010-04-08","year":2010,"month":4,"lon":6.337002,"lat":62.466938,"tags":"%C3%A5lesund,berg,cloud,clouds,mist,moere+og+romsdal,mountain,nebel,norge,norway,norwegen,tamron+af+18-270mm+f%2F3.5-6.3,wolke,wolken","S2CellId":"478fb00000000000","result":3691,"accuracy":0.059952293,"title":"%C3%85lesund+Ausblick","description":"Aus+der+Ferienwohnung+in+Norwegen+fotografiert"}
{"id":4818870846,"url":"http://farm5.staticflickr.com/4075/4818870846_179e5e20ca.jpg","path":"77e/518/77e518ea510f86511674e5afd562fe.jpg","date":"2010-07-22","year":2010,"month":7,"lon":6.163201,"lat":62.4744,"tags":"%C3%A5leby,%C3%A5lesund,aksla,god%C3%B8y,sukkertoppen,utsikt,view","S2CellId":"4617000000000000","result":2765,"accuracy":0.585403,"title":"Sommer+2010+-+%236"}
{"id":6127902357,"url":"http://farm7.staticflickr.com/6189/6127902357_c8092be732.jpg","path":"d22/a26/d22a26e345f0adefb43e972b19114f6.jpg","date":"2011-08-26","year":2011,"month":8,"lon":7.674,"lat":60.482666,"tags":"aass+trekkers,aass+trekkers+2011,aass+trekkers+finse-kr%C3%A6kkja-haugast%C3%B8l,aass+trekkers+turlag,finse-kr%C3%A6kkja,fjelltur,fottur,hardangervidda","S2CellId":"45d4000000000000","result":2755,"accuracy":0.102573924,"title":"Og+s%C3%A5+kom+regnet+...","description":"%E2%80%A6+da+vi+var+i+ferd+med+%C3%A5+runde+Andersbunuten%2C+ca.+1+1%2F2+time+fra+Kr%C3%A6kkja."}
{"id":240985901,"url":"http://farm1.staticflickr.com/84/240985901_5f11a6a6e9.jpg","path":"b55/6ae/b556aee2ccb7acf3483c03d7b98d3f.jpg","date":"2006-07-02","year":2006,"month":7,"lon":6.91864,"lat":62.403095,"tags":"fjord,geiranger,north,norway","S2CellId":"a9d5400000000000","result":9944,"accuracy":0.027916402,"title":"DSC3020","description":"Views+from+around+Geiranger+Fjord%2C+Norway"}
{"id":5328465468,"url":"http://farm6.staticflickr.com/5129/5328465468_e0c126e97b.jpg","path":"d41/32d/d4132dc0b2f9b64080989e4e24891d9.jpg","date":"2010-07-27","year":2010,"month":7,"lon":7.175617,"lat":60.906906,"tags":"aurland,europe,fav,fjord,norway,sognefjord,travel","S2CellId":"463f000000000000","result":2783,"accuracy":0.5156396,"title":"Aurland"}
{"id":6294506782,"url":"http://farm7.staticflickr.com/6095/6294506782_db6ca72b86.jpg","path":"f58/85a/f5885adf17823dd4a4832e61d58e42d.jpg","date":"2011-08-21","year":2011,"month":8,"lon":6.028404,"lat":62.467598,"tags":"%C3%A5lesund,2011,art+noveau,atl%C3%A1ntico,bahia,canon,caseta,cielo,cow,eos+7d,estiu,god%C3%B8y,godoy,green,harbor,harbour,illa,isla,island,lancha,m%C3%B8re+og+romsdal,monta%C3%B1a,mountain,norte,north,noruega,norway,red,rojo,sky,summer,verano,verd,verde,vermell","S2CellId":"45df000000000000","result":2759,"accuracy":0.52860194,"title":"God%C3%B8y"}
{"id":6341947974,"url":"http://farm7.staticflickr.com/6225/6341947974_1a64e91701.jpg","path":"88d/fcb/88dfcb76b681735a8c55a3682c79d29e.jpg","date":"2011-07-06","year":2011,"month":7,"lon":6.317138,"lat":60.2347,"tags":"blue,glazier,hardanger,ice,isbre,mountain,mountains,nature,norway,sky,snow,water","S2CellId":"463f000000000000","result":2783,"accuracy":0.28062034,"title":"Folgefonna+glazier+from+below"}
{"id":2500050426,"url":"http://farm4.staticflickr.com/3281/2500050426_3bd00cbd44.jpg","path":"52f/cdb/52fcdbadd01454514ed511bff6981a6d.jpg","date":"2007-09-11","year":2007,"month":9,"lon":8.906478,"lat":61.24848,"tags":"viaggio","S2CellId":"548ff00000000000","result":6177,"accuracy":0.010044381,"title":"IMG_3666"}
{"id":4798805026,"url":"http://farm5.staticflickr.com/4077/4798805026_c03af7a12a.jpg","path":"3d5/c81/3d5c81e7eb781892ca1e458af501452.jpg","date":"2010-07-05","year":2010,"month":7,"lon":7.105236,"lat":60.95069,"tags":"alex+berger,amazing,aurlandsfjorden,backpacking,bird,canon+g11,cliff,clouds,eu,europe,fjord,gull,hosteling,hostels,majestic,nordic,norway,scandinavia,study+abroad,travel,undredal,valley,waterfall","S2CellId":"463f000000000000","result":2783,"accuracy":0.5558729,"title":"View+of+the+Fjord+and+Undredal+-+Aurlandsfjorden%2C+Norway"}
{"id":2886456549,"url":"http://farm4.staticflickr.com/3008/2886456549_ff10c69efc.jpg","path":"7b4/fc1/7b4fc1ec3f5fc4f3cbab43c8a1950ba.jpg","date":"2008-09-21","year":2008,"month":9,"lon":7.169426,"lat":62.73964,"tags":"fabrikkvegen,house,molde,more,norway,og,romsdal,wood","S2CellId":"463f000000000000","result":2783,"accuracy":0.19199789,"title":"Fabrikkvegen+house","description":"Little+wooden+house+in+front+of+Rimo%2C+Fabrikkvegen+%28Mode%2C+Norway%29"}
{"id":5530059023,"url":"http://farm6.staticflickr.com/5291/5530059023_09967d6470.jpg","path":"e09/e38/e09e384b7055288971b0c6c253ad8520.jpg","date":"2009-09-06","year":2009,"month":9,"lon":6.536478,"lat":61.735264,"tags":"autumn,bekk,brun,byrkjelo,d%C3%B8gn,dag,dr%C3%A5per,farger,fjell,gr%C3%B8nn,h%C3%B8st,hendelse,l%C3%B8v,leaves,natur,pond,regn,skog,skyer,sol,steder,tur,v%C3%A6r","S2CellId":"4889100000000000","result":5755,"accuracy":0.014563865,"title":"Autumn+leaves+in+pond","description":"Naturbilder+fra+tur+i+skogen+i+Byrkjelo"}
{"id":134164271,"url":"http://farm1.staticflickr.com/36/134164271_d936e69e73.jpg","path":"91a/787/91a787193c8310ddd883a91179cdd8fb.jpg","date":"2006-04-14","year":2006,"month":4,"lon":8.299655,"lat":60.616184,"tags":"canon+eos+350d,hallingskarvet,hol+pensjonat,p%C3%A5sken+2006,sigma+18-50+f2.8","S2CellId":"54be400000000000","result":6297,"accuracy":0.041638512,"title":"IMG_4599.JPG"}
