{"id":3011982610,"url":"http://farm4.staticflickr.com/3235/3011982610_b814a6a435.jpg","path":"3cb/98d/3cb98dae95899de07fabd9ce7dac5ad9.jpg","date":"2008-11-01","year":2008,"month":11,"lon":-37.18134,"lat":-10.788201,"tags":"cidade,fotoclube,hist%C3%B3ria,laranjeiras,passeio,rio","S2CellId":"8f2c000000000000","result":9511,"accuracy":0.17715648,"title":"Laranjeiras","description":"Passeio+a+cidade+de+Laranjeiras"}
{"id":3332670093,"url":"http://farm4.staticflickr.com/3322/3332670093_2a8325eb4b.jpg","path":"187/175/1871751c66ca4aeec57e446e47db7ed.jpg","date":"2009-02-01","year":2009,"month":2,"lon":-37.073364,"lat":-10.90883,"tags":"brasil,brazil,c613,cat,cristian,cristiano,gato,kodak,santana,sergipe","S2CellId":"89d4d40000000000","result":9260,"accuracy":0.21822713,"title":"Filhote+-+Cat+-+Cristiano+Santana","description":"Foto+de+Cristiano+Santana%0AProibida+a+c%C3%B3pia+dessa+foto+sem+autoriza%C3%A7%C3%A3o"}
{"id":2356132635,"url":"http://farm4.staticflickr.com/3075/2356132635_d9e9120361.jpg","path":"e0e/e63/e0ee634d6cd6d831fec49111d4e0d116.jpg","date":"2008-03-17","year":2008,"month":3,"lon":-37.069073,"lat":-10.908408,"tags":"aracaju,atletismo,corrida,corrida+cidade+de+aracaju,esporte,fernando+pangar%C3%A9,sergipe,sport,ultramaratona","S2CellId":"88dec00000000000","result":8643,"accuracy":0.0885448,"title":"ULTRA+RUNNER+FERNANDO+PANGAR%C3%89+IN+ARACAJU+CITY%3A+%22RACE+25+KMS+ARACAJU+CITY+*+LEONEL+BRIZOLA+BUS+TERMINAL%22"}
{"id":5598718389,"url":"http://farm6.staticflickr.com/5306/5598718389_b77e9384d0.jpg","path":"768/dcf/768dcf91c9cdcd3165cf516dc068a797.jpg","date":"2011-04-07","year":2011,"month":4,"lon":-37.417374,"lat":-10.69055,"tags":"c%C3%A2mara,expans%C3%A3o,itabaiana,ufs,vota%C3%A7%C3%A3o","S2CellId":"935a3b4000000000","result":9656,"accuracy":0.14548393}
{"id":7026658499,"url":"http://farm8.staticflickr.com/7183/7026658499_f29ca3115f.jpg","path":"a53/fd0/a53fd0548ac874e774e34a2bf4236c69.jpg","date":"2012-03-26","year":2012,"month":3,"lon":-37.047832,"lat":-10.902874,"tags":"aracaju,brasil,brazil,canon,eric,powershot+s5,sergipe","S2CellId":"95b7000000000000","result":9827,"accuracy":0.06434258,"title":"IMG_5351","description":"yeah...+not+walking+about+there."}
{"id":5598720471,"url":"http://farm6.staticflickr.com/5304/5598720471_5b8fb0659e.jpg","path":"718/d2e/718d2e6c966419fa9171caad3dbd8fc8.jpg","date":"2011-04-07","year":2011,"month":4,"lon":-37.417374,"lat":-10.69055,"tags":"c%C3%A2mara,expans%C3%A3o,itabaiana,ufs,vota%C3%A7%C3%A3o","S2CellId":"07c74c0000000000","result":120,"accuracy":0.054974385}
{"id":2356981738,"url":"http://farm3.staticflickr.com/2101/2356981738_2e234f6538.jpg","path":"381/535/38153538c762859e1760cb68d2ed398.jpg","date":"2008-03-17","year":2008,"month":3,"lon":-37.069073,"lat":-10.908408,"tags":"aracaju,atletismo,corrida,corrida+cidade+de+aracaju,esporte,fernando+pangar%C3%A9,sergipe,sport,ultramaratona","S2CellId":"07ab190000000000","result":105,"accuracy":0.0694547,"title":"DSCI3969"}
