{"id":7041465953,"url":"http://farm8.staticflickr.com/7178/7041465953_bf209bc1a3.jpg","path":"e29/04a/e2904a137e6ce0bcda3ae7795a956426.jpg","date":"2011-08-04","year":2011,"month":8,"lon":-134.70383,"lat":60.166157,"tags":"canada,tagish,yukon-territoriet","S2CellId":"5140000000000000","result":5964,"accuracy":0.24303962,"title":"P1000412.jpg"}
{"id":4777143386,"url":"http://farm5.staticflickr.com/4136/4777143386_cc27ec4f64.jpg","path":"e22/5fc/e225fc34f416462a21faf83b9da2f63.jpg","date":"2010-05-08","year":2010,"month":5,"lon":-134.69814,"lat":60.163933,"tags":"carcross,drupalbanner,nares+lake","S2CellId":"876ac00000000000","result":7860,"accuracy":0.064528555,"title":"Carcross+0468"}
{"id":3051599028,"url":"http://farm4.staticflickr.com/3174/3051599028_316af0befa.jpg","path":"c3e/559/c3e55997b413f0c0e7d5c8ea4c9d41a.jpg","date":"2008-09-05","year":2008,"month":9,"lon":-134.7061,"lat":60.164745,"tags":"alaska,canada,carcross,cruise,general+store,history,matthew,signs,stores,vacation,watson,yukon","S2CellId":"8084c00000000000","result":6909,"accuracy":0.00936518,"title":"Alaskan+Cruise+Day+05%2C+Yukon%3A+Carcross","description":"%3Ca+href%3D%22http%3A%2F%2Fwww.flickr.com%2Fphotos%2Fthomwatson%2F3051599726%2F%22%3ESee+the+Matthew+Watson+Store%3C%2Fa%3E"}
{"id":8210566756,"url":"http://farm9.staticflickr.com/8064/8210566756_59f46e1ba7.jpg","path":"f8a/695/f8a695eb5d8f59f7b3cf4ea40bf1247.jpg","date":"2012-09-21","year":2012,"month":9,"lon":-134.84653,"lat":60.447395,"tags":"canada,carcross,mountains,territory,yt,yukon","S2CellId":"5140000000000000","result":5964,"accuracy":0.32445508,"title":"IMG_0773"}
{"id":8069758372,"url":"http://farm9.staticflickr.com/8458/8069758372_6a0af7f66f.jpg","path":"1b8/d9c/1b8d9c92a7b19b9d4bbfd1269b8f5c.jpg","date":"2012-09-15","year":2012,"month":9,"lon":-132.57065,"lat":60.125774,"tags":"alaska+highway,autumn,canada,car,fall,forest,glaciers,interior,leaves,mountain,mountains,northern,roads,yt,yukon+territory","S2CellId":"56cd000000000000","result":6324,"accuracy":0.59928936,"title":"IMG_0169"}
{"id":6150356873,"url":"http://farm7.staticflickr.com/6071/6150356873_02ac435393.jpg","path":"f2a/36b/f2a36b473801640d870185e9cdaafe2.jpg","date":"2011-09-07","year":2011,"month":9,"lon":-134.80225,"lat":60.383327,"tags":"alaska,alaska+cruise,cruise,d200,emerald,emerald+lake,lake,ncl,nikon,vacation","S2CellId":"5377000000000000","result":6058,"accuracy":0.21774493,"title":"Alaska+Cruise"}
{"id":4259865,"url":"http://farm1.staticflickr.com/3/4259865_7c4f4a1740.jpg","path":"72b/d1b/72bd1ba46e36316ee8a5828e34ee254.jpg","date":"2005-01-10","year":2005,"month":1,"lon":-134.74646,"lat":60.265278,"tags":"canada,insidepassage,lake,reflections,yukon","S2CellId":"5140000000000000","result":5964,"accuracy":0.16802184,"title":"emerald+lake","description":"aptly+named%0A%0A%3Ca+href%3D%22http%3A%2F%2Fwww.geobloggers.com%22%3EGeoTagged%3C%2Fa%3E"}
