{"id":8092752991,"url":"http://farm9.staticflickr.com/8187/8092752991_11519773d8.jpg","path":"e3b/5e6/e3b5e6c6c39589f0dffff86e50f8f4c7.jpg","date":"2012-07-09","year":2012,"month":7,"lon":-56.738377,"lat":-16.623198,"tags":"abstract,black,brazil,d4,lines,mato+grosso,nature,nikon,pantanal,rio+claro,spider+web,sunny,threads,wild,wild+animal,wildlife","S2CellId":"85cd000000000000","result":7450,"accuracy":0.004223105,"title":"Spider+web","description":"Nothing+special%2C+just+a+spider+web+in+the+sun..."}
{"id":8008710194,"url":"http://farm9.staticflickr.com/8031/8008710194_d0c5c3eb80.jpg","path":"f02/693/f02693383fd191531eaa6bcd42abb4a2.jpg","date":"2012-07-03","year":2012,"month":7,"lon":-56.74581,"lat":-16.503145,"tags":"bird,blue,brazil,clouds,d4,flying,guira+cuckoo,mato+grosso,nature,nikon,pantanal,sky,wild,wild+animal,wildlife","S2CellId":"88d0a631cabb5071","result":8563,"accuracy":0.022725282,"title":"Flying+always+higher...","description":"The+same+bird+as+in+the+previous+shot+%28guira+cuckoo%29%2C+this+time+flying+and+gaining+altitude%21"}
{"id":6879505774,"url":"http://farm7.staticflickr.com/6092/6879505774_112baee2cd.jpg","path":"242/cd2/242cd2685082707990faf753738e7b.jpg","date":"2012-03-04","year":2012,"month":3,"lon":-56.852406,"lat":-16.741524,"tags":"birds,brazil,mato+grosso,pantanal","S2CellId":"88d0a631cabb5071","result":8563,"accuracy":0.24731879,"title":"Green+Kingfisher+%28Chloroceryle+americana%29"}
{"id":6879434258,"url":"http://farm7.staticflickr.com/6217/6879434258_a24a927672.jpg","path":"8d5/641/8d56411e42eb3dff38a5e4fc8e2fc331.jpg","date":"2012-03-04","year":2012,"month":3,"lon":-56.877182,"lat":-16.755003,"tags":"birds,brazil,mato+grosso,pantanal","S2CellId":"88d0a631cabb5071","result":8563,"accuracy":0.47989506,"title":"Neotropic+Cormorant++%28Phalacrocorax+brasilianus%29"}
{"id":2277791863,"url":"http://farm3.staticflickr.com/2129/2277791863_8caefa3106.jpg","path":"366/ef2/366ef266cad37b1677c81ab65ac6cdd.jpg","date":"2007-12-28","year":2007,"month":12,"lon":-56.692543,"lat":-16.472961,"tags":"araras+ecolodge,brasil,pantanal","S2CellId":"12aef00000000000","result":792,"accuracy":0.048276365,"title":"IMG_5252"}
{"id":2277758057,"url":"http://farm3.staticflickr.com/2176/2277758057_e90c07e153.jpg","path":"aa3/0dd/aa30dd7d5ed945bcbdc2c4c091387837.jpg","date":"2007-12-28","year":2007,"month":12,"lon":-56.692543,"lat":-16.472961,"tags":"araras+ecolodge,brasil,pantanal","S2CellId":"88d0a631cabb5071","result":8563,"accuracy":0.085177645,"title":"IMG_4998"}
{"id":6066262709,"url":"http://farm7.staticflickr.com/6188/6066262709_5eaf0d6ef1.jpg","path":"262/69f/26269f7532aa3bc5fa25c3138e542a7.jpg","date":"2011-07-29","year":2011,"month":7,"lon":-56.689453,"lat":-16.381897,"tags":"brasil,brazil,centrooeste,corixomoquem,matogrosso,nature,natureza,pantanal,portocerrado,riocuiaba,sescpantanal","S2CellId":"88fb990000000000","result":8747,"accuracy":0.05234028,"title":"Pantanal+-+Porto+Cercado"}
{"id":7025597999,"url":"http://farm7.staticflickr.com/6032/7025597999_cdf26f939c.jpg","path":"402/946/402946ef87378a262e6cb163289d75.jpg","date":"2012-03-04","year":2012,"month":3,"lon":-56.855225,"lat":-16.743563,"tags":"birds,brazil,mato+grosso,pantanal","S2CellId":"1ed0000000000000","result":1478,"accuracy":0.094739445,"title":"Neotropic+Cormorant++%28Phalacrocorax+brasilianus%29"}
{"id":6879522128,"url":"http://farm8.staticflickr.com/7274/6879522128_b69b5a19b2.jpg","path":"3f1/257/3f1257985295f397337986de52762071.jpg","date":"2012-03-04","year":2012,"month":3,"lon":-56.849148,"lat":-16.736542,"tags":"birds,brazil,mato+grosso,pantanal","S2CellId":"88d0a631cabb5071","result":8563,"accuracy":0.019661618,"title":"Black-crowned+Night+Heron+%28Nycticorax+nycticorax%29"}
{"id":6696657421,"url":"http://farm8.staticflickr.com/7001/6696657421_bda92de69d.jpg","path":"b03/770/b03770981d36de9f27b9f73dc2e9217.jpg","date":"2011-08-04","year":2011,"month":8,"lon":-56.682243,"lat":-16.415997,"tags":"ave,brasil,ema,greater+rhea,mato+grosso,nandu,nature,natureza,nhandu,pantanal,rhea+americana,rheidae","S2CellId":"88d0a631cabb5071","result":8563,"accuracy":0.8289186,"title":"Rhea+americana+-+Ema","description":"They+would+get+pretty+close%21"}
{"id":6879513972,"url":"http://farm7.staticflickr.com/6106/6879513972_7a5ea7f27a.jpg","path":"c9e/8f0/c9e8f065d7e95b77dd933a23642f026.jpg","date":"2012-03-04","year":2012,"month":3,"lon":-56.850544,"lat":-16.738249,"tags":"birds,brazil,mato+grosso,pantanal","S2CellId":"88d0a631cabb5071","result":8563,"accuracy":0.027564678,"title":"Pantanal"}
{"id":7027981209,"url":"http://farm8.staticflickr.com/7269/7027981209_a19909ffce.jpg","path":"31a/690/31a690eececae81872745055dabe61.jpg","date":"2012-03-05","year":2012,"month":3,"lon":-56.866596,"lat":-16.750717,"tags":"brazil,mato+grosso,pantanal","S2CellId":"88d0a631cabb5071","result":8563,"accuracy":0.1447929,"title":"Cayman"}
{"id":7025624117,"url":"http://farm8.staticflickr.com/7037/7025624117_6dd9807f49.jpg","path":"7f1/34d/7f134da558e63cc1822591873ffd98e.jpg","date":"2012-03-04","year":2012,"month":3,"lon":-56.84789,"lat":-16.737764,"tags":"birds,brazil,mato+grosso,pantanal","S2CellId":"88d0a631cabb5071","result":8563,"accuracy":0.5044448,"title":"Ringed+Kingfisher+%28Megaceryle+torquata%29"}
{"id":975687535,"url":"http://farm2.staticflickr.com/1358/975687535_b79ce1611b.jpg","path":"633/847/6338471b04c4c9229d3206d3f27d393.jpg","date":"2007-08-01","year":2007,"month":8,"lon":-56.68207,"lat":-16.46111,"tags":"birds,brasil,brazil,mato+grosso,pantanal,rainforest,wetland,wild,wildlife","S2CellId":"9aab000000000000","result":9926,"accuracy":0.06751613,"title":"Birds+in+Pantanal"}
{"id":7025429867,"url":"http://farm7.staticflickr.com/6235/7025429867_b22c0b4d55.jpg","path":"141/911/141911bd9cfc05172a25bae423fa338.jpg","date":"2012-03-04","year":2012,"month":3,"lon":-56.669804,"lat":-16.406773,"tags":"brazil,mato+grosso,pantanal","S2CellId":"8620af4000000000","result":7522,"accuracy":0.10512524,"title":"Lizard"}
{"id":2277798211,"url":"http://farm3.staticflickr.com/2213/2277798211_37f8272e08.jpg","path":"1d6/7c9/1d67c961bc16ac14dd7cb8c82e9ffd13.jpg","date":"2007-12-28","year":2007,"month":12,"lon":-56.692543,"lat":-16.472961,"tags":"araras+ecolodge,brasil,pantanal","S2CellId":"12aef00000000000","result":792,"accuracy":0.056395058,"title":"IMG_5293-1"}
{"id":8007547046,"url":"http://farm9.staticflickr.com/8462/8007547046_562239b400.jpg","path":"5f7/c31/5f7c31c473e675bb6aefcfdc22be60.jpg","date":"2012-07-03","year":2012,"month":7,"lon":-56.74581,"lat":-16.503145,"tags":"beige,brazil,d4,grass,grazing,horse,mato+grosso,morning,nature,nikon,pantanal,pretty,white","S2CellId":"88d0a631cabb5071","result":8563,"accuracy":0.35209128,"title":"Pantaneiro+horse","description":"Around+the+lodge%2C+there+were+also+quite+many+horses+%28that+one+could+ride%29%2C+here+is+one+of+them+grazing."}
