{"id":2825022974,"url":"http://farm4.staticflickr.com/3237/2825022974_f21560816d.jpg","path":"faf/db0/fafdb0926ba1bbdcbee238f3a5ee7d.jpg","date":"2008-08-10","year":2008,"month":8,"lon":11.116619,"lat":36.88992,"tags":"hammem,kitesurf,lerzez,tunisie","S2CellId":"1494400000000000","result":1224,"accuracy":0.04227272,"title":"IMG_3480"}
{"id":6339501331,"url":"http://farm7.staticflickr.com/6220/6339501331_7328481de6.jpg","path":"50f/787/50f787aaa9cb0b742a447978365648.jpg","date":"2009-09-01","year":2009,"month":9,"lon":11.995525,"lat":36.77031,"tags":"pantelleria,sunset,volcano","S2CellId":"0c41c00000000000","result":138,"accuracy":0.043712523,"title":"Sunset+over+Monte+Gibele","description":"At+the+end+of+a+hard+day%27s+work%2C+watching+the+sun+set+over+the+volcanic+dome+of+Monte+Gibele"}
{"id":2828334978,"url":"http://farm4.staticflickr.com/3184/2828334978_45912c98a1.jpg","path":"873/bb2/873bb27e1da423f6b817b007073d73c.jpg","date":"2008-08-15","year":2008,"month":8,"lon":11.116619,"lat":36.88992,"tags":"hammem,hammem+lerzez,lerzez,tunisie,windsurf","S2CellId":"1304000000000000","result":955,"accuracy":0.08242679,"title":"IMG_3722"}
{"id":6339516927,"url":"http://farm7.staticflickr.com/6097/6339516927_0272f71de5.jpg","path":"649/619/6496198b26ee452720c74db3a18861bb.jpg","date":"2009-09-08","year":2009,"month":9,"lon":11.975269,"lat":36.778355,"tags":"geology,pantelleria,uplift,volcano","S2CellId":"0d3b000000000000","result":328,"accuracy":0.06681895,"title":"Line+of+vents","description":"A+closer+look+at+the+line+of+vents+that+erupted+during+the+uplift+of+Montagne+Grande"}
{"id":6339503697,"url":"http://farm7.staticflickr.com/6215/6339503697_732727854d.jpg","path":"422/95f/42295fa727c9ba95b683d3d3f37aac83.jpg","date":"2009-08-30","year":2009,"month":8,"lon":11.997585,"lat":36.764122,"tags":"abandoned,fumarole,pantelleria,steam+baths,volcano","S2CellId":"6d6b000000000000","result":6849,"accuracy":0.10393053,"title":"Old+sauna","description":"Abandoned+steam+baths%2C+utilising+the+steam+from+the+volcanic+fumaroles+on+Pantelleria."}
{"id":2679467016,"url":"http://farm4.staticflickr.com/3181/2679467016_ab5c045502.jpg","path":"7e3/9e0/7e39e0aa1f7a758924467930897b3819.jpg","date":"2008-06-12","year":2008,"month":6,"lon":11.975612,"lat":36.832268,"tags":"isola,mare,pantelleria,sole,spiaggia","S2CellId":"1499cb0000000000","result":1232,"accuracy":0.1897339,"title":"PANTELLERIA","description":"dammuso"}
{"id":2828348030,"url":"http://farm4.staticflickr.com/3083/2828348030_f67111f7f8.jpg","path":"687/e30/687e30c7d97c249b93a169ab69dc8c0.jpg","date":"2008-08-15","year":2008,"month":8,"lon":11.116619,"lat":36.88992,"tags":"hammem,hammem+lerzez,lerzez,tunisie,windsurf","S2CellId":"1453000000000000","result":1198,"accuracy":0.0676603,"title":"IMG_3750"}
{"id":2828355940,"url":"http://farm4.staticflickr.com/3233/2828355940_08b7612629.jpg","path":"d1d/6c1/d1d6c149a5fd6335ee7843ec4cac933.jpg","date":"2008-08-15","year":2008,"month":8,"lon":11.116619,"lat":36.88992,"tags":"hammem,hammem+lerzez,lerzez,tunisie,windsurf","S2CellId":"8e83000000000000","result":9490,"accuracy":0.055839773,"title":"IMG_3769"}
{"id":2837726032,"url":"http://farm4.staticflickr.com/3098/2837726032_296f1af401.jpg","path":"507/fe7/507fe783b124968a9d1323f5b343.jpg","date":"2008-08-15","year":2008,"month":8,"lon":11.116619,"lat":36.88992,"tags":"hammam+lerzez","S2CellId":"1453000000000000","result":1198,"accuracy":0.047202565,"title":"IMG_3862"}
{"id":2828332652,"url":"http://farm4.staticflickr.com/3261/2828332652_154fd2346c.jpg","path":"e91/aa0/e91aa0dddab7d14bdb9b8db3ae69d9b.jpg","date":"2008-08-15","year":2008,"month":8,"lon":11.116619,"lat":36.88992,"tags":"hammem,hammem+lerzez,lerzez,tunisie,windsurf","S2CellId":"808e540000000000","result":7007,"accuracy":0.22917765,"title":"IMG_3708"}
{"id":1011875488,"url":"http://farm2.staticflickr.com/1302/1011875488_7134fc3a93.jpg","path":"fd1/4fd/fd14fdfdf13cd46c91e608b24c09023.jpg","date":"2007-07-09","year":2007,"month":7,"lon":11.973552,"lat":36.76048,"tags":"grotta+marina,mare,pantelleria,sea,sea+cave","S2CellId":"0c6a8c0000000000","result":153,"accuracy":0.038374316,"title":"Pantelleria%3A+dalla+barca"}
{"id":2838772299,"url":"http://farm4.staticflickr.com/3241/2838772299_992501e145.jpg","path":"46d/5a5/46d5a58bef712dfff73307a621747f3.jpg","date":"2008-08-15","year":2008,"month":8,"lon":11.116619,"lat":36.88992,"tags":"hammem+lerzez,tunisie,windsurf","S2CellId":"0c47c00000000000","result":145,"accuracy":0.063058786,"title":"IMG_3997"}
{"id":2837062594,"url":"http://farm4.staticflickr.com/3192/2837062594_67ea8fcee3.jpg","path":"c1b/1bb/c1b1bb5f88f36e9934a8ef59eae16.jpg","date":"2008-08-15","year":2008,"month":8,"lon":11.116619,"lat":36.88992,"tags":"hammem+lerzez,tunisie,windsurf","S2CellId":"808e540000000000","result":7007,"accuracy":0.10625904,"title":"IMG_3779"}
