{"id":4126532948,"url":"http://farm3.staticflickr.com/2770/4126532948_8f9880fe8b.jpg","path":"c34/615/c34615792ef4ea3e816b83a432b0bb.jpg","date":"2009-02-15","year":2009,"month":2,"lon":-116.23913,"lat":50.46122,"tags":"british+columbia,calgary,mountains,snowboard,vacation","S2CellId":"8752d00000000000","result":7833,"accuracy":0.01711976,"title":"backside+matt"}
{"id":4817370963,"url":"http://farm5.staticflickr.com/4121/4817370963_3eb9df96c6.jpg","path":"466/2a7/4662a7bb57e5ee96356fb7efeb8e88d.jpg","date":"2010-07-11","year":2010,"month":7,"lon":-116.240845,"lat":50.459927,"tags":"2010,canadian+dh+girls,canadian+national+championships,cyclingbc,dh+racing,panorama+mountain+village,raw","S2CellId":"47fb000000000000","result":4734,"accuracy":0.2856608,"title":"DSC_6752"}
{"id":7586175414,"url":"http://farm9.staticflickr.com/8288/7586175414_f60f960ae3.jpg","path":"378/0c7/3780c7b255798ff9ac5fbe82a79065bb.jpg","date":"2012-07-16","year":2012,"month":7,"lon":-116.067635,"lat":50.62371,"tags":"bc,fairmontcreekroad,highway,mudslide,tranbc","S2CellId":"5140000000000000","result":5964,"accuracy":0.045444362,"title":"Culvert+Cleared","description":"Culvert+cleared+on+Fairmont+Creek+Road.+It+was+plugged+with+a+large+rock.+%0A%0A%3Ca+href%3D%22http%3A%2F%2Fwww.tranbc.ca%22+rel%3D%22nofollow%22%3Ewww.tranbc.ca%3C%2Fa%3E"}
{"id":6267934856,"url":"http://farm7.staticflickr.com/6092/6267934856_ff90714270.jpg","path":"cb2/635/cb26352b897d6c427eecad7ab12bb4.jpg","date":"2011-08-13","year":2011,"month":8,"lon":-116.0333,"lat":50.635635,"tags":"bc+vacation+2011,radium,radium+hot+springs,stained+glass","S2CellId":"6d318a3000000000","result":6816,"accuracy":0.015038781,"title":"Arctic+Mountainscape","description":"2011+BC+Vacation%0A%0AReluctant+to+accept+that+our+holiday+was+coming+to+a+close%2C+we+couldn%27t+resist+a+detour+to+Radium+Hot+Springs+on+the+way+home.%0A%0AMore+stained+glass+artwork+at+the+hot+springs."}
{"id":4818015068,"url":"http://farm5.staticflickr.com/4074/4818015068_267f699b0d.jpg","path":"998/6e5/9986e51911d81675784d7fd90cac677.jpg","date":"2010-07-11","year":2010,"month":7,"lon":-116.240845,"lat":50.459927,"tags":"2010,canadian+dh+girls,canadian+national+championships,cyclingbc,dh+racing,panorama+mountain+village,raw","S2CellId":"4754000000000000","result":3297,"accuracy":0.030641131,"title":"DSC_6855"}
{"id":1455079671,"url":"http://farm2.staticflickr.com/1213/1455079671_cc9c7ea1df.jpg","path":"5f3/878/5f38780cdf8f9a7196decbd6c9725.jpg","date":"2007-09-22","year":2007,"month":9,"lon":-116.069916,"lat":50.61806,"tags":"bc,radiumhotsprings","S2CellId":"534fc00000000000","result":6031,"accuracy":0.15191634,"title":"CIMG2059"}
{"id":2402535312,"url":"http://farm3.staticflickr.com/2342/2402535312_ba47327b2d.jpg","path":"916/2d3/9162d3b2b24ba5b89db463c99c435cae.jpg","date":"2008-04-01","year":2008,"month":4,"lon":-116.07,"lat":50.62382,"tags":"bc,british,carving,columbia,crazy,guy,radium,windermere,wood,woodcarving","S2CellId":"47b3100000000000","result":4017,"accuracy":0.026642017,"title":"DSC_0274+%281%29"}
{"id":2516542763,"url":"http://farm4.staticflickr.com/3292/2516542763_1a73fc92b4.jpg","path":"306/aa2/306aa23697789db4a218cd46331d50.jpg","date":"2008-05-18","year":2008,"month":5,"lon":-116.02859,"lat":50.49776,"tags":"dale,invermere,kinsman+beach,vacation","S2CellId":"548ff00000000000","result":6177,"accuracy":0.015604523,"title":"IMG_1481"}
{"id":4817958666,"url":"http://farm5.staticflickr.com/4075/4817958666_98238c467e.jpg","path":"434/46f/43446fb6b15b28c27ebf2d45a5b538c3.jpg","date":"2010-07-11","year":2010,"month":7,"lon":-116.240845,"lat":50.459927,"tags":"2010,canadian+dh+girls,canadian+national+championships,cyclingbc,dh+racing,panorama+mountain+village,raw","S2CellId":"476dd00000000000","result":3375,"accuracy":0.057313867,"title":"DSC_6546"}
{"id":8641159618,"url":"http://farm9.staticflickr.com/8520/8641159618_2a1efb09a7.jpg","path":"759/6f3/7596f332fd5bce996defb2567f2a9c.jpg","date":"2013-04-11","year":2013,"month":4,"lon":-116.95873,"lat":50.162823,"tags":"bc+highway+31,bc+highways,bc+rock+fall,kootenay+lake,lardeau+bc","S2CellId":"5496c00000000000","result":6278,"accuracy":0.054569293,"title":"Follow+the+Rock%27s+Path+%231","description":"Crews+began+assessing+a+rock+fall+that+hit+BC+Highway+31%2C+just+south+of+Lardeau+on+April+11%2C+2013.%0A%0AThis+photo+shows+the+path+one+large+rock+took+on+its+way+to+Kootenay+Lake."}
{"id":4818008916,"url":"http://farm5.staticflickr.com/4100/4818008916_97047bf1fa.jpg","path":"65f/26e/65f26eb7b8e583919fef5eb40b8c0f4.jpg","date":"2010-07-11","year":2010,"month":7,"lon":-116.240845,"lat":50.459927,"tags":"2010,canadian+dh+girls,canadian+national+championships,cyclingbc,dh+racing,panorama+mountain+village,raw","S2CellId":"47fb000000000000","result":4734,"accuracy":0.07269069,"title":"DSC_6826"}
{"id":4817142499,"url":"http://farm5.staticflickr.com/4121/4817142499_ce2255153c.jpg","path":"39c/812/39c812b939d078d11476326b9eb3848.jpg","date":"2010-07-10","year":2010,"month":7,"lon":-116.240845,"lat":50.459927,"tags":"2010,canadian+dh+girls,canadian+national+championships,cyclingbc,dh+racing,panorama+mountain+village,raw","S2CellId":"89b110c000000000","result":8802,"accuracy":0.1622032,"title":"DSC_6453"}
{"id":7564680348,"url":"http://farm8.staticflickr.com/7127/7564680348_1e3c9d6fd2.jpg","path":"6db/298/6db298f15fee269d6c0494c9e9fd761.jpg","date":"2012-07-12","year":2012,"month":7,"lon":-116.86844,"lat":50.054493,"tags":"bcrescue,emergencybc,johnsonslanding,kaslo,kootenay,landslide,southerninteriorregion,tranbc","S2CellId":"5470000000000000","result":6094,"accuracy":0.10123624,"title":"Johnsons+Landing+Slide","description":"The+ministry+is+aiding+rescue+efforts+after+the+small+community+of+Johnsons+Landing%2C+on+Kootenay+Lake+near+Kaslo%2C+was+hit+by+a+large+landslide.+These+photos%2C+taken+during+a+ministry+geotechnical+assessment+July+12-13%2C+2012%2C+show+the+impact+of+the+slide.+++++++++%0A%0A%3Ca+href%3D%22http%3A%2F%2Fwww.tranbc.ca%22+rel%3D%22nofollow%22%3Ewww.tranbc.ca%3C%2Fa%3E"}
{"id":377110546,"url":"http://farm1.staticflickr.com/142/377110546_d3525e14b6.jpg","path":"587/e73/587e73d3c9dfe24ffaa0c07aa2b6d8af.jpg","date":"2006-04-28","year":2006,"month":4,"lon":-116.07519,"lat":50.62518,"tags":"british+columbiasheep,radium,rocky+mountain+sheeps,wildlife+photography","S2CellId":"47c4500000000000","result":4265,"accuracy":0.0048102,"title":"The+Boys+at+work.","description":"Cutting+edge+tech+at+the+condo."}
{"id":4817757868,"url":"http://farm5.staticflickr.com/4137/4817757868_762d7dbbf5.jpg","path":"4b2/b83/4b2b83830d1fe479547813dbade1fbe.jpg","date":"2010-07-10","year":2010,"month":7,"lon":-116.240845,"lat":50.459927,"tags":"2010,canadian+dh+girls,canadian+national+championships,cyclingbc,dh+racing,panorama+mountain+village,raw","S2CellId":"469c000000000000","result":3042,"accuracy":0.35405517,"title":"DSC_6420"}
{"id":4817364331,"url":"http://farm5.staticflickr.com/4074/4817364331_295ce87b3a.jpg","path":"d06/26f/d0626f1aab70cc27c6d29da43a4ec79c.jpg","date":"2010-07-11","year":2010,"month":7,"lon":-116.240845,"lat":50.459927,"tags":"2010,canadian+dh+girls,canadian+national+championships,cyclingbc,dh+racing,panorama+mountain+village,raw","S2CellId":"47fb000000000000","result":4734,"accuracy":0.1485342,"title":"DSC_6717"}
{"id":3754494890,"url":"http://farm4.staticflickr.com/3283/3754494890_fbfb651a63.jpg","path":"c29/2e4/c292e45e22845f9b6f5b664161d24c4.jpg","date":"2009-07-15","year":2009,"month":7,"lon":-116.07131,"lat":50.621586,"tags":"2009,canada,lussier+hot+springs,natural+hot+springs,road+trip","S2CellId":"134c100000000000","result":1170,"accuracy":0.04616538,"title":"Folks+chilling+in+the+Lussier+natural+hot+springs","description":"This+water+was+approximately+40+degrees+Celcius+%28104F%29.%0A%0ADon%27t+expect+to+rock+up+at+these+%22untouched%22+natural+hot+springs+after+20km+of+dirt-road+driving+into+a+remote+part+of+the+mountains+and+have+some+privacy+though."}
{"id":4817767068,"url":"http://farm5.staticflickr.com/4096/4817767068_5c9840f60d.jpg","path":"cd2/89c/cd289cf71e221bb6b4cc2f5ba555bd8a.jpg","date":"2010-07-11","year":2010,"month":7,"lon":-116.240845,"lat":50.459927,"tags":"2010,canadian+dh+girls,canadian+national+championships,cyclingbc,dh+racing,panorama+mountain+village,raw","S2CellId":"469c000000000000","result":3042,"accuracy":0.15301369,"title":"DSC_6486"}
