{"id":493284905,"url":"http://farm1.staticflickr.com/174/493284905_1b04533883.jpg","path":"ec4/4dc/ec44dc65a9d4067bd4ffb99c126.jpg","date":"2007-05-10","year":2007,"month":5,"lon":-90.44324,"lat":41.50302,"tags":"grandpa,memories,photobygisch","S2CellId":"86d6640000000000","result":7696,"accuracy":0.026694763,"title":"Untitled-14b.jpg"}
{"id":3946734048,"url":"http://farm3.staticflickr.com/2572/3946734048_a844484505.jpg","path":"18f/e8d/18fe8df5e6aa549122553eae5b4a3082.jpg","date":"2009-09-10","year":2009,"month":9,"lon":-90.68173,"lat":41.526154,"tags":"bird,bubo+virginianus,davenport,great+horned+owl,iowa,quad-cities,urban,west-lake-park","S2CellId":"88d0a631cabb5071","result":8563,"accuracy":0.042995777,"title":"Great+Horned+Owl+-+Front+%28Bubo+virginianus%29"}
{"id":528756622,"url":"http://farm2.staticflickr.com/1210/528756622_236d33388d.jpg","path":"272/5c5/2725c5e6f738d816a31c61da16ae569.jpg","date":"2007-06-03","year":2007,"month":6,"lon":-90.57489,"lat":41.599174,"tags":"%27hummer+hammer%27,2007,cycling","S2CellId":"87bd000000000000","result":7951,"accuracy":0.06200542,"title":"Hummer+Hammer+Crit"}
{"id":260440480,"url":"http://farm1.staticflickr.com/111/260440480_19628b6d2f.jpg","path":"2a8/adb/2a8adb916212dc1aa6513d2e4a534753.jpg","date":"2006-09-02","year":2006,"month":9,"lon":-90.54726,"lat":41.56932,"tags":"helene%27s+bat+mitzvah","S2CellId":"8824b00000000000","result":8226,"accuracy":0.033183053,"title":"CIMG1750"}
{"id":529148861,"url":"http://farm2.staticflickr.com/1026/529148861_4018c49df1.jpg","path":"f26/b52/f26b526e1b83696b478e327f8fa5f4ce.jpg","date":"2007-05-24","year":2007,"month":5,"lon":-90.44441,"lat":41.4485,"tags":"ape,gibbon,monkey,niabi+zoo,zoos","S2CellId":"39eb190000000000","result":2494,"accuracy":0.114722975,"title":"White-Handed+Gibbon","description":"My+first+experiment+with+off-camera+flash%2C+and+I+get+a+pose%21"}
{"id":5677162590,"url":"http://farm6.staticflickr.com/5261/5677162590_b967de12d9.jpg","path":"aed/ce6/aedce685da99771721b9cb3f551d5.jpg","date":"2011-04-26","year":2011,"month":4,"lon":-90.57498,"lat":41.51972,"tags":"2011,april,davenport,flood,iowa","S2CellId":"47e66dd000000000","result":4583,"accuracy":0.04308286,"title":"Davenport%2C+Iowa+Flood+-+April+2011"}
{"id":4021301022,"url":"http://farm3.staticflickr.com/2449/4021301022_bc57c20698.jpg","path":"5ec/652/5ec65293ac35e6618d4fa51d73316.jpg","date":"2009-10-17","year":2009,"month":10,"lon":-90.57146,"lat":41.45125,"tags":"bar,dive,illinois,liquor,neon,sign","S2CellId":"80dd317000000000","result":7376,"accuracy":0.011776001,"title":"Ed%27s","description":"A+hand+held+nite+shot+that+is+too+slow+and+unsteady.+I%27ll+be+back+for+this+again."}
{"id":5944008572,"url":"http://farm7.staticflickr.com/6130/5944008572_e76c08fc8f.jpg","path":"d34/b06/d34b065c1965ef5d8bff02e626e1af.jpg","date":"2011-07-14","year":2011,"month":7,"lon":-90.58133,"lat":41.519825,"tags":"baseball,minor+league,mississippi+river+bridge,qud+cities+river+bandits","S2CellId":"3442a87000000000","result":2035,"accuracy":0.04642705,"title":"Modern+Woodmen+Field","description":"Mississippi+River+Bridge+beside+Quad+Cities+River+Bandits%2C+Class+A+Minor+League+Baseball%2C+Modern+Woodmen+Field%2C+Davenport%2C+IA"}
{"id":10602539434,"url":"http://farm6.staticflickr.com/5487/10602539434_e8abeb3e5a.jpg","path":"4b2/766/4b27662343cd579463c7b5434b8de77.jpg","date":"2013-10-27","year":2013,"month":10,"lon":-90.56972,"lat":41.525734,"tags":"davenport,iowa,united+states","S2CellId":"87e3000000000000","result":8029,"accuracy":0.12971094,"title":"IMG_0664.JPG"}
{"id":2047639954,"url":"http://farm3.staticflickr.com/2258/2047639954_543f7ba873.jpg","path":"d1b/533/d1b533574b936818bd35432a80f2ca3d.jpg","date":"2007-06-24","year":2007,"month":6,"lon":-90.55245,"lat":41.55214,"tags":"davenport,disc+golf,eastern+avenue","S2CellId":"883cf00000000000","result":8371,"accuracy":0.027341219,"title":"eastern+avenue+3+pro+tee"}
{"id":4004145560,"url":"http://farm3.staticflickr.com/2540/4004145560_fee9468a46.jpg","path":"594/0cf/5940cfaaed2037f65b1fcff919fac4.jpg","date":"2009-10-09","year":2009,"month":10,"lon":-90.58365,"lat":41.521057,"tags":"davenport,dragonfly,iowa","S2CellId":"4786840000000000","result":3576,"accuracy":0.037202712,"title":"Dragonfly","description":"This+guy+didn%27t+look+injured+in+any+way%2C+but+he+wasn%27t+moving.+I+think+the+sudden+cold+was+slowly+doing+him+in."}
{"id":2047967914,"url":"http://farm3.staticflickr.com/2131/2047967914_16991508c1.jpg","path":"852/955/852955cedaeaf4d34c10652167e8bbe.jpg","date":"2007-06-24","year":2007,"month":6,"lon":-90.5758,"lat":41.495834,"tags":"disc+golf,longview,rock+island","S2CellId":"880e100000000000","result":8107,"accuracy":0.06163701,"title":"longview+6+tee"}
{"id":2684797931,"url":"http://farm4.staticflickr.com/3121/2684797931_ae5461d3f6.jpg","path":"5f1/e45/5f1e45fbcfe3a969ac71829efc1456e3.jpg","date":"2008-07-16","year":2008,"month":7,"lon":-90.18531,"lat":41.84915,"tags":"2008,alliant+energy+field,baseball,clinton,d300,fort+wayne,jowophoto,lumberkings,midwest+league,minor+league,mwl,mwlguide,padres,rangers,raw,riverview+stadium,san+diego,wizards","S2CellId":"3442a87000000000","result":2035,"accuracy":0.08053765,"title":"Lance+Zawadzki","description":"Fort+Wayne+%40+Clinton+07162008"}
{"id":2047969946,"url":"http://farm3.staticflickr.com/2081/2047969946_3155b56a16.jpg","path":"53b/0b2/53b0b2eedf3f3737115069a7cff020da.jpg","date":"2007-06-24","year":2007,"month":6,"lon":-90.5758,"lat":41.495834,"tags":"disc+golf,longview,rock+island","S2CellId":"880e100000000000","result":8107,"accuracy":0.014815752,"title":"longview+8+hole"}
{"id":529068562,"url":"http://farm2.staticflickr.com/1090/529068562_f6450d7cec.jpg","path":"79d/752/79d752927e1106025db2eaeb1c6b0fb.jpg","date":"2007-05-24","year":2007,"month":5,"lon":-90.44441,"lat":41.4485,"tags":"baby,niabi+zoo,wallaby,zoos","S2CellId":"60188c3000000000","result":6489,"accuracy":0.008980196,"title":"Bennet%27s+Wobbly","description":"There%27s+a+baby+there%21++If+it+looks+odd%2C+it%27s+because+both+his+head+and+feet+are+sticking+out."}
{"id":2065346126,"url":"http://farm3.staticflickr.com/2233/2065346126_112e84dc16.jpg","path":"229/798/229798bcba79a92a51b627d4e4e2c2f.jpg","date":"2007-11-24","year":2007,"month":11,"lon":-90.68448,"lat":41.523052,"tags":"davenport,disc+golf,west+lake","S2CellId":"889d000000000000","result":8525,"accuracy":0.030919494,"title":"West+Lake+13+am+tee"}
{"id":8030375182,"url":"http://farm9.staticflickr.com/8311/8030375182_72a1fc8dc4.jpg","path":"e9d/f9a/e9df9a01b7f81c38ae278c6749c27be.jpg","date":"2012-09-15","year":2012,"month":9,"lon":-90.571815,"lat":41.521976,"tags":"city,derby,iowa,mid,quad,roller,rollers","S2CellId":"8840400000000000","result":8378,"accuracy":0.014183274,"title":"Roller+Derby+3","description":"Quad+City+Rollers+vs.+Mid-Iowa+Rollers+in+Davenport%2C+IA"}
{"id":528854429,"url":"http://farm2.staticflickr.com/1227/528854429_d1f43a51e0.jpg","path":"f1d/6c4/f1d6c412954a960e9fb6a82ebc975ef.jpg","date":"2007-06-03","year":2007,"month":6,"lon":-90.57489,"lat":41.599174,"tags":"%27hummer+hammer%27,2007,cycling","S2CellId":"87c0400000000000","result":7965,"accuracy":0.23699579,"title":"Hummer+Hammer+Crit"}
{"id":3324374356,"url":"http://farm4.staticflickr.com/3373/3324374356_08cdf66592.jpg","path":"21f/aae/21faae6e4a33e45ec44d061e63f4350.jpg","date":"2009-02-28","year":2009,"month":2,"lon":-90.49156,"lat":41.507668,"tags":"cemetery,february,graves,gravestones,illinois,moline,pauper,poor,quad+cities,riverside,riverside+cemetery,rock+island+county,tombstones,trees,winter","S2CellId":"89b4400000000000","result":8820,"accuracy":0.019384721,"title":"Riverside+paupers","description":"This+section+is+only+a+few+yards+from+the+Deere+family+plots."}
{"id":2047517688,"url":"http://farm3.staticflickr.com/2066/2047517688_f3b1f8debc.jpg","path":"8a1/fad/8a1fad6b69d094666b599218b1df6e.jpg","date":"2007-06-24","year":2007,"month":6,"lon":-90.48232,"lat":41.53425,"tags":"bettendorf,devils+glen,disc+golf","S2CellId":"47e0c00000000000","result":4528,"accuracy":0.017549915,"title":"devils+glen+3+hole"}
{"id":2685034059,"url":"http://farm4.staticflickr.com/3200/2685034059_de4da74824.jpg","path":"2ee/49d/2ee49d12eea9cdc484edd54b15916d1.jpg","date":"2008-07-16","year":2008,"month":7,"lon":-90.18531,"lat":41.84915,"tags":"2008,alliant+energy+field,baseball,clinton,d300,fort+wayne,jowophoto,lumberkings,midwest+league,minor+league,mwl,mwlguide,padres,rangers,raw,riverview+stadium,san+diego,wizards","S2CellId":"864c240000000000","result":7608,"accuracy":0.11593045,"title":"Mitch+Moreland","description":"Fort+Wayne+%40+Clinton+07162008"}
{"id":4804674301,"url":"http://farm5.staticflickr.com/4077/4804674301_91282b55c0.jpg","path":"b63/7fa/b637faf8f5c8aeeddfe269ba85432996.jpg","date":"2010-05-31","year":2010,"month":5,"lon":-90.512924,"lat":41.51568,"tags":"interstate+74+bridge,mississippi+river","S2CellId":"487604c7c0000000","result":5225,"accuracy":0.023114411,"title":"I74+-2","description":"Interstate+74+bridge+over+Mississippi+River+between+Davenport%2C+IA+and+Moline%2C+IL."}
{"id":5848073290,"url":"http://farm3.staticflickr.com/2626/5848073290_9f9a3cc666.jpg","path":"477/ab6/477ab6c5393c8c059a275fe286164e8.jpg","date":"2011-06-19","year":2011,"month":6,"lon":-90.60476,"lat":41.58956,"tags":"air+show,blue+angels,jet","S2CellId":"8864100000000000","result":8456,"accuracy":0.029564634}
{"id":2047633916,"url":"http://farm3.staticflickr.com/2359/2047633916_361f7ac116.jpg","path":"99e/c84/99ec8472fe819fc77b19322f18e2658b.jpg","date":"2007-06-24","year":2007,"month":6,"lon":-90.55245,"lat":41.55214,"tags":"davenport,disc+golf,eastern+avenue","S2CellId":"880f700000000000","result":8151,"accuracy":0.07816169,"title":"eastern+avenue+2+tee"}
{"id":5847521913,"url":"http://farm6.staticflickr.com/5038/5847521913_43c1beec33.jpg","path":"dc6/829/dc68298668b4aa20631c464174f0.jpg","date":"2011-06-19","year":2011,"month":6,"lon":-90.60476,"lat":41.58956,"tags":"air+show,blue+angels,jet","S2CellId":"4743c00000000000","result":3287,"accuracy":0.06309797}
{"id":4004274992,"url":"http://farm3.staticflickr.com/2455/4004274992_f88407335b.jpg","path":"503/7a6/5037a65a3186db7dccdbd66e7b181d.jpg","date":"2009-10-10","year":2009,"month":10,"lon":-90.87663,"lat":41.467197,"tags":"iowa,jaron,wildcatdenstatepark","S2CellId":"8867000000000000","result":8472,"accuracy":0.026814736,"title":"Climbing"}
{"id":529159205,"url":"http://farm2.staticflickr.com/1219/529159205_5c8d4be5fe.jpg","path":"854/6ec/8546eca65932843e10d5552cef8894e5.jpg","date":"2007-05-24","year":2007,"month":5,"lon":-90.44441,"lat":41.4485,"tags":"niabi+zoo,reptile,tortoise,zoos","S2CellId":"9aab000000000000","result":9926,"accuracy":0.09043205,"title":"Leopard+Tortoise","description":"There+was+a+LOT+of+glare+here.++Interestingly+enough%2C+a+bit+of+off-camera+flash+and+it+all+just+goes+away."}
{"id":2994790156,"url":"http://farm4.staticflickr.com/3183/2994790156_9bf1cd2edc.jpg","path":"593/aeb/593aebab401cdbbe2bc7a5d0753bf3a0.jpg","date":"2008-10-31","year":2008,"month":10,"lon":-90.47756,"lat":41.50755,"tags":"abn,aerobroken,halloween2008,qca,quadcities,tannrr","S2CellId":"80c2840000000000","result":7140,"accuracy":0.19874899,"title":"DSC02458"}
{"id":9939723393,"url":"http://farm6.staticflickr.com/5533/9939723393_0932d10ced.jpg","path":"bdc/0ce/bdc0ce9b3c13ae5c59f617c1b0a1dda6.jpg","date":"2013-09-01","year":2013,"month":9,"lon":-90.5754,"lat":41.520493,"tags":"2013,iowa","S2CellId":"87938c0000000000","result":7916,"accuracy":0.03984151,"title":"Davenport%2C+Iowa%2C+2013"}
{"id":2685538648,"url":"http://farm4.staticflickr.com/3268/2685538648_1953cc429b.jpg","path":"bf4/95a/bf495ab638385db7fc1d59f98df372c.jpg","date":"2008-07-16","year":2008,"month":7,"lon":-90.18531,"lat":41.84915,"tags":"2008,alliant+energy+field,baseball,clinton,d300,fort+wayne,jowophoto,lumberkings,midwest+league,minor+league,mwl,mwlguide,padres,rangers,raw,riverview+stadium,san+diego,wizards","S2CellId":"357bc00000000000","result":2299,"accuracy":0.10615559,"title":"Tim+Smith","description":"Fort+Wayne+%40+Clinton+07162008"}
{"id":25632846,"url":"http://farm1.staticflickr.com/22/25632846_a6c94fb733.jpg","path":"789/5f7/7895f72322bc845744bfd54cf1389628.jpg","date":"2005-07-07","year":2005,"month":7,"lon":-90.45045,"lat":41.50997,"tags":"black+eyed+susan,flora,illinois","S2CellId":"6d318a3000000000","result":6816,"accuracy":0.25337058,"title":"Black+Eyed+Susan%2C+Head-on"}
{"id":1939474281,"url":"http://farm3.staticflickr.com/2124/1939474281_de5a84d9c4.jpg","path":"109/318/109318e0bb78229551a92845356f639.jpg","date":"2006-04-15","year":2006,"month":4,"lon":-90.586426,"lat":41.516773,"tags":"bridge,centennial,davenport,illinois,iowa,mississippi+river,rock+island","S2CellId":"47c7100000000000","result":4371,"accuracy":0.07722117,"title":"Centennial+Bridge+1","description":"Centennial+Bridge+%28US+67%29%2C+connecting+Davenport%2C+Iowa+to+Rock+Island%2C+Illinois+taken+from+Centennial+Park%2C+Davenport"}
{"id":4952399651,"url":"http://farm5.staticflickr.com/4147/4952399651_ff2eea437b.jpg","path":"919/cfb/919cfb9e84e826d32d2f9d6c94dc80.jpg","date":"2007-01-01","year":2007,"month":1,"lon":-90.521355,"lat":41.50739,"tags":"asian+elephant,cicrus+elephant,circus,elephant,i+wireless+center,illinois,moline,picnic+with+the+elephants,quad+cities,ringling+brothers+and+barnum+and+bailey+circus,the+greatest+show+on+earth","S2CellId":"1ed0000000000000","result":1478,"accuracy":0.083962575,"title":"Eating+a+Cantaloupe"}
{"id":537776531,"url":"http://farm2.staticflickr.com/1299/537776531_03ee56dc6e.jpg","path":"545/d17/545d175a9ad2ae1507e45b7e7d26629.jpg","date":"2007-05-28","year":2007,"month":5,"lon":-90.34274,"lat":41.580894,"tags":"flower,illinois","S2CellId":"89c2f34000000000","result":9103,"accuracy":0.009086899,"title":"Columbine"}
{"id":2049124414,"url":"http://farm3.staticflickr.com/2286/2049124414_7167f40d10.jpg","path":"c0b/0ee/c0b0eec0909b8e5d8b19b0dddb619914.jpg","date":"2007-11-17","year":2007,"month":11,"lon":-90.574295,"lat":41.511696,"tags":"homebrew,illinois,lotmw,mugz,rock+island","S2CellId":"0d4228d000000000","result":378,"accuracy":0.0044821207,"title":"Land+of+the+Muddy+Waters","description":"Dump+bucket+in+action.%0A%0ALand+of+the+Muddy+Waters+Best+of+Show+judging"}
{"id":732046982,"url":"http://farm2.staticflickr.com/1391/732046982_05f8d98b90.jpg","path":"e8f/91c/e8f91c131963bd11d8517ff8952914.jpg","date":"2007-07-02","year":2007,"month":7,"lon":-90.575775,"lat":41.519173,"tags":"davenport,ia,mississippi,river,skybridge","S2CellId":"3442af4000000000","result":2091,"accuracy":0.10632827,"title":"Skybridge+Viewa"}
{"id":2564810559,"url":"http://farm4.staticflickr.com/3141/2564810559_1aeb6f7b99.jpg","path":"36e/571/36e571e553ce17a258c17f6796b76742.jpg","date":"2008-06-08","year":2008,"month":6,"lon":-90.5035,"lat":41.525978,"tags":"2008,bettendorf,construction,construction+materials,insulation,iowa,june,quad+cities,rain,scott+county,spring,spring+storm,storm,storm+damage,twtme_sh180836,wind","S2CellId":"4887c79400000000","result":5717,"accuracy":0.0034007768,"title":"far-flung+insulation","description":"Storm+damage%2C+06%2F08%2F08%2C+Bettendorf%2C+Iowa.+This+insulation+is+from+a+construction+site+over+a+block+away."}
{"id":2046693785,"url":"http://farm3.staticflickr.com/2040/2046693785_aa3044e03d.jpg","path":"4c8/711/4c8711ecd7f2b3ec01ed5a623f3a56f.jpg","date":"2007-06-24","year":2007,"month":6,"lon":-90.56279,"lat":41.423275,"tags":"camden,disc+golf,milan","S2CellId":"8840400000000000","result":8378,"accuracy":0.013403129,"title":"camden+17+tee"}
{"id":9939226444,"url":"http://farm3.staticflickr.com/2861/9939226444_2d94788700.jpg","path":"ceb/fc9/cebfc915756f7a7a7be0e77a4acfd3.jpg","date":"2013-09-01","year":2013,"month":9,"lon":-90.33414,"lat":41.305214,"tags":"2013,highway,i-74,illinois","S2CellId":"879c000000000000","result":7927,"accuracy":0.13294308,"title":"I-74%2C+Ill.%2C+2013","description":"Driving+west+on+I-74+between+Peoria+and+the+Quad+Cities."}
{"id":2047213309,"url":"http://farm3.staticflickr.com/2325/2047213309_78e12b7ef3.jpg","path":"3a9/7cb/3a97cb02cfd7d36445bed346d56b78e.jpg","date":"2007-06-24","year":2007,"month":6,"lon":-90.499794,"lat":41.54424,"tags":"bettendorf,disc+golf,middle+park","S2CellId":"880e100000000000","result":8107,"accuracy":0.10942719,"title":"middle+park+18+tee"}
{"id":4622157824,"url":"http://farm4.staticflickr.com/3381/4622157824_229dcee466.jpg","path":"b9d/ab2/b9dab2a6bae923f449fa861d87cefb32.jpg","date":"2009-12-22","year":2009,"month":12,"lon":-90.50537,"lat":41.449802,"tags":"2009,airport,birds,illinois,moline","S2CellId":"89b7b78500000000","result":8853,"accuracy":0.017994551,"title":"birds+in+the+airport"}
{"id":4755993149,"url":"http://farm5.staticflickr.com/4140/4755993149_92ba859d5e.jpg","path":"52b/ac6/52bac693d177c52ab2ccdc8eafd54d.jpg","date":"2010-07-02","year":2010,"month":7,"lon":-90.56871,"lat":41.49572,"tags":"elsa+sundberg,illinois,rock+island","S2CellId":"4744400000000000","result":3288,"accuracy":0.16845371,"title":"Elsa+Sundberg+in+Rock+Island%2C+IL"}
{"id":2456154794,"url":"http://farm4.staticflickr.com/3231/2456154794_74c4da4c3c.jpg","path":"cc6/abb/cc6abb9a984f0b427515dcd9dbcbcaa.jpg","date":"2008-04-30","year":2008,"month":4,"lon":-90.51685,"lat":41.523422,"tags":"2008,bettendorf,flood,iowa,leach+park,mississippi+river,mississippi+river+2008+spring+flood,quad+cities,riverway+trail,spring","S2CellId":"8803c00000000000","result":8071,"accuracy":0.007088329,"title":"100_4642"}
{"id":2047206255,"url":"http://farm3.staticflickr.com/2040/2047206255_5386d54466.jpg","path":"ed6/548/ed6548c202010887df09fc35f0da51.jpg","date":"2007-06-24","year":2007,"month":6,"lon":-90.499794,"lat":41.54424,"tags":"bettendorf,disc+golf,middle+park","S2CellId":"880e100000000000","result":8107,"accuracy":0.030245308,"title":"middle+park+15+halfway"}
{"id":528775528,"url":"http://farm2.staticflickr.com/1200/528775528_395930ccd6.jpg","path":"ae3/4bb/ae34bbdd596c7b338cecee9e98d224a.jpg","date":"2007-06-03","year":2007,"month":6,"lon":-90.57489,"lat":41.599174,"tags":"%27hummer+hammer%27,2007,cycling","S2CellId":"88e0ac0000000000","result":8646,"accuracy":0.013208379,"title":"Hummer+Hammer+Crit"}
