{"id":3113662899,"url":"http://farm4.staticflickr.com/3185/3113662899_55608a42ea.jpg","path":"2d3/6d4/2d36d417920289f134c22f79dd85.jpg","date":"2007-08-13","year":2007,"month":8,"lon":19.919415,"lat":39.62215,"tags":"corfu,greece,holiday,island,sun","S2CellId":"135b400000000000","result":1184,"accuracy":0.2635386,"title":"DSC00760"}
{"id":8058010335,"url":"http://farm9.staticflickr.com/8452/8058010335_5bd645ce3d.jpg","path":"d9a/6bf/d9a6bf7c41dfb5f16d2bc654430bf92.jpg","date":"2012-09-21","year":2012,"month":9,"lon":19.914265,"lat":39.546345,"tags":"1.facebook,1.flickr,1.keith+laverack,a320+-+214,airbus,benitses,benitses+2012,blurred,corfu,corfu+2012,easy+jet,high+quality,low+contrast","S2CellId":"487673c000000000","result":5371,"accuracy":0.14230193,"title":"2012+09+21_Corfu+Holiday_0636","description":"2012+09+21+Easyjet+AIRBUS+A320-214+passing+Benitses+on+way+to+Corfu+Airport"}
{"id":8009764847,"url":"http://farm9.staticflickr.com/8305/8009764847_5e19e348ff.jpg","path":"759/03a/75903a76d853f3a31c1dd5ae4945269b.jpg","date":"2012-09-16","year":2012,"month":9,"lon":19.707981,"lat":39.67323,"tags":"corfu,greece,holiday,paleokastritsa,sea,semi-submersible,trip,vacation","S2CellId":"0d36100000000000","result":308,"accuracy":0.03765611,"title":"Yellow+Submarine","description":"Not+everyday+that+you+see+a+car+driving+behind+a+yellow+submarine%21"}
{"id":8075051526,"url":"http://farm8.staticflickr.com/7140/8075051526_2f6c3bbf0b.jpg","path":"739/f71/739f71c32e42ddf39cefe88111e51cd.jpg","date":"2012-09-25","year":2012,"month":9,"lon":19.912376,"lat":39.54714,"tags":"1.facebook,1.flickr,1.keith+laverack,benitses,benitses+2012,blurred,clouds,corfu,corfu+2012,high+quality,low+contrast","S2CellId":"88d0a631cabb5071","result":8563,"accuracy":0.018085767,"title":"2012+09+25_Corfu+Holiday_0248","description":"2012+09+25+Clouds+over+Benitses+Corfu"}
{"id":8198390953,"url":"http://farm9.staticflickr.com/8208/8198390953_c5bfd49943.jpg","path":"ddb/da0/ddbda040f3afa092f6915cc118e73678.jpg","date":"2012-09-06","year":2012,"month":9,"lon":19.907913,"lat":39.791656,"tags":"mg_6821","S2CellId":"133b9c0000000000","result":1149,"accuracy":0.018466465,"title":"Baignade"}
{"id":8441517746,"url":"http://farm9.staticflickr.com/8195/8441517746_e511159a1d.jpg","path":"749/5df/7495dfac1574d3bfcc18b905b73c3.jpg","date":"2008-05-26","year":2008,"month":5,"lon":19.923683,"lat":39.624138,"tags":"corfu,greece,kerkyra,old+city","S2CellId":"135b400000000000","result":1184,"accuracy":0.735216}
{"id":4924577980,"url":"http://farm5.staticflickr.com/4082/4924577980_974f370348.jpg","path":"7cf/852/7cf852f1a14cc128b8e46eb3d7c4ae76.jpg","date":"2010-07-14","year":2010,"month":7,"lon":19.918491,"lat":39.62225,"tags":"corfou,kerkyra","S2CellId":"149b400000000000","result":1238,"accuracy":0.04291715,"title":"Ruelle+et+glycine","description":"Ruelle+et+glycine"}
{"id":8082339185,"url":"http://farm9.staticflickr.com/8334/8082339185_39e247edd5.jpg","path":"669/b62/669b628f7ae73ffc86d9f66ac9a8bcf0.jpg","date":"2012-09-26","year":2012,"month":9,"lon":19.93967,"lat":39.550846,"tags":"1.facebook,1.flickr,1.keith+laverack,benitses,benitses+2012,blurred,corfu,corfu+2012,high+quality,low+contrast,sunrise,sunset+%2F+sunrise","S2CellId":"961c000000000000","result":9868,"accuracy":0.037873536,"title":"2012+09+26_Corfu+Holiday_0160","description":"2012+09+26+Sunrise+at+Benitses+Corfu"}
{"id":8440589419,"url":"http://farm9.staticflickr.com/8518/8440589419_0005a3a36d.jpg","path":"9d8/636/9d8636f9cbce1b652fef6ca731cf0.jpg","date":"2011-07-09","year":2011,"month":7,"lon":19.923567,"lat":39.62419,"tags":"corfu,greece,kerkyra,old+city","S2CellId":"135b400000000000","result":1184,"accuracy":0.13510087}
{"id":7171804440,"url":"http://farm8.staticflickr.com/7095/7171804440_5d761964af.jpg","path":"48b/76f/48b76f47a49c8d74272b62a4ee6b4fe2.jpg","date":"2012-05-09","year":2012,"month":5,"lon":19.913433,"lat":39.607403,"tags":"%CE%B1%CE%B5%CF%81%CE%BF%CE%B4%CF%81%CF%8C%CE%BC%CE%B9%CE%BF,%CE%B1%CE%B5%CF%81%CE%BF%CF%80%CE%BB%CE%AC%CE%BD%CE%BF,a320,aegean,airbus,airlines,airplane,corfu,corfuplanespotting,flight,flying,greece,kapodistrias,plane,tarmac","S2CellId":"80c2b10000000000","result":7156,"accuracy":0.077451564,"title":"Aegean+airlines+%40+Corfu+airport"}
{"id":2780785363,"url":"http://farm4.staticflickr.com/3033/2780785363_e025bb5aa1.jpg","path":"f55/3ef/f553ef26f77f6714c827e12a6a816a.jpg","date":"2008-08-20","year":2008,"month":8,"lon":19.845428,"lat":39.608864,"tags":"corfu,paleokastritsa+corfu","S2CellId":"1314140000000000","result":970,"accuracy":0.10692759,"title":"Corfu"}
{"id":11162366705,"url":"http://farm4.staticflickr.com/3691/11162366705_acec64aba7.jpg","path":"481/0fc/4810fc11374d630a3ecdb16ad3ed10.jpg","date":"2013-11-26","year":2013,"month":11,"lon":19.90173,"lat":39.63016,"tags":"greece,kerkira,peloponnisos+dytiki+ellada+ke+io,peloponnisos+dytiki+ellada+ke+ionio","S2CellId":"135b400000000000","result":1184,"accuracy":0.10019864,"title":"D7K_7609.jpg"}
{"id":8439879247,"url":"http://farm9.staticflickr.com/8504/8439879247_56eed0b667.jpg","path":"aff/248/aff24812fc4ce7541f5f88623d9f33b6.jpg","date":"2011-07-09","year":2011,"month":7,"lon":19.666473,"lat":39.78791,"tags":"coast,corfu,greece,kerkyra,logas+beach,petroulades","S2CellId":"0d11400000000000","result":180,"accuracy":0.039798982}
{"id":5090531086,"url":"http://farm5.staticflickr.com/4089/5090531086_2ce038e829.jpg","path":"b3e/5a6/b3e5a66c446387c8f4ed13c9a9374580.jpg","date":"2010-05-30","year":2010,"month":5,"lon":19.929623,"lat":39.623585,"tags":"%CE%BA%CE%AD%CF%81%CE%BA%CF%85%CF%81%CE%B1,corfu,corfu%2C+corfu,cruise,greece,ionian+islands,k%C3%A9rkyra,onflickr","S2CellId":"133bbc0000000000","result":1153,"accuracy":0.023729194,"title":"Outline+of+a+former+garden","description":"According+to+the+sparse+but+helpful+signs%2C+this+was+a+medicinal+herb+garden+for+the+Old+Fortress."}
{"id":9704705985,"url":"http://farm4.staticflickr.com/3773/9704705985_60360b3be4.jpg","path":"347/341/34734139f08aa2e2738c11ab43a3e17.jpg","date":"2013-08-28","year":2013,"month":8,"lon":19.917524,"lat":39.586575,"tags":"corfu,greece,kerkira,nature,peloponnisos+dytiki+ellada+ke+io,peloponnisos+dytiki+ellada+ke+ionio,places,sea,themes","S2CellId":"135b400000000000","result":1184,"accuracy":0.57179207,"title":"Pontikonisi+Island"}
{"id":198857041,"url":"http://farm1.staticflickr.com/69/198857041_1e06b51482.jpg","path":"63f/a63/63fa636cc965d197ad237b3974503c16.jpg","date":"2006-07-26","year":2006,"month":7,"lon":19.729385,"lat":39.756165,"tags":"corfu,hdr","S2CellId":"0d71e40000000000","result":573,"accuracy":0.024256065,"title":"Graveyard%2C+Aremenades%2C+North+West+Corfu"}
{"id":2943671051,"url":"http://farm4.staticflickr.com/3059/2943671051_07401f1111.jpg","path":"50d/54c/50d54cff3484a9d24259f607d154.jpg","date":"2008-10-15","year":2008,"month":10,"lon":19.79187,"lat":39.649548,"tags":"1916,1918,corfu,krf,prvi,rat,serbian,soliders,srpski,vojnici,ww","S2CellId":"882e400000000000","result":8277,"accuracy":0.039156284,"title":"Serbian+soliders+in+I+WW","description":"Photography+taken+at+museum+%22Serbs+on+Corfu+from+1916+-1918%22"}
{"id":5920156486,"url":"http://farm7.staticflickr.com/6133/5920156486_815785cdf3.jpg","path":"17f/845/17f845ecdd6db3734829cd4d4ae026bb.jpg","date":"2011-05-26","year":2011,"month":5,"lon":19.903725,"lat":39.562492,"tags":"ach%C3%ADlleion,grc,griechenland,kerkyra,kerkyras","S2CellId":"85cfd00000000000","result":7456,"accuracy":0.022264276,"title":"Ach%C3%ADlleion+-+Kerkyras+%2F+Corfu+-+Griechenland"}
{"id":4735304384,"url":"http://farm5.staticflickr.com/4101/4735304384_5a49f56bae.jpg","path":"94b/d1d/94bd1dc9f926a4c1cc25b33d40a07d.jpg","date":"2010-06-20","year":2010,"month":6,"lon":19.92405,"lat":39.6271,"tags":"corfu,grecia,greece,kerkyra,massimiliano+pinucci,max+pinucci,unesco","S2CellId":"4797c40000000000","result":3769,"accuracy":0.0045581707,"title":"Corf%C3%B9%3A+bar+window"}
{"id":4841079148,"url":"http://farm5.staticflickr.com/4109/4841079148_cbfd1abdfd.jpg","path":"378/322/378322acb07b24e2db24b98f28937e.jpg","date":"2010-07-24","year":2010,"month":7,"lon":19.578794,"lat":39.878513,"tags":"corfu,erikousa","S2CellId":"4763000000000000","result":3311,"accuracy":0.038591072,"title":"Erikousa+Island+3"}
{"id":3635840517,"url":"http://farm3.staticflickr.com/2427/3635840517_0c34d664c8.jpg","path":"eb5/f05/eb5f056f7e134817236acdd8d570a0.jpg","date":"2009-06-09","year":2009,"month":6,"lon":19.827404,"lat":39.58307,"tags":"art,nature","S2CellId":"1317000000000000","result":977,"accuracy":0.08562182,"title":"Pelekas"}
{"id":4540659827,"url":"http://farm3.staticflickr.com/2796/4540659827_f3a93e09f0.jpg","path":"d98/373/d98373156e404980d5ebd4fb5bbbd6d2.jpg","date":"2006-06-19","year":2006,"month":6,"lon":19.925465,"lat":39.62201,"tags":"corfu,greece,sea,yacht","S2CellId":"14be400000000000","result":1281,"accuracy":0.27223668,"title":"Yachts"}
{"id":4924188655,"url":"http://farm5.staticflickr.com/4076/4924188655_3e8e5eb420.jpg","path":"d39/1b1/d391b144f7a7dfa169e82c96fc3699.jpg","date":"2010-08-24","year":2010,"month":8,"lon":19.918491,"lat":39.62225,"tags":"corfou","S2CellId":"47a6700000000000","result":3889,"accuracy":0.0056566694,"title":"Bon+%C3%A0+manger+%21","description":"Tarte+au+fromage%2C+tomate+et+tarte+courgette%2C+jus+d%27orange+fra%C3%AEchement+press%C3%A9+%28miam%21%29%2C+salade+grecque+et+fritures+de+poisson+et+autres+calmars."}
{"id":6514819767,"url":"http://farm8.staticflickr.com/7149/6514819767_b3e3bfc4ab.jpg","path":"f4e/dac/f4edac5bdb40b4ad18225e54fbad48d5.jpg","date":"2011-07-11","year":2011,"month":7,"lon":19.913578,"lat":39.620235,"tags":"corfu,corfu+town,korfu,tamron+sp+af+17-35+mm+f%2F2.8-4+di+ld+aspherical+%28if%29","S2CellId":"12e7300000000000","result":948,"accuracy":0.062803715,"title":"IMGP4467","description":"Corfu+-+Corfu+Town%0A07%272011%0Atrip+from+Saranda"}
{"id":5809171094,"url":"http://farm4.staticflickr.com/3284/5809171094_de647eb3eb.jpg","path":"cf8/fe1/cf8fe1273bf75153c1786792ba7f149.jpg","date":"2011-06-01","year":2011,"month":6,"lon":19.714794,"lat":39.672066,"tags":"%CE%BA%CE%AD%CF%81%CE%BA%CF%85%CF%81%CE%B1,burners,cadelnita,christianity,church,corfu,greece,hellas,incense,k%C3%A9rkyra,korfu,monastery,orthodox,paleokastritsa,religion,theotokos","S2CellId":"0d126c1400000000","result":190,"accuracy":0.0152152,"title":"Incense+burners","description":"Paleokastritsa+Monastery%2C+Corfu"}
{"id":8064685956,"url":"http://farm9.staticflickr.com/8034/8064685956_a241d91d7a.jpg","path":"779/59c/77959ced7e125a376b4ad396a70249b.jpg","date":"2012-09-23","year":2012,"month":9,"lon":19.913363,"lat":39.54701,"tags":"1.facebook,1.flickr,1.keith+laverack,benitses,benitses+2012,boats+%26+ships,corfu,corfu+2012,high+quality,in+focus,sailing+boat","S2CellId":"135b400000000000","result":1184,"accuracy":0.03695691,"title":"2012+09+23_Corfu+Holiday_0420","description":"2012+09+23+Sailing+Boat+sat+off+Benitses+Corfu"}
{"id":5639549384,"url":"http://farm6.staticflickr.com/5309/5639549384_733586db21.jpg","path":"825/ef5/825ef5f1295b856287b2bab0af4dba.jpg","date":"2009-09-08","year":2009,"month":9,"lon":19.709473,"lat":39.67519,"tags":"%CE%B5%CE%BB%CE%BB%CE%AC%CE%B4%CE%B1,%CE%BA%CE%AD%CF%81%CE%BA%CF%85%CF%81%CE%B1,%CF%80%CE%B1%CE%BB%CE%B1%CE%B9%CE%BF%CE%BA%CE%B1%CF%83%CF%84%CF%81%CE%AF%CF%84%CF%83%CE%B1,agios+spyridon,beach,boats,canon+450d+xsi,canon+xsi,corfu,ell%C3%A1da,flora,greece,ionian+sea,islands,k%C3%A9rkyra,ocean,palaiokastritsa,paleokastritsa,runintherain,trees,water","S2CellId":"12cbc00000000000","result":869,"accuracy":0.12356776,"title":"View+of+Agios+Spyridon+beach%2C+driving+up+to+Theotokos+Monastery+in+Corfu"}
{"id":3823175354,"url":"http://farm3.staticflickr.com/2465/3823175354_86cdd42812.jpg","path":"67c/a99/67ca99db8d3112bd85ea606022123ccd.jpg","date":"2009-08-05","year":2009,"month":8,"lon":19.941216,"lat":39.755306,"tags":"2009,corfu,kaminaki","S2CellId":"4763000000000000","result":3311,"accuracy":0.14420894,"title":"DSC00681.JPG"}
{"id":4924579796,"url":"http://farm5.staticflickr.com/4116/4924579796_5215551cf9.jpg","path":"c1b/881/c1b8817e876948a13df56d333fd2c.jpg","date":"2010-07-14","year":2010,"month":7,"lon":19.93068,"lat":39.62397,"tags":"corfou,kerkyra","S2CellId":"12ce900000000000","result":891,"accuracy":0.25608182,"title":"Corfou+-+La+vieille+ville+et+la+nouvelle+citadelle","description":"Superbe+vue+depuis+le+haut+de+la+citadelle%2C+qu%27on+atteint+sous+un+sacr%C3%A9+cagnard+%21"}
{"id":8064715154,"url":"http://farm9.staticflickr.com/8455/8064715154_e53afa8dc2.jpg","path":"64c/92f/64c92f276a34bad2b5bbc4c6b136d9.jpg","date":"2012-09-23","year":2012,"month":9,"lon":19.913363,"lat":39.54701,"tags":"1.facebook,1.flickr,1.keith+laverack,benitses,benitses+2012,blurred,corfu,corfu+2012,high+quality,low+contrast,main+street,mainland+greece","S2CellId":"135b400000000000","result":1184,"accuracy":0.16724823,"title":"2012+09+23_Corfu+Holiday_0431","description":"2012+09+23+Mainland+Greece+from+Benitses+Corfu"}
{"id":4983935873,"url":"http://farm5.staticflickr.com/4154/4983935873_7bb83e9131.jpg","path":"48a/2c4/48a2c47d625936cba9c9b4d048574b3.jpg","date":"2010-09-02","year":2010,"month":9,"lon":19.677126,"lat":39.756798,"tags":"corfu,f200exr","S2CellId":"134ac00000000000","result":1167,"accuracy":0.040770177,"title":"Bomb+in+Magouladhes","description":"No+doubt+the+local+greek+children+have+to+pass+a+test+of+manhood+and+bang+the+thing+with+a+hammer+on+their+18th+birthday.++If+they+are+brave+enough+to+do+that%2C+they+are+just+about+ready+to+drive+on+the+local+roads."}
{"id":2951921262,"url":"http://farm4.staticflickr.com/3155/2951921262_8f241b8355.jpg","path":"38f/992/38f992a1dd9b6c4fecca2b8d373b145e.jpg","date":"2007-11-11","year":2007,"month":11,"lon":19.918213,"lat":39.614285,"tags":"corfu,greece","S2CellId":"8c036ec000000000","result":9411,"accuracy":0.10587053,"title":"SANY7233"}
{"id":3113649077,"url":"http://farm4.staticflickr.com/3216/3113649077_fe519686ff.jpg","path":"92c/766/92c766576084ca8084f29cf6205bc8b3.jpg","date":"2007-08-10","year":2007,"month":8,"lon":19.919243,"lat":39.733856,"tags":"corfu,greece,holiday,island,sun","S2CellId":"85ec000000000000","result":7497,"accuracy":0.022151215,"title":"DSC00731"}
{"id":830984941,"url":"http://farm2.staticflickr.com/1342/830984941_5a09cf2855.jpg","path":"1e8/f41/1e8f411bc6d71322ed6cd489739fec0.jpg","date":"2005-08-25","year":2005,"month":8,"lon":19.830322,"lat":39.695034,"tags":"corf%C3%B9,corfou,ipsos,kerkyria","S2CellId":"864e640000000000","result":7620,"accuracy":0.03985309,"title":"IMG_1027.JPG"}
{"id":2797572566,"url":"http://farm4.staticflickr.com/3045/2797572566_b83cdda24f.jpg","path":"9b8/94c/9b894caeaa941825d0b07c3945cda.jpg","date":"2008-08-25","year":2008,"month":8,"lon":19.785004,"lat":39.633125,"tags":"carpocoris+mediterraneus,chinche,hemiptera,photo+of+the+day","S2CellId":"12a4840000000000","result":693,"accuracy":0.013040828,"title":"Faquir+%28Carpocoris+mediterraneus%29"}
{"id":8441636420,"url":"http://farm9.staticflickr.com/8078/8441636420_17f10c0b22.jpg","path":"ecf/b70/ecfb70f3c3f0f0caf117238913c692.jpg","date":"2010-11-17","year":2010,"month":11,"lon":19.921967,"lat":39.61753,"tags":"clouds,coast,corfu,greece,kerkyra,landscape","S2CellId":"8099700000000000","result":7111,"accuracy":0.095581055}
{"id":2951308563,"url":"http://farm4.staticflickr.com/3051/2951308563_6883ec18f3.jpg","path":"f97/726/f97726cdeac1ed50bbc361958a454b.jpg","date":"2007-11-12","year":2007,"month":11,"lon":19.918213,"lat":39.614285,"tags":"corfu,greece","S2CellId":"0dafee5000000000","result":627,"accuracy":0.056798544,"title":"SANY7339"}
{"id":51119681,"url":"http://farm1.staticflickr.com/29/51119681_38bd554551.jpg","path":"d92/b96/d92b96306534a08d7069f3264540a331.jpg","date":"2005-09-27","year":2005,"month":9,"lon":19.700546,"lat":39.796684,"tags":"beach,canal+d%27amour,corfu,greece,holiday,sea,sidari,sky","S2CellId":"0d51700000000000","result":440,"accuracy":0.15751,"title":"IMG_1310"}
{"id":4765439982,"url":"http://farm5.staticflickr.com/4114/4765439982_801b6ce201.jpg","path":"5ab/04d/5ab04d7a33d9cb704c302ae7bb826020.jpg","date":"2010-07-05","year":2010,"month":7,"lon":19.92405,"lat":39.641056,"tags":"%CE%BA%CE%B5%CF%81%CE%BA%CF%85%CF%81%CE%B1,1855,balcony,bibble,bibble5,blue,bluesea,clearwater,clearwaters,cloud,clouds,color,colors,corfu,corfuisland,corfuport,da,da1855,drama,dramatic,europe,gimp,gold,golden,greece,greek,island,islandofcorfu,k20d,kerkyra,landscape,light,lightray,lightrays,linux,my_gear_and_me_bronze,my_gear_and_me_gold,my_gear_and_me_premium,my_gear_and_me_silver,pentax,pentaxk20d,platinumheartaward,port,portofcorfu,ray,reflection,reflections,rise,scenic,sea,seascape,sky,smc,smcpentax,smcpentaxda,smcpentaxda1855,softcontrast,softlight,sun,sunrise,sunrising,vacation,water,wideangle","S2CellId":"135b400000000000","result":1184,"accuracy":0.082278244,"title":"Entering+the+Corfu+port+%2F+Sun+rising+over+Corfu","description":"I+took+this+photograph+early+in+the+morning%2C+just+as+the+Sun+was+rising.+I+was+aboard+the+ship+from+Patra+to+Corfu%2C+which+was+in+the+process+of+turning+around+to+enter+the+port%2C+hence+the+turbulence+of+the+water.%0A%0ACorfu+is+an+amazing+place%21%0A%0A%3Ca+href%3D%22http%3A%2F%2Fbighugelabs.com%2Fonblack.php%3Fid%3D4765439982%26size%3Dlarge%22+rel%3D%22nofollow%22%3EView+LARGE+On+Black%3C%2Fa%3E"}
{"id":3835956801,"url":"http://farm3.staticflickr.com/2477/3835956801_aa340a8c59.jpg","path":"768/2af/7682afa25ee4b9ddd6e6c7dbcc6bdc8.jpg","date":"2010-01-04","year":2010,"month":1,"lon":19.924564,"lat":39.624397,"tags":"archeology,architecture,arhitektura,canon,city,corfu,grad,grcka,greece,greek,history,hour,http%3A%2F%2Fmilosevicmilos.com%2F,ionian,island,jonsko,kerkyra,krf,magic,milosevicmilos.com,more,night,noc,old,ostrvo,sea,stari,tourism,turizam,urban","S2CellId":"477eb1d740000000","result":3481,"accuracy":0.03026155,"title":"Krf+02"}
{"id":2917258957,"url":"http://farm4.staticflickr.com/3052/2917258957_45bedef626.jpg","path":"f2b/4f4/f2b4f42138c855284195b1aee8da13.jpg","date":"2008-09-27","year":2008,"month":9,"lon":19.896755,"lat":39.60562,"tags":"2008,barco,crucero,fotos+encadenadas","S2CellId":"1495400000000000","result":1225,"accuracy":0.4854191,"title":"2008+Corf%C3%BA"}
{"id":7482123176,"url":"http://farm8.staticflickr.com/7119/7482123176_d902c80aae.jpg","path":"404/a62/404a62899547e7dc0a7efbf5088989.jpg","date":"2012-06-10","year":2012,"month":6,"lon":19.94263,"lat":39.754696,"tags":"corfu,scenery,sea","S2CellId":"4763000000000000","result":3311,"accuracy":0.20606075,"title":"Kerasia%2C+looking+to+the+headland+and+Albania"}
{"id":4666515075,"url":"http://farm5.staticflickr.com/4011/4666515075_422064499a.jpg","path":"8d2/151/8d21514bb66d2dab90c87fa324eca022.jpg","date":"2010-05-18","year":2010,"month":5,"lon":19.999924,"lat":39.782684,"tags":"balkans","S2CellId":"0094000000000000","result":1,"accuracy":0.02790306,"title":"P1040424"}
{"id":5919741995,"url":"http://farm7.staticflickr.com/6146/5919741995_a026c567cc.jpg","path":"ef9/99f/ef999f51d84adb29b6bd9577d4ab0.jpg","date":"2011-05-22","year":2011,"month":5,"lon":19.85582,"lat":39.54176,"tags":"ermones,grc,griechenland,kerkyra,kerkyras","S2CellId":"132a530000000000","result":1017,"accuracy":0.19051425,"title":"K%C3%A1to+Garo%C3%BAna+-+Kerkyras+%2F+Corfu+-+Griechenland"}
{"id":4338713066,"url":"http://farm5.staticflickr.com/4045/4338713066_b73163dce3.jpg","path":"c6a/5b6/c6a5b62ec0a183cba79117b46b8c5c.jpg","date":"2010-01-23","year":2010,"month":1,"lon":19.921228,"lat":39.62539,"tags":"%C3%AA%C3%BD%C3%B1%C3%AA%C3%B5%C3%B1%C3%A1,%CE%BA%CE%AD%CF%81%CE%BA%CF%85%CF%81%CE%B1,corfu","S2CellId":"135b400000000000","result":1184,"accuracy":0.32205135,"title":"P1010483.JPG"}
{"id":9704697783,"url":"http://farm8.staticflickr.com/7437/9704697783_2d083ae1a4.jpg","path":"b03/41d/b0341d31976a6ee56b2fab899d982ceb.jpg","date":"2013-08-26","year":2013,"month":8,"lon":19.92439,"lat":39.64109,"tags":"corfu,greece,kerkira,nature,peloponnisos+dytiki+ellada+ke+io,peloponnisos+dytiki+ellada+ke+ionio,places,sea,stone,themes,vido","S2CellId":"4763000000000000","result":3311,"accuracy":0.3768691,"title":"The+Coast+of+Vido+Island"}
{"id":10255615866,"url":"http://farm3.staticflickr.com/2808/10255615866_7a1bc6ecaf.jpg","path":"443/ce8/443ce8db88eeef2423bd76af2a6d3af.jpg","date":"2013-09-28","year":2013,"month":9,"lon":19.917425,"lat":39.625412,"tags":"corfu+town,grc,greece,kerkyra,new+venetian+fortress","S2CellId":"4792400000000000","result":3727,"accuracy":0.02131316,"title":"going+into+the+Fortress"}
{"id":830992017,"url":"http://farm2.staticflickr.com/1014/830992017_e3c8973720.jpg","path":"475/9d2/4759d2a931734f8d32bfe648be0f143.jpg","date":"2005-08-25","year":2005,"month":8,"lon":19.830322,"lat":39.695034,"tags":"corf%C3%B9,corfou,ipsos,kerkyria","S2CellId":"149b400000000000","result":1238,"accuracy":0.038704887,"title":"IMG_1074.JPG"}
{"id":4924065543,"url":"http://farm5.staticflickr.com/4102/4924065543_e79872320a.jpg","path":"ac4/0c9/ac40c95d78d995986c0985867c33777.jpg","date":"2010-07-15","year":2010,"month":7,"lon":19.904308,"lat":39.725277,"tags":"bateau,boat,corfou,hotel+sunshine+corfou,nap,red,rouge,sieste","S2CellId":"4763000000000000","result":3311,"accuracy":0.03565211,"title":"La+sieste","description":"La+sieste"}
{"id":5920305464,"url":"http://farm7.staticflickr.com/6145/5920305464_456ed7c5b2.jpg","path":"c98/f15/c98f1531339cbe6c7a5581c3722a160.jpg","date":"2011-05-28","year":2011,"month":5,"lon":19.836004,"lat":39.72484,"tags":"ermones,grc,griechenland,karousades,kerkyra,kerkyras","S2CellId":"12a4840000000000","result":693,"accuracy":0.01174935,"title":"Schwalbenschwanz+%28Papilio+machaon%29+Spart%C3%BDlas+-+Kerkyras+%2F+Corfu+-+Griechenland"}
{"id":8082266772,"url":"http://farm9.staticflickr.com/8049/8082266772_96d5ca0d4a.jpg","path":"d11/e7f/d11e7f50121ada79c16910a5d725375.jpg","date":"2012-09-05","year":2012,"month":9,"lon":19.69111,"lat":39.686523,"tags":"%CE%BA%CE%AD%CF%81%CE%BA%CF%85%CF%81%CE%B1,%D0%B3%D1%80%D0%B5%D1%86%D0%B8%D1%8F,%D0%BC%D0%BE%D0%BD%D0%B0%D1%81%D1%82%D1%8B%D1%80%D1%8C,2012,corfu,greece,kerkyra,landscape,monastery,mountain,paleokastritsa,sea,travel,trip","S2CellId":"133b700000000000","result":1147,"accuracy":0.074211895,"title":"20120905_164703"}
{"id":8441562466,"url":"http://farm9.staticflickr.com/8184/8441562466_b3ae296ddb.jpg","path":"ef5/a86/ef5a862819454769be75b7182837b16.jpg","date":"2008-06-01","year":2008,"month":6,"lon":19.92481,"lat":39.6259,"tags":"asian,corfu,greece,kerkyra,museum,museum+of+asian+art,neoclassical,old+city,old+palace,palaio+anaktoron","S2CellId":"47e67db000000000","result":4682,"accuracy":0.0745528}
{"id":8009760160,"url":"http://farm9.staticflickr.com/8180/8009760160_dd1d17ce2f.jpg","path":"872/f69/872f6927d82afd3f035b95298d3c7a8.jpg","date":"2012-09-10","year":2012,"month":9,"lon":19.71342,"lat":39.675037,"tags":"cats,corfu,greece,holiday,paleokastritsa,trip,vacation","S2CellId":"94ce510000000000","result":9701,"accuracy":0.012823215,"title":"Cat+nap"}
{"id":4541277316,"url":"http://farm3.staticflickr.com/2734/4541277316_2ca9d8fef1.jpg","path":"667/5fd/6675fdb9f070aeee6367979c193e49bf.jpg","date":"2006-06-14","year":2006,"month":6,"lon":19.700932,"lat":39.67342,"tags":"beach,corfu,greece,ionian+sea,paleokastritsa,rocks","S2CellId":"1314140000000000","result":970,"accuracy":0.22765951,"title":"Ionian+Sea"}
{"id":2600323058,"url":"http://farm4.staticflickr.com/3154/2600323058_cc3b5fe1dc.jpg","path":"1cf/544/1cf544681a4635e89e8049dc9a78c089.jpg","date":"2007-06-12","year":2007,"month":6,"lon":19.7081,"lat":39.67588,"tags":"beach,blue,boat,boat+trip,cliffs,corfu,dock,greece,hotel,island,kerkyra,landscape,paleokastritsa,paliokastritsa,sand,scenery,sea,seascape,travel,umberella,water,yacht","S2CellId":"134c100000000000","result":1170,"accuracy":0.10175844,"title":"Boat+trips"}
{"id":452476048,"url":"http://farm1.staticflickr.com/184/452476048_50d9b4f4fb.jpg","path":"4ea/11f/4ea11f1b5767959b69f99cd935b025c.jpg","date":"2007-03-26","year":2007,"month":3,"lon":19.8135,"lat":39.59484,"tags":"corfu,greece,hostel,kerkyra,pelekas,sun+rock","S2CellId":"12d2c00000000000","result":896,"accuracy":0.12877324,"title":"View+of+Pelekas+beach%2C+from+even+higher+up"}
{"id":1336243496,"url":"http://farm2.staticflickr.com/1307/1336243496_5f2f6db0bd.jpg","path":"785/294/785294f67d55dd59f86a547184b63376.jpg","date":"2007-07-03","year":2007,"month":7,"lon":19.698143,"lat":39.68975,"tags":"%CE%BA%CE%AD%CF%81%CE%BA%CF%85%CF%81%CE%B1,c770,corfu,greece,lakones,olympus,travel","S2CellId":"133b9c0000000000","result":1149,"accuracy":0.27429476,"title":"Corfu+2007","description":"The+traffic+light+entering+Lakones."}
{"id":8054784438,"url":"http://farm9.staticflickr.com/8034/8054784438_18d0e81bcc.jpg","path":"71a/3b8/71a3b8a5268b7f4c9e52b47649427.jpg","date":"2012-09-20","year":2012,"month":9,"lon":19.91066,"lat":39.551704,"tags":"1.facebook,1.flickr,1.keith+laverack,benitses,benitses+2012,blurred,boats+%26+ships,clouds,corfu,corfu+2012,high+quality,long+shot,two+faces,weather","S2CellId":"478c2c0000000000","result":3652,"accuracy":0.03306731,"title":"2012+09+20_Corfu+Holiday_0665","description":"2012+09+20+Storm+Clouds+over+Benitses+Corfu"}
{"id":3113693437,"url":"http://farm4.staticflickr.com/3052/3113693437_5e0bb8563f.jpg","path":"9b6/094/9b60946bb7e8bfc70c344557ef5bc48.jpg","date":"2007-08-13","year":2007,"month":8,"lon":19.919415,"lat":39.62215,"tags":"corfu,greece,holiday,island,sun","S2CellId":"135b400000000000","result":1184,"accuracy":0.21988732,"title":"DSC00795"}
{"id":5920099534,"url":"http://farm7.staticflickr.com/6012/5920099534_1268826f8a.jpg","path":"a29/127/a29127144c7cdef25b2b16aa25c025b3.jpg","date":"2011-05-25","year":2011,"month":5,"lon":19.875977,"lat":39.764988,"tags":"dafnila,grc,griechenland,karousades,kerkyra,kerkyras","S2CellId":"88d0a631cabb5071","result":8563,"accuracy":0.009520709,"title":"Per%C3%ADtheia+-+Kerkyras+%2F+Corfu+-+Griechenland"}
{"id":5964633728,"url":"http://farm7.staticflickr.com/6016/5964633728_04e1f0d628.jpg","path":"ad6/973/ad6973422a0068bc385775cb91391e.jpg","date":"2011-07-18","year":2011,"month":7,"lon":19.913406,"lat":39.621952,"tags":"griechenland,korfu,kreuzfahrt2011,urlaub2011","S2CellId":"1502d00000000000","result":1353,"accuracy":0.13606617,"title":"DSC_0268"}
{"id":4087435779,"url":"http://farm3.staticflickr.com/2740/4087435779_c8e4b1b46d.jpg","path":"b1a/2ab/b1a2ab82a814e69e717daeddaed059.jpg","date":"2009-05-12","year":2009,"month":5,"lon":19.903963,"lat":39.630283,"tags":"%E2%80%9Cachillion,%E2%80%9Cyellow,corfu,cruise,greece,may+2009,mediterranean,palace%E2%80%9D,submarine%E2%80%9D","S2CellId":"135b400000000000","result":1184,"accuracy":0.14389746,"title":"09Eur+Corfu+50"}
{"id":2781569516,"url":"http://farm4.staticflickr.com/3281/2781569516_8c8292f1da.jpg","path":"494/e81/494e813730d5a2e924fdc7c760ac522d.jpg","date":"2004-07-01","year":2004,"month":7,"lon":19.845428,"lat":39.608864,"tags":"corfu,sidari","S2CellId":"12db000000000000","result":937,"accuracy":0.049211204,"title":"Corfu+Old+Town+%28Kerkyra%29"}
{"id":4087442787,"url":"http://farm3.staticflickr.com/2579/4087442787_51c05f7661.jpg","path":"d91/28d/d9128d60152758ffaebf7b7f5e3bf0f7.jpg","date":"2009-05-12","year":2009,"month":5,"lon":19.903963,"lat":39.630283,"tags":"%E2%80%9Cachillion,%E2%80%9Cyellow,corfu,cruise,greece,may+2009,mediterranean,palace%E2%80%9D,submarine%E2%80%9D","S2CellId":"1314500000000000","result":973,"accuracy":0.021071663,"title":"09Eur+Corfu+63"}
{"id":2950831521,"url":"http://farm4.staticflickr.com/3037/2950831521_a0bc70406a.jpg","path":"3b6/dfb/3b6dfb3eda06437c88fd76fd248c421.jpg","date":"2007-11-12","year":2007,"month":11,"lon":19.918213,"lat":39.614285,"tags":"corfu,greece","S2CellId":"8f2c000000000000","result":9511,"accuracy":0.052587576,"title":"IMG_5277"}
{"id":8239137068,"url":"http://farm9.staticflickr.com/8489/8239137068_07fdfa2337.jpg","path":"e6d/4d0/e6d4d097f3417aa88a61144761412725.jpg","date":"2012-07-16","year":2012,"month":7,"lon":19.91066,"lat":39.61468,"tags":"60d,blue,boat,canon,corfou,diving,eos,grece,greece,ile,island,kerkyra,sea,sialnd","S2CellId":"135b400000000000","result":1184,"accuracy":0.42861572,"title":"Grece-0335+-+Greece+Corfou+Island+%28Kerkyra%29","description":"Greece+Corfou+Island+%28Kerkyra%29%0A%0APicture+from+one+single+RAW+shot."}
{"id":8441040343,"url":"http://farm9.staticflickr.com/8513/8441040343_597ae88dcd.jpg","path":"fc3/be1/fc3be151ab2bbbc24b8f744cc62d2472.jpg","date":"2009-07-20","year":2009,"month":7,"lon":19.91931,"lat":39.616817,"tags":"archaia,cemetery,corfu,greece,menekrates+tomb,palaiopolis,tomb,tumulus","S2CellId":"12ca100000000000","result":863,"accuracy":0.058632918}
{"id":1493756,"url":"http://farm1.staticflickr.com/2/1493756_43550e73dd.jpg","path":"f1c/dd2/f1cdd234f631a6844af24af47df67c.jpg","date":"2004-11-15","year":2004,"month":11,"lon":19.937437,"lat":39.432747,"tags":"corfu,greece","S2CellId":"4b70000000000000","result":5827,"accuracy":0.06848004,"title":"Corfu%2C+Greece"}
{"id":8440351635,"url":"http://farm9.staticflickr.com/8358/8440351635_08c83a201a.jpg","path":"6b6/8b9/6b68b9ffe345fac48023a243fd632a.jpg","date":"2008-06-01","year":2008,"month":6,"lon":19.926163,"lat":39.606342,"tags":"archaeological+museum,archaia,corfu,greece,mon+repos,museum,palace,palaiopolis","S2CellId":"9240000000000000","result":9638,"accuracy":0.009277282}
{"id":51122454,"url":"http://farm1.staticflickr.com/32/51122454_c5f0408763.jpg","path":"a22/79a/a2279a3b98ded38d6266a78e6148848.jpg","date":"2005-09-28","year":2005,"month":9,"lon":19.703423,"lat":39.79172,"tags":"corfu,greece,holiday,hotel,san+george,sidari","S2CellId":"88dd7fac00000000","result":8631,"accuracy":0.017394641,"title":"IMG_1361"}
{"id":5902102682,"url":"http://farm6.staticflickr.com/5195/5902102682_79363be183.jpg","path":"b36/5cc/b365cc98a613552332c5ac51163a44c.jpg","date":"2011-06-30","year":2011,"month":6,"lon":19.905682,"lat":39.627373,"tags":"b-day,corfu,greece,holiday,island","S2CellId":"135b400000000000","result":1184,"accuracy":0.52674705,"title":"Relaxing","description":"%40+Corfu"}
{"id":3879237462,"url":"http://farm3.staticflickr.com/2674/3879237462_91c6ac33aa.jpg","path":"d95/205/d95205a8df191ab11df262a86f67112.jpg","date":"2009-08-23","year":2009,"month":8,"lon":19.915466,"lat":39.729107,"tags":"beach,corfu,europe,greece,holiday,sand,sea,summer,sun,sunset","S2CellId":"4771400000000000","result":3386,"accuracy":0.07948402,"title":"Barbati+Sunset"}
{"id":3636609364,"url":"http://farm4.staticflickr.com/3587/3636609364_d8dbdb968f.jpg","path":"5c7/d0b/5c7d0b4cdf65c55962f0f25c88.jpg","date":"2009-06-01","year":2009,"month":6,"lon":19.841995,"lat":39.650112,"tags":"art,nature","S2CellId":"4781900000000000","result":3533,"accuracy":0.4110658,"title":"Low+demands"}
