{"id":174424711,"url":"http://farm1.staticflickr.com/51/174424711_a23868d394.jpg","path":"4ac/035/4ac03581f9651375a73e7370d5c2806d.jpg","date":"2006-06-17","year":2006,"month":6,"lon":4.893271,"lat":52.373386,"tags":"agfa,amsterdam,blue,canon,crossprocessing,europa,europe,muntplein,nederland,netherlands,precisa,sky,t70,xpro","S2CellId":"47c6099000000000","result":4310,"accuracy":0.033112533,"title":"The+web","description":"Amsterdam%2C+June+17%2C+2006%0A%0AAny+suggestions+for+a+decent+film+scanner%3F"}
{"id":2062264711,"url":"http://farm3.staticflickr.com/2102/2062264711_ad080d9f1a.jpg","path":"e16/221/e16221b664b7278c9fb318671749723.jpg","date":"2007-11-24","year":2007,"month":11,"lon":4.315824,"lat":52.08291,"tags":"andrew,bird,border,brmc,concert,crossing,festival,gig,haag,hague,iliketrains,music,sfa,soko","S2CellId":"47d8a81000000000","result":4442,"accuracy":0.055757727,"title":"iLiKEPEDALS"}
{"id":2925826129,"url":"http://farm4.staticflickr.com/3235/2925826129_34727d80fd.jpg","path":"455/9f2/4559f27f75ce79296221f6b7afd62cb4.jpg","date":"2008-04-05","year":2008,"month":4,"lon":4.623785,"lat":52.19914,"tags":"bibble,bibblepro,bloem,canon,canon40d,canoneos40d,fdw,flower,fransdewit,grower,kas,kom+in+de+kas,kweker,plant,roelofarendsveen,t,tuinder,warehouse","S2CellId":"47c5c30000000000","result":4284,"accuracy":0.0064532394,"title":"Kom+in+de+kas+Roelofarendsveen+2008"}
{"id":5850720330,"url":"http://farm6.staticflickr.com/5234/5850720330_91aaf9155c.jpg","path":"f7c/14f/f7c14f2cb81758b1289fd28a2289bf.jpg","date":"2011-06-16","year":2011,"month":6,"lon":4.891333,"lat":52.357834,"tags":"amsterdam,holland","S2CellId":"46920bcd00000000","result":2995,"accuracy":0.058001537,"title":"The+Heineken+experience"}
{"id":7119452515,"url":"http://farm8.staticflickr.com/7187/7119452515_afcc75b537.jpg","path":"a83/f1d/a83f1d331d78ce15a53cce88f2704a98.jpg","date":"2012-04-18","year":2012,"month":4,"lon":4.884333,"lat":52.369,"tags":"amsterdam,bike,canal,keizersgracht,ve%CC%81lo","S2CellId":"47c609bf00000000","result":4317,"accuracy":0.1900198,"title":"Keizersgracht","description":"Amsterdam%2C+Keizersgracht."}
{"id":8925169688,"url":"http://farm9.staticflickr.com/8402/8925169688_01833eb243.jpg","path":"49d/33a/49d33aa211f7bc6efa111ca5fa245ef.jpg","date":"2013-05-12","year":2013,"month":5,"lon":4.88183,"lat":52.368965,"tags":"amsterdam","S2CellId":"47c609c500000000","result":4320,"accuracy":0.17081304,"title":"P1000058"}
{"id":8987028648,"url":"http://farm8.staticflickr.com/7438/8987028648_497e47a0d3.jpg","path":"ecb/fa0/ecbfa0efb78b8297b2138aa8112f4fa.jpg","date":"2012-09-08","year":2012,"month":9,"lon":4.892359,"lat":52.364582,"tags":"amsterdam,amsterdamse,amsterdamse+monumenten,architecture,architectuur,bazel,building,buildings,city+archives,de,dutch,dutch+monuments,gebouw,gebouw+de+bazel,gebouwen,gemeentearchief,holland,monument,monumenten,monuments,netherlands,nex-7,stadsarchief,tinamonumentalia,tine,tine+van+voorst,tineke+van+voorst,van,voorst","S2CellId":"89b0c00000000000","result":8799,"accuracy":0.009270596,"title":"De+Bazel+Amsterdam+18","description":"De+Bazel+Amsterdam+18+-+DSC03611_pt"}
{"id":9183125636,"url":"http://farm6.staticflickr.com/5333/9183125636_7f6307f427.jpg","path":"fe8/b93/fe8b939911ac4dcdd391293f07cfcf8.jpg","date":"2013-06-29","year":2013,"month":6,"lon":4.313319,"lat":52.083183,"tags":"2013,army+vehicles,defil%C3%A9,den+haag+s-gravenhage,dutch+soldiers,geografie,koninklijke++luchmacht,koninklijke+landmach,koninklijke+marechaussee,koninklijke+marine,medals,militairen,militairen+voertuigen,military,nederland,nld,onderscheidingen,ondescheiding,oud+soldaten,qsimple,south+holland,the+hague,the+haque,the+netherlands,verzethelden,veteranen,veteranendag+2013,veterans++day","S2CellId":"47c5b73000000000","result":4278,"accuracy":0.516525,"title":"2013-06-29+Veteranendag+2013%2C+Den+Haag","description":"De+Nederlandse+Veteranendag+2013+is+op+zaterdag+29+juni+in+Den+Haag.+Met+dit+jaarlijkse+nationale+evenement+bedanken+we+alle+130.000+militaire+veteranen+voor+hun+inzet%2C+nu+en+in+het+verleden.+%0A%0AMet+het+hoogtepunt+van+deze+dag+was+het+defil%C3%A9+door+de+Haagse+binnenstad+waaraan+door+ruim+3500+veteranen+en+1000+actieve+militairen+wordt+deelgenomen.++Start+en+eindpunt+was+het+Malieveld.++Het+defil%C3%A9+werd+begeleid+door+militaire+muziekkorpsen+en+een+selectie+voertuigen.++Een+spectaculair+onderdeel+is+de+fly-past+van+historische+en+moderne+vliegtuigen+over+de+Hofvijfer.++Het+defil%C3%A9+werd+afgenomen+door+Koning+Willem-Alexander.++De+Koning+heeft+deze+rol+overgenomen+van+zijn+grootvader+prins+Bernhard.+%0A%0A%3Ca+href%3D%22http%3A%2F%2Fcreativecommons.org%2Flicenses%2Fby-nc-sa%2F3.0%2F%22+rel%3D%22nofollow%22%3E%3C%2Fa%3E%0A%0AThis+work+is+licensed+under+a+%3Ca+href%3D%22http%3A%2F%2Fcreativecommons.org%2Flicenses%2Fby-nc-sa%2F3.0%2F%22+rel%3D%22nofollow%22%3ECreative+Commons+Attribution-NonCommercial-ShareAlike+3.0+Unported+License%3C%2Fa%3E.%0A%0A%3Cb%3EYou+are+free%3A%3C%2Fb%3E%0Ato+Share+%E2%80%94+to+copy%2C+distribute+and+transmit+the+work%0Ato+Remix+%E2%80%94+to+adapt+the+work%0A%0A%3Cb%3EBut+Under+the+following+conditions%3A%3C%2Fb%3E%0A%0A%3Cb%3EAttribution%3C%2Fb%3E+%E2%80%94+You+must+attribute+the+work+in+the+manner+specified+by+the+author+or+licensor+%28but+not+in+any+way+that+suggests+that+they+endorse+you+or+your+use+of+the+work%29.%0A%3Cb%3ENoncommercial%3C%2Fb%3E+%E2%80%94+You+may+not+use+this+work+for+commercial+purposes.%0A%3Cb%3EShare+Alike%3C%2Fb%3E+%E2%80%94+If+you+alter%2C+transform%2C+or+build+upon+this+work%2C+you+may+distribute+the+resulting+work+only+under+the+same+or+similar+license+to+this+one."}
{"id":9557815804,"url":"http://farm8.staticflickr.com/7328/9557815804_31e31bc2ce.jpg","path":"1a2/59e/1a259e61740d6fcc5c5f61dd9c038be.jpg","date":"2013-03-17","year":2013,"month":3,"lon":4.893189,"lat":52.37312,"tags":"animals","S2CellId":"80d9549000000000","result":7295,"accuracy":0.0053775907,"title":"Amsterdam%2C+Netherlands"}
{"id":3824323693,"url":"http://farm3.staticflickr.com/2644/3824323693_6a05289495.jpg","path":"cbe/6b4/cbe6b4b4511957b4823c909763eae30.jpg","date":"2009-07-21","year":2009,"month":7,"lon":4.89722,"lat":52.37547,"tags":"amsterdam,dj+%26+jones,holland,netherlands","S2CellId":"876bec4000000000","result":7871,"accuracy":0.025396865,"title":"Amsterdam%2C+Netherlands+with+DJ+%26+Jones"}
{"id":4789605893,"url":"http://farm5.staticflickr.com/4135/4789605893_01362d8c7f.jpg","path":"95b/ba1/95bba1b68a854f63c6ca9abec11b7e.jpg","date":"2010-07-12","year":2010,"month":7,"lon":4.920344,"lat":52.37751,"tags":"amsterdam,arjen+robben,celebration,dirk+kuyt,football,ij,inhuldiging,orange,oranje,players,rondvaart,rondvaartboot,soccer,team,voetbal,water,world+cup","S2CellId":"4d5c000000000000","result":5955,"accuracy":0.14464536,"title":"Dirk+Kuyt","description":"The+Dutch+national+football+team+is+having+a+parade+in+Amsterdam+to+celebrate+the+World+Cup+soccer+action+and+making+it+to+the+final.+This+is+Dirk+Kuyt."}
{"id":4910806039,"url":"http://farm5.staticflickr.com/4115/4910806039_68ebdceef3.jpg","path":"63a/f1d/63af1dd05c22fb37e8b5c3adc0f54b10.jpg","date":"2010-08-19","year":2010,"month":8,"lon":4.853296,"lat":52.411777,"tags":"amsterdam,bibble,bibblepro,boat,canon,canon+eos+7d,canon7d,canoneos40d,dutch,eec,eeg,eos+7d,europa,europe,f.d.w.,frans+de+wit,holland,ij,landscape,landschap,nederland,netherlands,river,sail,sail+2010,sailboat,schip,ship,tallship,water,www.flickr.com%2Fphotos%2Ffransdewit,zijlschip","S2CellId":"47c8f00000000000","result":4395,"accuracy":0.039535455,"title":"Sail+2010%2C+Amsterdam","description":"Sail+2010%2C+Amsterdam"}
{"id":5435337239,"url":"http://farm6.staticflickr.com/5299/5435337239_caebe68421.jpg","path":"469/461/4694616f4232239ff593b48b6f447.jpg","date":"2010-08-31","year":2010,"month":8,"lon":4.893189,"lat":52.37312,"tags":"amsterdam,netherland","S2CellId":"47c5b73000000000","result":4278,"accuracy":0.12798521,"title":"Chess+Fighting"}
{"id":5712914146,"url":"http://farm4.staticflickr.com/3492/5712914146_6636a2002b.jpg","path":"b3b/302/b3b302ec9ec7c7651f14963864a9eb.jpg","date":"2011-05-12","year":2011,"month":5,"lon":4.540543,"lat":52.27215,"tags":"%D0%B2,%D0%BA%D1%80%D0%B0%D1%81%D0%B8%D0%B2%D1%8B%D0%B5,%D0%BD%D0%B8%D0%B4%D0%B5%D1%80%D0%BB%D0%B0%D0%BD%D0%B4%D0%B0%D1%85,%D1%86%D0%B2%D0%B5%D1%82%D1%8B,%E3%82%AA%E3%83%A9%E3%83%B3%E3%83%80%3A-%29%E3%81%8B%E3%82%89%E7%BE%8E%E3%81%97%E3%81%84%E8%8A%B1%E3%80%85,%E5%9C%A8,%E6%9C%B5,%E7%9A%84,%E7%BE%8E,%E8%8A%B1,%E8%8D%B7,%E8%98%AD,%E9%BA%97,%EA%BD%83%EC%9D%80,%EB%84%A4%EB%8D%9C%EB%9E%80%EB%93%9C,%EB%84%A4%EB%8D%9C%EB%9E%80%EB%93%9C%EC%97%90%EC%84%9C,%EC%82%AC%EC%A7%84,%EC%95%84%EB%A6%84%EB%8B%A4%EC%9A%B4,%EC%9D%BC%EC%9D%84,%EC%9E%91%EA%B0%80%EB%A1%9C,%EC%B0%BE%EA%B3%A0,%ED%95%9C%EA%B5%AD%EC%9D%98,belanda,bunga,di,indah","S2CellId":"89c2f34000000000","result":9103,"accuracy":0.011248786,"title":"12052011-MAC_1180"}
{"id":6374988335,"url":"http://farm7.staticflickr.com/6048/6374988335_3728659111.jpg","path":"c19/8b1/c198b1df4d8fd2ca3111c9354871fc88.jpg","date":"2006-08-30","year":2006,"month":8,"lon":4.893189,"lat":52.37312,"tags":"amsterdam,netherlands,pedestrians,people,right-of-way","S2CellId":"47c5b50000000000","result":4274,"accuracy":0.06770737,"title":"Amsterdam+196","description":"Design+for+Health%3A+Shared+Streets"}
{"id":6739761899,"url":"http://farm8.staticflickr.com/7160/6739761899_efa43c805b.jpg","path":"7f6/6d3/7f66d3159c50183bed7fc72d9de9bdaa.jpg","date":"2011-12-03","year":2011,"month":12,"lon":4.890375,"lat":52.37032,"tags":"amsterdam,amsterdam+museum,glamcamp,holanda,holland,netherlands,pa%C3%ADses+bajos","S2CellId":"4876440000000000","result":5361,"accuracy":0.014426858,"title":"Fundaci%C3%B3n+de+%C3%81msterdam","description":"Uno+de+los+pilares+que+sostienen+a+la+ciudad+y+evitan+que+se+hunda+en+el+fango.+Nice."}
{"id":7226213426,"url":"http://farm8.staticflickr.com/7084/7226213426_60c21e8ea4.jpg","path":"257/910/257910c1cea8cb7392c770a5a3dea85d.jpg","date":"2012-05-14","year":2012,"month":5,"lon":4.63314,"lat":52.390057,"tags":"haarlem,netherlands","S2CellId":"47c6040000000000","result":4306,"accuracy":0.050111994,"title":"Yawner","description":"%3Ca+href%3D%22http%3A%2F%2Fwww.drogisterijmuseum.nl%2FEngmuseum.htm%22+rel%3D%22nofollow%22%3Ewww.drogisterijmuseum.nl%2FEngmuseum.htm%3C%2Fa%3E"}
{"id":7836969912,"url":"http://farm8.staticflickr.com/7137/7836969912_48570ee525.jpg","path":"e9e/d89/e9ed893cb6d2bfa6b59272a5ba0fc3.jpg","date":"2011-11-26","year":2011,"month":11,"lon":4.903678,"lat":52.36233,"tags":"carr%C3%A9,dolfje+weerwolfje,premi%C3%A8re,rifka+lodeizen","S2CellId":"47c3c38400000000","result":4200,"accuracy":0.009216046,"title":"Rode+loper","description":"Rifka+Lodeizen++op+de+rode+loper+bij+de+premi%C3%A8re+van+Dolfje+Weerwolfje"}
{"id":9223705573,"url":"http://farm8.staticflickr.com/7407/9223705573_2bbbd62551.jpg","path":"19a/8fd/19a8fd61218764f4fb5a760dad985f6.jpg","date":"2013-07-06","year":2013,"month":7,"lon":4.881225,"lat":52.379623,"tags":"amsterdam","S2CellId":"47c609b400000000","result":4313,"accuracy":0.09583072,"title":"High+tea+in+Amsterdam","description":"%3Ca+href%3D%22http%3A%2F%2Ftoursandtales.com%2F%22+rel%3D%22nofollow%22%3Etoursandtales.com%2F%3C%2Fa%3E+Stepping+into+the+Jordaan+in+Amsterdam.+It%27s+where+the+locals+go+..."}
{"id":9232182248,"url":"http://farm6.staticflickr.com/5453/9232182248_5e8864fbc1.jpg","path":"582/410/5824101261322fee15d450f238ddca.jpg","date":"2013-07-07","year":2013,"month":7,"lon":4.338226,"lat":52.0987,"tags":"bike+path,haag,hague,holland,swan,wassenaar","S2CellId":"8620a54000000000","result":7507,"accuracy":0.02179627,"title":"Swans+along+the+bikepath+from+Wassenaar+to+the+Hague"}
{"id":162871157,"url":"http://farm1.staticflickr.com/53/162871157_db46e951b5.jpg","path":"1b8/9fd/1b89fd5cd7d6abaed198076fc3811a.jpg","date":"2006-05-26","year":2006,"month":5,"lon":4.897842,"lat":52.366585,"tags":"amsterdam,art,fisheye,museum,painting,rembrandt,rijks,trip,voyage","S2CellId":"47e66e2640000000","result":4606,"accuracy":0.050641518,"title":"La+Ronde+de+Nuit+-+Rembrandt"}
{"id":582682639,"url":"http://farm2.staticflickr.com/1383/582682639_bb2fd3802a.jpg","path":"156/893/156893b480f0658713ee505193d78dbe.jpg","date":"2007-04-01","year":2007,"month":4,"lon":4.86705,"lat":52.357216,"tags":"01042007,amsterdam,mar2007,netherlands","S2CellId":"47a84f4000000000","result":3913,"accuracy":0.019891506,"title":"P4019136","description":"Sunday+morning+walk+in+the+Vondelpark%2C+Amsterdam."}
{"id":2383179098,"url":"http://farm4.staticflickr.com/3256/2383179098_3cd796dfb7.jpg","path":"1f5/ad3/1f5ad352bf57d459c4149a57b8f77ba.jpg","date":"2007-04-27","year":2007,"month":4,"lon":4.914236,"lat":52.367004,"tags":"amsterdam,apes,holland,monkeys,primates,the+netherlands,zoo","S2CellId":"89c2f4c000000000","result":9106,"accuracy":0.006797406,"title":"Amsterdam2261","description":"Monkey+on+the+ropes%2C+these+are+a+little+blurred+cause+the+monkey+was+going+quite+fast+and+I+was+trying+to+keep+up"}
{"id":2871915325,"url":"http://farm4.staticflickr.com/3061/2871915325_a3e68120e1.jpg","path":"1b7/fbf/1b7fbfce1a2407831d8c27a37261ec1.jpg","date":"2008-08-30","year":2008,"month":8,"lon":4.896984,"lat":52.374657,"tags":"amsterdam,grachten,holland,netherlands,niederlande","S2CellId":"47c6099000000000","result":4310,"accuracy":0.08439974,"title":"Amsterdam_012"}
{"id":3436646568,"url":"http://farm4.staticflickr.com/3657/3436646568_83e72235df.jpg","path":"b16/d43/b16d4311cdade4512da387b4a01ecc.jpg","date":"2009-04-03","year":2009,"month":4,"lon":4.753131,"lat":52.306923,"tags":"amsterdam,egypt+2009","S2CellId":"47c609b400000000","result":4313,"accuracy":0.09072333,"title":"IMG_6005"}
{"id":4092436116,"url":"http://farm3.staticflickr.com/2547/4092436116_9a593a522f.jpg","path":"ac2/983/ac2983fe9fa11a3db12d51eff651c6e9.jpg","date":"2009-11-07","year":2009,"month":11,"lon":4.892944,"lat":52.368675,"tags":"%27bijzondere,2009,amsterdam,collecties%27,fifteen,museumn8,museumnacht,n8,universiteit","S2CellId":"80d9535400000000","result":7284,"accuracy":0.18181042,"title":"Bijzondere+Collecties","description":"door+Rens+Spanjaard"}
{"id":6092963985,"url":"http://farm7.staticflickr.com/6075/6092963985_1c1c519d46.jpg","path":"832/6c4/8326c4537699074b4fae1239a38b678.jpg","date":"2011-08-28","year":2011,"month":8,"lon":4.489195,"lat":52.26613,"tags":"2011,cfn,coverband,festival,fools,graduated,laatste,noordwijkerhout,slotact%3A,spectaculaire,tributeband","S2CellId":"80c2bf3400000000","result":7180,"accuracy":0.102618486,"title":"ALG_2659"}
{"id":7985221302,"url":"http://farm9.staticflickr.com/8030/7985221302_479a8aaf0b.jpg","path":"a45/eed/a45eedde3c592431eb4a798c4eb20.jpg","date":"2012-08-27","year":2012,"month":8,"lon":4.425344,"lat":52.022,"tags":"blaadjes,black,flowers,stamper,yellow","S2CellId":"478df00000000000","result":3674,"accuracy":0.008393909,"title":"Yellow+Beauty","description":"Please+do+not+use+my+images+without+my+explicit+permission."}
{"id":8333924205,"url":"http://farm9.staticflickr.com/8074/8333924205_cf81215f30.jpg","path":"f2c/56d/f2c56df8b7356a87666577f2dd7a061.jpg","date":"2013-01-01","year":2013,"month":1,"lon":4.586727,"lat":52.500076,"tags":"2013,beach,dogs,honden,nieuwjaarsduik,spelen,strand,wijk+aan+zee,zee","S2CellId":"40bc000000000000","result":2689,"accuracy":0.018246762,"title":"DSC02215"}
{"id":8703963031,"url":"http://farm9.staticflickr.com/8415/8703963031_6d406c0c07.jpg","path":"3da/e4d/3dae4dab77c5c4c16f472f53bc58cda.jpg","date":"2013-05-03","year":2013,"month":5,"lon":4.545979,"lat":52.27068,"tags":"2013,3,keukenhof,lisse,mei","S2CellId":"3d00000000000000","result":2580,"accuracy":0.010755611,"title":"20130503-DSC_9959"}
{"id":13873484173,"url":"http://farm8.staticflickr.com/7274/13873484173_3b9d7c1e86.jpg","path":"854/e95/854e95fbfa88d7747c17ef9676ed334c.jpg","date":"2014-04-15","year":2014,"month":4,"lon":4.918549,"lat":52.349915,"tags":"ecir2014","S2CellId":"4784b00000000000","result":3561,"accuracy":0.14538865,"title":"ECIR2014-4884.jpg"}
{"id":88402671,"url":"http://farm1.staticflickr.com/14/88402671_e5b58168d0.jpg","path":"d5b/83a/d5b83a17978105c91bdd529b988639.jpg","date":"2006-01-18","year":2006,"month":1,"lon":4.757938,"lat":52.312714,"tags":"%CE%B1%CE%B5%CF%81%CE%BF%CF%80%CE%BB%CE%AC%CE%BD%CE%BF,%D1%81%D0%B0%D0%BC%D0%BE%D0%BB%D0%B5%D1%82,%E9%A3%9B%E6%A9%9F,%E9%A3%9B%E8%A1%8C%E6%A9%9F,%E9%A3%9E%E6%9C%BA,%EB%B9%84%ED%96%89%EA%B8%B0,744,747,747-400,aeroplane,aeroplanes,aeroplano,aeroport,aeropuerto,air,aircraft,aircrafts,airliner,airliners,airlines+101,airlines+of+asia,airplane,airplanes,airport,amsterdam,avi%C3%A3o,avion,b-16463,best,cockpit,engines,eva,flaps,flugzeug,flugzeuge,fuselage,gates,jet,jetliner,jetliners,jets,landing+gear,les+avions,luchtvaart,motors,nose+gear,plane,planes,rudder,schiphol,tail,vliegtuig,wing,wings","S2CellId":"89c2670000000000","result":9088,"accuracy":0.3515664,"title":"EVA+Air+747-45E%28C%29+B-16463","description":"Schiphol+Airport+Feb+18+2005%0AIn+new+colours+at+Gate+G6%0A%0A%3Cb%3E*Airlines+101*%3C%2Fb%3E++%28See+the+Set+Airliners+101%29%0A%0AWikipedia%3A+%3Ca+href%3D%22http%3A%2F%2Fen.wikipedia.org%2Fwiki%2FEva_Air%22%3Een.wikipedia.org%2Fwiki%2FEva_Air%3C%2Fa%3E%0AWebsite%3A+%3Ca+href%3D%22http%3A%2F%2Fwww.evaair.com%22%3Ewww.evaair.com%3C%2Fa%3E%0AName%3A+%28BR%29+Eva+Air%0ARegion%3A+Asia%0AFounded%3A+1989%0ABased+in%3A+Taipei%2C+Taiwan%0AHubs%3A+Taipei%0AType%3A+Inter-continental+flag+carrier+for+Taiwan++%0ANote%3A+Affiliated+with+the+Evergreen+Group.+BR+has+a+large+cargo+operation+as+well+as+passenger."}
{"id":1015142370,"url":"http://farm2.staticflickr.com/1156/1015142370_a46bcb7a8e.jpg","path":"20f/de2/20fde275f877d69aaa02df857649967.jpg","date":"2007-08-04","year":2007,"month":8,"lon":4.892306,"lat":52.366707,"tags":"amsterdam,europe,europe2007,holland,netherlands","S2CellId":"46dc400000000000","result":3082,"accuracy":0.06325418,"title":"Torture+Museum+-+The+Guillotine"}
{"id":2185553865,"url":"http://farm3.staticflickr.com/2175/2185553865_b212b19dcc.jpg","path":"8e3/2cd/8e32cdca67f2bd3cfdddbab2526a1992.jpg","date":"2007-12-07","year":2007,"month":12,"lon":4.902874,"lat":52.375134,"tags":"amsterdam,canales,holanda,netherlands","S2CellId":"47c609bf00000000","result":4317,"accuracy":0.15546183,"title":"Canal+detras+del+Red+district","description":"Ver+art%C3%ADculo+en+mi+Blog+en+%3Ca+href%3D%22http%3A%2F%2Fjlastras.com%2FWordPress%2F%3Fp%3D51%22+target%3D%22_blank%22%3EEnlace%3C%2Fa%3E%0ASee+post+in+My+blog+at+%3Ca+href%3D%22http%3A%2F%2Fjlastras.com%2FWordPress%2F%3Fp%3D51%22+target%3D%22_blank%22%3ELink%3C%2Fa%3E"}
{"id":2260353662,"url":"http://farm3.staticflickr.com/2382/2260353662_458c35e2c0.jpg","path":"9e6/11a/9e611a1d81a79d1ea6da30ec832461b.jpg","date":"2008-02-12","year":2008,"month":2,"lon":4.850581,"lat":52.395283,"tags":"achallengeforyou,agcg+winner,amsterdam,reflection,showbizwinner","S2CellId":"477bf00000000000","result":3448,"accuracy":0.015028504,"title":"morning_metro_bw","description":"Going+to+work+this+morning%2C+stepped+out+of+the+metro%2C+and+this+is+what+I+saw+then.%0A%0ATaken+without+a+tripod+in+a+hurry.+%28Don%27t+wanna+be+late+from+work.%29"}
{"id":3187858838,"url":"http://farm4.staticflickr.com/3482/3187858838_52cec31cc1.jpg","path":"53b/53f/53b53f70d664246f7188a35c8f2598ab.jpg","date":"2009-01-11","year":2009,"month":1,"lon":4.339578,"lat":52.091873,"tags":"bosvijver,den+haag,haagsche+bos,skating","S2CellId":"5140000000000000","result":5964,"accuracy":0.022493355,"title":"PB170083"}
{"id":3734891392,"url":"http://farm3.staticflickr.com/2593/3734891392_88a99c7a8a.jpg","path":"8a5/12b/8a512b6d5ef6e4822b85afba212f90.jpg","date":"2009-07-18","year":2009,"month":7,"lon":4.862859,"lat":52.391758,"tags":"amsterdam,edith+vinkenoog+-+ringnalda,kapel+st.barbara,lx+3,simon+vinkenoog","S2CellId":"8849000000000000","result":8403,"accuracy":0.047173843,"title":"Simon+Vinkenoog","description":"Don%27t+use+this+image+on+any+media+without+my+permission.+%0A%C2%A9+All+rights+reserved"}
{"id":4373189647,"url":"http://farm5.staticflickr.com/4051/4373189647_26eb31f0d7.jpg","path":"f2d/a27/f2da274911555ec2b74b5ad73f4e1e.jpg","date":"2010-02-07","year":2010,"month":2,"lon":4.903684,"lat":52.362495,"tags":"aad,adam,adamact1,eelco,mehmet,naastcarre,opera","S2CellId":"88f5f00000000000","result":8733,"accuracy":0.024530211,"title":"Act+1+-+An+endless+list","description":"%5BIMG_20100207_0774%5D"}
{"id":5699190920,"url":"http://farm3.staticflickr.com/2654/5699190920_0173451ff9.jpg","path":"cef/99e/cef99ee944f84cb9a1cc34f32131a0f5.jpg","date":"2011-05-07","year":2011,"month":5,"lon":4.748539,"lat":52.27619,"tags":"aalsmeerderbrug,classic+petra,classic+petra+concert+leg+aalsmeerderbrug,concert,gig,leg,petra,rock,schiphol-rijk,sglued524942","S2CellId":"47c8100000000000","result":4385,"accuracy":0.016620837,"title":"Johan+Lawry+en+Bob+Hartman+Classic+Petra+concert+LEG+Aalsmeerderbrug+028","description":"Verslag+op+%3Ca+href%3D%22http%3A%2F%2Fwww.henkjanvanderklis.nl%2F%3Fp%3D4653%22+rel%3D%22nofollow%22%3Ewww.henkjanvanderklis.nl%2F%3Fp%3D4653%3C%2Fa%3E"}
{"id":5892025441,"url":"http://farm6.staticflickr.com/5307/5892025441_21edea89ca.jpg","path":"4ea/c6e/4eac6ea14e04ca0ab58e13c70fa8146.jpg","date":"2010-08-04","year":2010,"month":8,"lon":4.897681,"lat":52.378513,"tags":"architecture,historic","S2CellId":"47c609b400000000","result":4313,"accuracy":0.65784454,"title":"Amsterdam+2010-08+135"}
{"id":5894474200,"url":"http://farm6.staticflickr.com/5200/5894474200_b3c10f4b80.jpg","path":"1f7/1f9/1f71f996cd494ea331e6515b2af84919.jpg","date":"2011-07-02","year":2011,"month":7,"lon":4.672226,"lat":52.388042,"tags":"instagram+app,iphoneography,square,square+format,x-pro+ii","S2CellId":"4703000000000000","result":3126,"accuracy":0.009086464,"title":"Skjoezz+mie+wail+ai+kiss+da+sky%21"}
{"id":6050644434,"url":"http://farm7.staticflickr.com/6066/6050644434_3016d18d13.jpg","path":"60d/6bc/60d6bc1a44601313bb8838387e41fcde.jpg","date":"2011-08-14","year":2011,"month":8,"lon":4.771388,"lat":52.96251,"tags":"boat,boot,cold+war,defense,defensie,defensive,den+helder,diving,duikboot,duiken,dutch,government,hr.+ms.+tonijn,koninklijke,marine,marinemuseum,museum,navy,nederlandse,oceaan,ocean,offensive,onderzee,onderzeeboot,onderzeedienst,oorlogsschip,potvis,potvisklasse,schiedam,schip,sea,ship,submarine,tonijn,u-boot,under+the+sea,war,warship,water,wilton-fijenoord,zee","S2CellId":"41c0000000000000","result":2740,"accuracy":0.018229313,"title":"The+%22Tonijn%22+submarine","description":"The+%22Tonijn%22+is+a+cold-war+era+submarine+of+Dutch+design.+It+was+used+from+1966+to+1991+by+the+Dutch+Navy.+They+even+prepared+fried+potatoes+for+70+persons+on+board%21+%28And+of+course+navy+fried+rice.%29"}
{"id":9510024519,"url":"http://farm8.staticflickr.com/7460/9510024519_7c635967e6.jpg","path":"2fd/920/2fd920db553b28d8f9e5c027bcb70.jpg","date":"2013-08-04","year":2013,"month":8,"lon":4.54033,"lat":52.268124,"tags":"2013,art,attractive,beautiful,beauty,castle,castlefest,castlefest+2013,celtic,close-up,colors,costume,costumes,coulors,crowds,cute,dancing,elegance,elf,elfia,evenement,expression,face,facial,fair,fairy,fantasy,fashion,female,fest,festival,fun,girl,glam,glamour,hairstyle,harvest+feast+lughnasadh,lady,lisse,look,looking,make-up,mask,masquerade,medieval,model,music,mystery,oogstfeest+lughnasadh,outdoor,outdoors,people,person,portrait,pose,pretty,qsimple,role,roleplay,sensuality,sexy,south+holland,style,stylish,the+netherlands,theater,vamp,vana+events,woman,women,young","S2CellId":"8752f55000000000","result":7841,"accuracy":0.008953955,"title":"2013-08-04+Castlefest","description":"This+work+is+licensed+under+a+%3Ca+href%3D%22http%3A%2F%2Fcreativecommons.org%2Flicenses%2Fby-nc-sa%2F3.0%2F%22+rel%3D%22nofollow%22%3ECreative+Commons+Attribution-NonCommercial-ShareAlike+3.0+Unported+License%3C%2Fa%3E.%0A%0A%3Cb%3EYou+are+free%3A%3C%2Fb%3E%0Ato+Share+%E2%80%94+to+copy%2C+distribute+and+transmit+the+work%0Ato+Remix+%E2%80%94+to+adapt+the+work%0A%0A%3Cb%3EBut+Under+the+following+conditions%3A%3C%2Fb%3E%0A%0A%3Cb%3EAttribution%3C%2Fb%3E+%E2%80%94+You+must+attribute+the+work+in+the+manner+specified+by+the+author+or+licensor+%28but+not+in+any+way+that+suggests+that+they+endorse+you+or+your+use+of+the+work%29.%0A%3Cb%3ENoncommercial%3C%2Fb%3E+%E2%80%94+You+may+not+use+this+work+for+commercial+purposes.%0A%3Cb%3EShare+Alike%3C%2Fb%3E+%E2%80%94+If+you+alter%2C+transform%2C+or+build+upon+this+work%2C+you+may+distribute+the+resulting+work+only+under+the+same+or+similar+license+to+this+one."}
{"id":10088517914,"url":"http://farm6.staticflickr.com/5493/10088517914_81165a91cd.jpg","path":"12b/7f6/12b7f647fadf3a111a6af0f53ffc82fe.jpg","date":"2013-09-29","year":2013,"month":9,"lon":4.895696,"lat":52.126953,"tags":"2013,farmcamps,kamerik","S2CellId":"47b3100000000000","result":4017,"accuracy":0.022011591,"title":"Farmcamps+kamerik"}
{"id":287623615,"url":"http://farm1.staticflickr.com/117/287623615_92a01a0bc8.jpg","path":"f02/7a8/f027a8dd65e322161dcf93ba8c14579b.jpg","date":"2005-05-21","year":2005,"month":5,"lon":4.876899,"lat":52.371197,"tags":"amsterdam,netherlands,north+holland","S2CellId":"47c609a400000000","result":4311,"accuracy":0.2951374,"title":"SANY1480"}
{"id":1732783524,"url":"http://farm3.staticflickr.com/2361/1732783524_5d1b3e8a4d.jpg","path":"d23/4c3/d234c3f2d7f9bb16f6a86a6d00a3b5.jpg","date":"2006-08-25","year":2006,"month":8,"lon":4.900331,"lat":52.37594,"tags":"%E6%97%85%E8%A1%8C,%E8%8D%B7%E8%98%AD,%E9%98%BF%E5%A7%86%E6%96%AF%E7%89%B9%E4%B8%B9,amsterdam,nederlands,travel","S2CellId":"47c609b400000000","result":4313,"accuracy":0.46887746,"title":"%E8%81%96%E5%B0%BC%E5%8F%AF%E6%8B%89%E6%96%AF%E6%95%99%E5%A0%82"}
{"id":3320173985,"url":"http://farm4.staticflickr.com/3650/3320173985_3571b66449.jpg","path":"e25/1f0/e251f06bbbaac37bccab79d1c8fccb72.jpg","date":"2007-08-29","year":2007,"month":8,"lon":4.915974,"lat":52.36602,"tags":"amsterdam","S2CellId":"12b6700000000000","result":815,"accuracy":0.11188712,"title":"Amsterdam+Zoo"}
{"id":3494060997,"url":"http://farm4.staticflickr.com/3653/3494060997_f5fb28c8fc.jpg","path":"b4d/364/b4d3646d96e4f20fecb90567b39d6d8.jpg","date":"2009-05-01","year":2009,"month":5,"lon":4.546247,"lat":52.267582,"tags":"flowers,keukenhof,tulips","S2CellId":"47c5c30000000000","result":4284,"accuracy":0.26629105,"title":"Orange+Tulips"}
{"id":3509075816,"url":"http://farm4.staticflickr.com/3325/3509075816_f7fdc62f78.jpg","path":"22d/af9/22daf920f54a6be6e64c4bb3813b79.jpg","date":"2009-04-28","year":2009,"month":4,"lon":4.900932,"lat":52.376858,"tags":"24-70,d300,f%2F2.8,flowers,holland,keukenhof,nikon","S2CellId":"47c5c30000000000","result":4284,"accuracy":0.39328602,"title":"DSC_5200"}
{"id":3528344938,"url":"http://farm3.staticflickr.com/2420/3528344938_970525621f.jpg","path":"537/a13/537a13ef33c480dda6186880386929.jpg","date":"2009-05-01","year":2009,"month":5,"lon":4.902666,"lat":52.3615,"tags":"amsterdam,dutch,eu,europe,holland,nederland,netherlands,vacation","S2CellId":"548f749000000000","result":6168,"accuracy":0.2818082,"title":"IMG_2241"}
{"id":5430860508,"url":"http://farm6.staticflickr.com/5134/5430860508_982052e5bc.jpg","path":"995/c60/995c60a158526be6e3a729cb28fd7.jpg","date":"2011-02-09","year":2011,"month":2,"lon":4.306649,"lat":52.096603,"tags":"irc,irc-nergy,ircinternationalwaterandsanitationcentre","S2CellId":"89c258fb00000000","result":8987,"accuracy":0.020550026,"title":"IRC-nergy02+able+to+share"}
{"id":5854050702,"url":"http://farm4.staticflickr.com/3198/5854050702_4c07def0e4.jpg","path":"e88/ee8/e88ee8f0227d425965a4a54ce8889a.jpg","date":"2011-06-20","year":2011,"month":6,"lon":4.649877,"lat":52.367477,"tags":"amsterdam,boerhaavelaan,elisabeth+gasthuis,haarlem,haarlem+college,kennemer+gasthuis+locatie+zuid,zusterflat","S2CellId":"47c6640000000000","result":4348,"accuracy":0.0144464,"title":"DSC_0332","description":"Op+de+voorgrond+het+Boerhaavegebouw+bij+het+Kennemer+Gasthuis+locatie+Zuid.+In+de+verte+is+de+skyline+van+Amsterdam+met+onder+andere+de+zuidas+en+de+Rembrandttoren+te+herkennen."}
{"id":6323833710,"url":"http://farm7.staticflickr.com/6116/6323833710_b9222e1ae7.jpg","path":"5f6/954/5f6954fd741d809fc48765e6a5976487.jpg","date":"2011-11-07","year":2011,"month":11,"lon":4.860384,"lat":52.302692,"tags":"2011,amstelveen,architecture%3A,dok,liesbeth+van+der+pol","S2CellId":"47c6094000000000","result":4309,"accuracy":0.04290123,"title":"Stadsplein","description":"%28built+1994%E2%80%931996%2C+%3Ci%3Esee%3C%2Fi%3E+%3Cb%3Etags%3C%2Fb%3E+%3Ci%3Efor+further+known+data%3C%2Fi%3E%29.+%3Ca+href%3D%22http%3A%2F%2Fcreativecommons.org%2Flicenses%2Fby-nc-nd%2F3.0%2Fnl%2F%22+rel%3D%22nofollow%22%3E%3C%2Fa%3EOp+dit+werk+is+een+%3Ca+href%3D%22http%3A%2F%2Fcreativecommons.org%2Flicenses%2Fby-nc-nd%2F3.0%2Fnl%2F%22+rel%3D%22nofollow%22%3ECreative+Commons+Licentie%3C%2Fa%3E+van+toepassing."}
{"id":7663092396,"url":"http://farm8.staticflickr.com/7274/7663092396_7c520748c7.jpg","path":"533/696/533696d20624eae965c465d274a2f58.jpg","date":"2012-07-28","year":2012,"month":7,"lon":4.496068,"lat":52.26909,"tags":"1-4,jodan,nikontino,noordwijkerhout,voetbal,vvsb","S2CellId":"47c7300000000000","result":4372,"accuracy":0.18193159,"title":"ALG_6904"}
{"id":9342539478,"url":"http://farm3.staticflickr.com/2828/9342539478_1c9889f87b.jpg","path":"e37/08f/e3708f644811fbe97982ee6b25da364.jpg","date":"2013-07-21","year":2013,"month":7,"lon":4.908166,"lat":52.380333,"tags":"2013,amsterdam,bas,boten,ij,zon","S2CellId":"47c609b400000000","result":4313,"accuracy":0.16968806,"title":"%27t+IJ","description":"%3Ca+href%3D%22http%3A%2F%2Fcreativecommons.org%2Flicenses%2Fby-nc-nd%2F3.0%2Fnl%2F%22+rel%3D%22nofollow%22%3E%3C%2Fa%3EOp+dit+werk+is+een+%3Ca+href%3D%22http%3A%2F%2Fcreativecommons.org%2Flicenses%2Fby-nc-nd%2F3.0%2Fnl%2F%22+rel%3D%22nofollow%22%3ECreative+Commons+Licentie%3C%2Fa%3E+van+toepassing."}
{"id":154186235,"url":"http://farm1.staticflickr.com/44/154186235_62cc325ab5.jpg","path":"1d3/39e/1d339ef3183e5359920a67e4c44266.jpg","date":"2006-05-27","year":2006,"month":5,"lon":4.649362,"lat":52.11304,"tags":"2006,archeon,medieval,middeleeuwen,woman","S2CellId":"3e8c000000000000","result":2626,"accuracy":0.10276013,"title":"medieval+woman+next+to+fire","description":"again+a+rainy+day%2C+best+to+stay+inside%2C+nice+and+warm+near+the+fire"}
{"id":430465171,"url":"http://farm1.staticflickr.com/157/430465171_f5788404a8.jpg","path":"9ff/3ef/9ff3ef2d2e3783731c40581b516860f1.jpg","date":"2007-03-16","year":2007,"month":3,"lon":4.894816,"lat":52.355892,"tags":"amsterdam+albert+cuypmarkt","S2CellId":"876bec4000000000","result":7871,"accuracy":0.019632751,"title":"DSCN5425","description":"semillitas%E2%80%A6de+palmera+%3B%29%0A...graines+de+palmier"}
{"id":3383046446,"url":"http://farm4.staticflickr.com/3558/3383046446_59e22506d5.jpg","path":"da5/f7f/da5f7f351fb06ff9cd5daadf5836c8b.jpg","date":"2009-03-24","year":2009,"month":3,"lon":4.855442,"lat":52.357956,"tags":"2009,20090324,amsterdam,lx3,nederland","S2CellId":"808580f400000000","result":6959,"accuracy":0.0056431363,"title":"Alco","description":"%3Ca+href%3D%22http%3A%2F%2Fbighugelabs.com%2Fflickr%2Fonblack.php%3Fid%3D3383046446%22%3EView+on+black%3C%2Fa%3E%0A%0ACaf%C3%A9+ter+Brugge%2C+bij+de+Overtoomsesluis"}
{"id":3771902680,"url":"http://farm4.staticflickr.com/3486/3771902680_9cfabb0b7e.jpg","path":"bef/d7d/befd7d12e6b75059d86a5aaf221dd66a.jpg","date":"2009-07-25","year":2009,"month":7,"lon":4.883208,"lat":52.358685,"tags":"a+global+day+of+action,abdolah,amsterdam,cc-by-sa+3.0,democracy,freedom,green+movement,greeting,human+rights,iran,iranian,iranians,july+25th,july+the+25th,kader+abdolah,netherlands,rally,speaker,speech,the+green+movement,united+for+iran,united4iran","S2CellId":"808f7e1c00000000","result":7025,"accuracy":0.006187991,"title":"Salam%21+Salam%21+Salamsterdam%21","description":"United+for+Iran+-+Global+Day+of+Action+July+25%0A%0AAuthor+Kader+Abdolah+speaks+to+the+crowd."}
{"id":4343975833,"url":"http://farm5.staticflickr.com/4059/4343975833_5352762b83.jpg","path":"74f/586/74f5864e1ed959624372986f136e1c41.jpg","date":"2010-02-08","year":2010,"month":2,"lon":4.883776,"lat":52.362267,"tags":"2010,a+wizard%2C+a+true+star,paradiso,todd+rundgren","S2CellId":"12a3840000000000","result":681,"accuracy":0.06394139,"title":"Todd+Rundgren","description":"Todd+Rundgren%2C+Paradiso+06-02-2010"}
{"id":4821640943,"url":"http://farm5.staticflickr.com/4142/4821640943_f6da110ab5.jpg","path":"789/eed/789eed9b67a4d87498fc38a2efe5ad0.jpg","date":"2010-07-23","year":2010,"month":7,"lon":4.906253,"lat":52.37167,"tags":"amsterdam,amsterdam+netherlands,holland,red+light+district,things+to+do+in+amsterdam","S2CellId":"47c4500000000000","result":4265,"accuracy":0.07162483,"title":"Things+to+Do+In+Amsterdam"}
{"id":4897944294,"url":"http://farm5.staticflickr.com/4119/4897944294_9edc825f80.jpg","path":"7d4/5f0/7d45f0a361a6fd71ce7a4732816aaa.jpg","date":"2009-05-13","year":2009,"month":5,"lon":4.897611,"lat":52.369938,"tags":"amsterdam,canal,holland,hollande,nederland,netherlands,pays-bas","S2CellId":"47c609c500000000","result":4320,"accuracy":0.283258,"title":"Entr%C3%A9e+de+Raamgracht","description":"Vu+de+Kloveniersburgwal"}
{"id":5330482673,"url":"http://farm6.staticflickr.com/5048/5330482673_e3c08c9ac2.jpg","path":"133/1c0/1331c016af3946ed549f15fa97d2d25.jpg","date":"2011-01-07","year":2011,"month":1,"lon":4.896812,"lat":52.377857,"tags":"the+netherlands","S2CellId":"47c3b00000000000","result":4195,"accuracy":0.6131728}
{"id":5472321910,"url":"http://farm6.staticflickr.com/5012/5472321910_4251327e5c.jpg","path":"d66/69d/d6669d71cc4c946893c4b6251e654d7a.jpg","date":"2011-02-23","year":2011,"month":2,"lon":4.330008,"lat":52.134197,"tags":"gatekeeper,oranje+zandoogje,pyronia+tithonus","S2CellId":"4872500000000000","result":5080,"accuracy":0.028206477,"title":"%22Oranje+Zandoogje%22+%22Pyronia+tithonus%22+Gatekeeper"}
{"id":6853524690,"url":"http://farm8.staticflickr.com/7249/6853524690_688eb3fb7a.jpg","path":"c16/556/c1655619e5f785c7c92281c89e4481b.jpg","date":"2012-03-20","year":2012,"month":3,"lon":4.84291,"lat":52.378113,"tags":"amsterdam,cabin,design,sticks,telephone","S2CellId":"8864664000000000","result":8462,"accuracy":0.011295365,"title":"Cabin","description":"Telephone+cabin%2C+full+of+sticks%21"}
{"id":7497196920,"url":"http://farm9.staticflickr.com/8017/7497196920_dd314b47ba.jpg","path":"849/0be/8490bea622a41ed71218f11c9e6cddb5.jpg","date":"2012-07-01","year":2012,"month":7,"lon":4.637741,"lat":52.711086,"tags":"any+dales+gents,manege+van+poelenburgh,mannenles,paardensport,paardrijden,schoorl","S2CellId":"536c000000000000","result":6045,"accuracy":0.014255978,"title":"DSC09996"}
{"id":8374129066,"url":"http://farm9.staticflickr.com/8367/8374129066_d194bd3880.jpg","path":"827/16c/82716c9c1e42c859ae4077e16ba3c2a0.jpg","date":"2012-12-27","year":2012,"month":12,"lon":4.891104,"lat":52.40043,"tags":"%C3%A1msterdam,amsterdam,b-80,d90,eu,europa,europe,european+union,foxtrot,holanda,holland,netherlands,nikon,pa%C3%ADses+bajos,russian,submarine,submarino,zulu","S2CellId":"89c2584c00000000","result":8955,"accuracy":0.03061879,"title":"B-80%3A+Bow"}
{"id":11173900755,"url":"http://farm6.staticflickr.com/5484/11173900755_aed55a3336.jpg","path":"bc9/0c8/bc90c860d3dc7e934ece9f0286e5cf6.jpg","date":"2013-12-02","year":2013,"month":12,"lon":4.895836,"lat":52.36186,"tags":"2013,amsterdam","S2CellId":"94ce585c00000000","result":9713,"accuracy":0.014515392,"title":"Ooievaar","description":"Op+de+hoek+van+de+Prinsengracht+en+de+Reguliersgracht+had+in+de+17e+eeuw+een+vroedvrouw+haar+praktijk.+Zij+maakte+reclame+voor+haar+bedrijf+met+een+beeld+van+een+ooievaar+boven+de+voordeur+van+haar+woning.+Die+ooievaar+staat+daar+nog+steeds.+%5B%3Ca+href%3D%22http%3A%2F%2Fwww.amsterdam.info%2Fnl%2Fprinsengracht%2F%22+rel%3D%22nofollow%22%3Ewww.amsterdam.info%2Fnl%2Fprinsengracht%2F%3C%2Fa%3E%5D+%3Ca+href%3D%22http%3A%2F%2Fcreativecommons.org%2Flicenses%2Fby-nc-nd%2F3.0%2Fnl%2F%22+rel%3D%22nofollow%22%3E%3C%2Fa%3EOp+dit+werk+is+een+%3Ca+href%3D%22http%3A%2F%2Fcreativecommons.org%2Flicenses%2Fby-nc-nd%2F3.0%2Fnl%2F%22+rel%3D%22nofollow%22%3ECreative+Commons+Licentie%3C%2Fa%3E+van+toepassing."}
{"id":271525946,"url":"http://farm1.staticflickr.com/91/271525946_059cc9951d.jpg","path":"a57/2b7/a572b717caf44938f0f187d4f29e3.jpg","date":"2006-10-16","year":2006,"month":10,"lon":4.894924,"lat":52.365746,"tags":"amsterdam,change,climate,clowns,conference,emissions,greenhouse,manifestation,samba,tuschinski","S2CellId":"47c5b73000000000","result":4278,"accuracy":0.07994944,"title":"DSC01550"}
{"id":306034183,"url":"http://farm1.staticflickr.com/115/306034183_fa59f3e9f0.jpg","path":"b04/7ff/b047ff4b828196165a7af04e3ca9203.jpg","date":"2006-06-09","year":2006,"month":6,"lon":4.900481,"lat":52.36566,"tags":"amsterdam,bridge,holanda,holland,localcontrast,ml30,netherlands","S2CellId":"47c6099000000000","result":4310,"accuracy":0.26088005,"title":"Drawbridge"}
{"id":2935009809,"url":"http://farm4.staticflickr.com/3020/2935009809_ac493f5eec.jpg","path":"da2/27b/da227b132e876e574bfe5b8ee84e1198.jpg","date":"2008-10-11","year":2008,"month":10,"lon":4.633934,"lat":52.488796,"tags":"2008,beverwijk,introduction,intruvo,party,uvo,walk,weekend,zandgat","S2CellId":"47c4100000000000","result":4245,"accuracy":0.059726685,"title":"IntrUvO+2008"}
{"id":2950726296,"url":"http://farm4.staticflickr.com/3239/2950726296_9b46743e81.jpg","path":"2f2/ce6/2f2ce639843410b475d5cab1720f671.jpg","date":"2008-10-04","year":2008,"month":10,"lon":4.778494,"lat":52.30601,"tags":"744,744f,747,747-400f,747-406%28er%29f,747f,74f,a%C3%A9roport,a320-200,a320-214,aer+lingus,aeroplane,aeroport,aerotagged,airbus,aircraft,aircraft+picture,airliner,airplanes,airport,ams,amsterdam,aviation,avion,boeing,cargo,cargo+jet,eham,ei-den,flying,freighter,holland,jet,jet+plane,jetliner,jumbo+jet,klm,nederland,nederlands,netherlands,passenger+jet,passenger+plane,pays-bas,ph-ckd,plane,schiphol,schiphol+airport,transportation,travel,wide+body+jet","S2CellId":"47c5e10000000000","result":4293,"accuracy":0.98707795,"title":"Lift+Off","description":"KLM%27s+747-400F+leaves+the+runway+as+Aer+Lingus%27+A320+looks+on."}
{"id":3370758551,"url":"http://farm4.staticflickr.com/3644/3370758551_2603ca00a8.jpg","path":"429/28c/42928cd0490dbb7dd9e1923a35f465.jpg","date":"2009-03-20","year":2009,"month":3,"lon":4.847459,"lat":52.3599,"tags":"amsterdam,blossom,lake,maart,nature,oeverlanden,park,spring,tree,urban,wetland","S2CellId":"88d0a631cabb5071","result":8563,"accuracy":0.039712302,"title":"voorjaar+aan+de+oeverlanden","description":"this+is+a+dear+image+because+of+the+composition"}
{"id":3395794422,"url":"http://farm4.staticflickr.com/3610/3395794422_9fd21d036e.jpg","path":"1c5/75a/1c575a17e45f362c49e8fe926326124.jpg","date":"2009-03-29","year":2009,"month":3,"lon":4.817716,"lat":52.47356,"tags":"koog+aan+de+zaan,mill,mills,molen,netherlands,noord-holland,toerisme,tourisme,windmolens,zaanse","S2CellId":"47c5fc0000000000","result":4305,"accuracy":0.5298279,"title":"Zaanse+Schans","description":"Zaanse+Schans"}
{"id":4279527478,"url":"http://farm5.staticflickr.com/4015/4279527478_bb029212f2.jpg","path":"e02/e4e/e02e4ec0b98dac1867e46528c2fcff51.jpg","date":"2007-06-28","year":2007,"month":6,"lon":4.883911,"lat":52.35906,"tags":"amsterdam,canon+eos+400d,clouds,sigma+17-70mm+f%2F2.8-4.5+dc+macro","S2CellId":"0d5527d000000000","result":463,"accuracy":0.35041165,"title":"Museumplein"}
{"id":4526057765,"url":"http://farm5.staticflickr.com/4061/4526057765_69659c5f8d.jpg","path":"f86/017/f860174469f2fc537b7d552149a3ff22.jpg","date":"2010-04-16","year":2010,"month":4,"lon":4.977836,"lat":52.362537,"tags":"3010,amsterdam","S2CellId":"47a9400000000000","result":3952,"accuracy":0.02884722,"title":"ams+ijburg+plots9.jpg"}
{"id":4826154587,"url":"http://farm5.staticflickr.com/4082/4826154587_87f6953ae6.jpg","path":"d93/ae5/d93ae5924ab505c386c34ffd7cbe224.jpg","date":"2010-07-25","year":2010,"month":7,"lon":4.494072,"lat":52.147305,"tags":"drop,droplets,drops,rain,red,teak,water,wet,wood","S2CellId":"4719000000000000","result":3230,"accuracy":0.0022133433,"title":"Teak+Drops"}
{"id":6004827280,"url":"http://farm7.staticflickr.com/6148/6004827280_ed929841ab.jpg","path":"27a/1f3/27a1f326a8f467d17c3a513151c14e3.jpg","date":"2011-07-29","year":2011,"month":7,"lon":4.636388,"lat":52.387222,"tags":"2011,fotos+encadenadas,haarlem,netherlands,north+holland","S2CellId":"47c4335000000000","result":4253,"accuracy":0.22094166,"title":"2011+Haarlem","description":"Carriles+para+bajar+y+subir+las+bicilcetas+por+las+escaleras+de+la+estaci%C3%B3n."}
{"id":6417632065,"url":"http://farm8.staticflickr.com/7146/6417632065_657d79b9e4.jpg","path":"3ed/012/3ed012f3b714b395633afec7745d15ed.jpg","date":"2011-11-28","year":2011,"month":11,"lon":4.661636,"lat":52.129257,"tags":"alphen+aan+den+rijn,mini,winterspektakel","S2CellId":"48761c9000000000","result":5334,"accuracy":0.03951498,"title":"Mini+Mini+me%21","description":"Twee+mini%27s+van+de+zaak%2C+welke+waarschijnlijk+3D+reclameposter+komen+spelen.+Ze+stonden+er+een+kwartier%2C+en+vertrokken+even+later."}
{"id":7228800628,"url":"http://farm8.staticflickr.com/7096/7228800628_859505dbaf.jpg","path":"756/e26/756e266cf5f80d73bc49a3ec260cfc2.jpg","date":"2009-08-28","year":2009,"month":8,"lon":4.483494,"lat":52.156822,"tags":"bee,flower,foliage,fuschia,hortus+botanicus,insect,leaf,leiden,netherlands,plant,taken20090828","S2CellId":"6ad642a400000000","result":6620,"accuracy":0.008644804,"title":"Bee+in+fuschia"}
{"id":7495392478,"url":"http://farm9.staticflickr.com/8020/7495392478_53bab57325.jpg","path":"b52/115/b5211531cb2aea9e7f7212a93b2688e.jpg","date":"2012-03-25","year":2012,"month":3,"lon":4.310073,"lat":52.086258,"tags":"benelux,den+haag,europe,netherlands,travel,vacation","S2CellId":"47c3dc0000000000","result":4234,"accuracy":0.057513703,"title":"Den+Haag+%28031%29"}
{"id":9601138750,"url":"http://farm4.staticflickr.com/3671/9601138750_bc9d294446.jpg","path":"ef6/440/ef6440e3cd7f7f9c7054c62f86e6a19.jpg","date":"2013-08-26","year":2013,"month":8,"lon":4.881,"lat":52.357,"tags":"2013,amsterdam,zuid","S2CellId":"5490430000000000","result":6199,"accuracy":0.0133658955,"title":"Uitmarkt+opbouw","description":"%3Ca+href%3D%22http%3A%2F%2Fcreativecommons.org%2Flicenses%2Fby-nc-nd%2F3.0%2Fnl%2F%22+rel%3D%22nofollow%22%3E%3C%2Fa%3EOp+dit+werk+is+een+%3Ca+href%3D%22http%3A%2F%2Fcreativecommons.org%2Flicenses%2Fby-nc-nd%2F3.0%2Fnl%2F%22+rel%3D%22nofollow%22%3ECreative+Commons+Licentie%3C%2Fa%3E+van+toepassing."}
{"id":125005994,"url":"http://farm1.staticflickr.com/44/125005994_41af376093.jpg","path":"e5d/517/e5d517341c305618f2b4257584c8ccf2.jpg","date":"2006-04-07","year":2006,"month":4,"lon":4.64859,"lat":52.140335,"tags":"2006,alphen+aan+den+rijn,avifauna,bird,marabou+stork","S2CellId":"4879440000000000","result":5477,"accuracy":0.024077246,"title":"Marabou+Stork","description":"going+for+a+stroll"}
{"id":520702853,"url":"http://farm1.staticflickr.com/204/520702853_0dfb6cffa5.jpg","path":"e6b/61c/e6b61cb4091fe45ca552f707aa84d3a.jpg","date":"2007-05-29","year":2007,"month":5,"lon":4.909579,"lat":52.375793,"tags":"amsterdam,club11,creativeindustries,instituteofnetworkcultures,versgeperst","S2CellId":"808fb74000000000","result":7058,"accuracy":0.059598148,"title":"Vers+Geperst+at+Club+11","description":"The+Whatever+Button+presentation+at+Club+11%3A+%3Ca+href%3D%22http%3A%2F%2Fwww.justlol.net%2Fwhateverbutton%2F%22%3Ehttp%3A%2F%2Fwww.justlol.net%2Fwhateverbutton%2F%3C%2Fa%3E"}
{"id":2658594728,"url":"http://farm3.staticflickr.com/2110/2658594728_3f56f9998e.jpg","path":"264/274/2642744e511a4763d79c4c4bb9fb4e9f.jpg","date":"2008-05-02","year":2008,"month":5,"lon":4.892263,"lat":52.37146,"tags":"amsterdam,begijnhof,boyer,coffee+shop,fiets,gracht,grachten,hard+rock+caf%C3%A9,julia,julia+boyer,leidesplein,madame+tussauds,magere+brug,martin,martin+wippel,oude+kerk,red+light+district,rijksmuseum,schiphol,vondelpark,wester+kerk,wippel","S2CellId":"47c6099000000000","result":4310,"accuracy":0.19934554,"title":"Amsterdam+2008"}
{"id":3379415549,"url":"http://farm4.staticflickr.com/3596/3379415549_fd13b79335.jpg","path":"db2/1c6/db21c6697868de5ba0bb4c7c9ec14624.jpg","date":"2009-03-17","year":2009,"month":3,"lon":4.883787,"lat":52.36223,"tags":"2009,animal+collective,avey+tare,david+portner,paradiso","S2CellId":"0d39000000000000","result":327,"accuracy":0.0520256,"title":"Animal+Collective","description":"Animal+Collective%2C+Paradiso+17-03--2009"}
{"id":3782265918,"url":"http://farm3.staticflickr.com/2534/3782265918_5c9124150d.jpg","path":"488/98d/48898d93bd5a8eea72099d283c0c911.jpg","date":"2009-08-02","year":2009,"month":8,"lon":4.256193,"lat":52.099598,"tags":"scheveningen,upc0809","S2CellId":"3bb4000000000000","result":2555,"accuracy":0.071497,"title":"IMG_0789"}
{"id":3870712548,"url":"http://farm3.staticflickr.com/2501/3870712548_96d833ac2d.jpg","path":"bad/d48/badd48a638b1a81fbe54f13350c0c9.jpg","date":"2009-04-13","year":2009,"month":4,"lon":4.894409,"lat":52.382305,"tags":"amsterdam,netherlands","S2CellId":"47c609b400000000","result":4313,"accuracy":0.27011946,"title":"_MG_0001"}
{"id":3980050145,"url":"http://farm3.staticflickr.com/2578/3980050145_a8493a4d7e.jpg","path":"e73/e63/e73e63801a8f93ab2eed61567ddf6ebd.jpg","date":"2009-10-04","year":2009,"month":10,"lon":4.857233,"lat":52.34398,"tags":"90+ans,90+ans+citro%C3%ABn,90+jaar,90+jaar+citro%C3%ABn,90+years+citro%C3%ABn,ami6,amsterdam,andr%C3%A9+citro%C3%ABn,anniversaire,auto,automobiel,automobile,cabriolet,car,citro%C3%ABn,coche,ds,f%C3%AAte,fahrzeug,feest,jubileum,nederland,parade,red,rood,rot,rouge,stadionplein,urban,verjaardag,voertuig,voiture","S2CellId":"40aac00000000000","result":2670,"accuracy":0.012274144,"title":"double+vision","description":"90+years+Citro%C3%ABn+-+Amsterdam%2C+Stadionplein"}
{"id":4304239728,"url":"http://farm5.staticflickr.com/4057/4304239728_7e7665e19f.jpg","path":"125/3f9/1253f9bbb7377bdfe816adb7de33f9b.jpg","date":"2010-01-24","year":2010,"month":1,"lon":4.3377,"lat":52.114487,"tags":"bourdonklok,bourdonklok+waalsdorpervlakte,nederland,waalsdorpervlakte,weekendhike,zuid-holland","S2CellId":"4871500000000000","result":5036,"accuracy":0.007232896,"title":"Bourdonklok+Waalsdorpervlakte","description":"%3Ca+href%3D%22http%3A%2F%2Fnl.wikipedia.org%2Fwiki%2FWaalsdorpervlakte%22+rel%3D%22nofollow%22%3EWaalsdorpervlakte%3C%2Fa%3E+%28Wikipedia%29"}
{"id":5262626671,"url":"http://farm6.staticflickr.com/5246/5262626671_d9e12534e1.jpg","path":"364/cc5/364cc57c886dbf252f424d65cc1fc.jpg","date":"2010-11-13","year":2010,"month":11,"lon":4.892864,"lat":52.3729,"tags":"amsterdam,architecture,cityscape,explore,holland,netherlands,skyline,travel,urban","S2CellId":"47c5b73000000000","result":4278,"accuracy":0.11401805,"title":"Amsterdam","description":"Amsterdam"}
{"id":6898076593,"url":"http://farm8.staticflickr.com/7047/6898076593_e3c7913a53.jpg","path":"b48/cbb/b48cbb9d34531682e99c9186f574234c.jpg","date":"2012-02-17","year":2012,"month":2,"lon":4.493772,"lat":52.263927,"tags":"alpine,kaninefaaten,noordwijkerhout,prins,prinsenhofschool,prinses,tirol","S2CellId":"43f0000000000000","result":2747,"accuracy":0.06283492,"title":"ALG_4680"}
{"id":7991042557,"url":"http://farm9.staticflickr.com/8444/7991042557_2e513671f5.jpg","path":"659/bf7/659bf7bdba91455ea5db3e4d67570e1.jpg","date":"2012-09-15","year":2012,"month":9,"lon":4.781241,"lat":52.924194,"tags":"2012,agusta+bell+204+b,augusta+a109,beech18,breitling,breitling+jet+team+7+x+l39,demo,denhelder,dutch+thunder+yaks+4+x+yak52,flying,fokker,harvards,heldair,heli,jets,k5,mustang,mustang+ph-psi,nh-90,pentax,plane,provost,provost+team+2+x+jet+provost,sigma,t4,tamron,the+swip+team+2+x+twister,tiger+formation+3+x+tigermoth,twister,woody+su26,yaks","S2CellId":"4878440000000000","result":5451,"accuracy":0.14808479,"title":"Heldair+2012+Denhelder"}
{"id":10088394655,"url":"http://farm3.staticflickr.com/2884/10088394655_b6b05c81b1.jpg","path":"d5f/f5e/d5ff5e925af21b9636dfd61efeb5e69.jpg","date":"2013-09-28","year":2013,"month":9,"lon":4.895696,"lat":52.126953,"tags":"2013,farmcamps,kamerik","S2CellId":"39eb190000000000","result":2494,"accuracy":0.0059774546,"title":"Farmcamps+kamerik"}
{"id":10127906044,"url":"http://farm4.staticflickr.com/3735/10127906044_e583231b1e.jpg","path":"b65/f52/b65f520ad3ab251d975d59bec7ff154.jpg","date":"2013-09-14","year":2013,"month":9,"lon":4.896061,"lat":52.362774,"tags":"5d+mark+ii,amsterdam,boat,building,canon,car,channel,city,cloud,ef+40mm+f%2F2.8+stm,eos,gracht,holland,house,leaves,nederland,netherlands,rain,sky,taken+in+2013,tree,water,window","S2CellId":"47c609c500000000","result":4320,"accuracy":0.14292234,"title":"In+de+grachtengordel+van+Amsterdam+%28In+the+Gracht+belt+of+Amsterdam%29"}
{"id":128873945,"url":"http://farm1.staticflickr.com/55/128873945_0f7671abea.jpg","path":"36c/546/36c5462edd32691da414298dcebf0.jpg","date":"2006-03-23","year":2006,"month":3,"lon":4.882274,"lat":52.38582,"tags":"concert,de+snevo%27s,volta","S2CellId":"47a0c00000000000","result":3872,"accuracy":0.028847305,"title":"Wat+snel+is+komt+goed","description":"Dutch+rock+band+%22De+Snevo%27s%22+live+at+play+at+Volta%2C+Amsterdam"}
{"id":316655376,"url":"http://farm1.staticflickr.com/110/316655376_44e1fea092.jpg","path":"162/162/16216241544fa2b669d87865c1dfce.jpg","date":"2006-12-07","year":2006,"month":12,"lon":4.883487,"lat":52.362164,"tags":"20061207,gig,maria+mena,music,paradiso,shozu","S2CellId":"47d8a81000000000","result":4442,"accuracy":0.010687464,"title":"Busy+crowd","description":"-+Taken+at+10%3A17+PM+on+December+07%2C+2006+-+cameraphone+upload+by+ShoZu"}
{"id":3484800064,"url":"http://farm4.staticflickr.com/3352/3484800064_6cdf3e8b78.jpg","path":"b8f/11c/b8f11ccec80cfa69a2d6f2fe5e5d3.jpg","date":"2009-04-25","year":2009,"month":4,"lon":4.815305,"lat":52.471664,"tags":"girl,netherlands,zaanseschans","S2CellId":"47c9b00000000000","result":4397,"accuracy":0.17472513,"title":"Zaanse+Schans"}
{"id":4254817908,"url":"http://farm3.staticflickr.com/2470/4254817908_a139761a02.jpg","path":"514/9b5/5149b53ddc92b5f0c8fdf27e30b355e.jpg","date":"2010-01-07","year":2010,"month":1,"lon":4.361679,"lat":52.00263,"tags":"delft,murtada,murtada+al+mousawy,murtada+al+mousawy+photography","S2CellId":"472c000000000000","result":3253,"accuracy":0.06405903,"title":"Stairs"}
{"id":5005121160,"url":"http://farm5.staticflickr.com/4109/5005121160_bda5957e6c.jpg","path":"19c/224/19c2246b6af4f2337da4e388c78109b.jpg","date":"2010-09-19","year":2010,"month":9,"lon":4.896812,"lat":52.37279,"tags":"amsterdam,dirk-jan+kraan,monochrome,oudezijds+voorburgwal,the+netherlands,waste","S2CellId":"4124000000000000","result":2719,"accuracy":0.01105087,"title":"Deprived+area%2C+Oudezijds+Voorburgwal%2C+Amsterdam+-+The+Netherlands.","description":"Deprived+area%2C+Oudezijds+Voorburgwal%2C+Amsterdam+-+The+Netherlands."}
{"id":5397840180,"url":"http://farm6.staticflickr.com/5213/5397840180_d223786828.jpg","path":"50a/b5b/50ab5bb7199841c7246f5f7a934c4b3.jpg","date":"2011-01-28","year":2011,"month":1,"lon":4.756339,"lat":52.31171,"tags":"airplane,emirates,flight,fly,plane","S2CellId":"89c2670000000000","result":9088,"accuracy":0.092423365,"title":"Emirates"}
{"id":6329715820,"url":"http://farm7.staticflickr.com/6041/6329715820_5f376029d9.jpg","path":"f9d/6cf/f9d6cf18f36b08c8945d88429869d6.jpg","date":"2011-10-21","year":2011,"month":10,"lon":4.879839,"lat":52.374542,"tags":"amsterdam,de+jordaan,nederland","S2CellId":"12b1400000000000","result":800,"accuracy":0.021752063,"title":"de+jordaan","description":"Amsterdam"}
{"id":6368953703,"url":"http://farm7.staticflickr.com/6116/6368953703_cceb97d88d.jpg","path":"e57/71d/e5771d4d9deae6f2d3d6659703ca5a0.jpg","date":"2011-11-20","year":2011,"month":11,"lon":4.281309,"lat":52.11627,"tags":"den+haag,fog,holland,mist,nederland,netherlands,scheveningen,the+hague","S2CellId":"60185cc000000000","result":6453,"accuracy":0.09255656,"title":"De+Pier"}
{"id":6816852421,"url":"http://farm8.staticflickr.com/7162/6816852421_4e96c517f3.jpg","path":"2ce/24e/2ce24e15419a668a82b7293185ed719b.jpg","date":"2012-02-04","year":2012,"month":2,"lon":4.681022,"lat":52.545277,"tags":"castricum,peter,sneeuw,snow,street,white,winter,zoon","S2CellId":"467c000000000000","result":2949,"accuracy":0.024325356,"title":"Winter+streets"}
{"id":7978859264,"url":"http://farm9.staticflickr.com/8300/7978859264_bc0c8c9e3a.jpg","path":"213/e4b/213e4b2b6c2c20bc421368489491a6b3.jpg","date":"2012-09-11","year":2012,"month":9,"lon":4.86087,"lat":52.37489,"tags":"2012,amsterdam,kijk+op+west,netherlands,nld,north-holland,planning,preparations","S2CellId":"808fb74000000000","result":7058,"accuracy":0.032524362,"title":"Planning+and+preparations+for+the+exhibition","description":"Kijk+op+West%2C+Amsterdam%2C+2012-09%0A%0AI+left+my+flyers+also+at+some+local+shops%2C+and+put+them+on+the+pin+board+at+Albert+Heijn+supermarket."}
{"id":7997189512,"url":"http://farm9.staticflickr.com/8032/7997189512_e9e392d9f8.jpg","path":"e05/ca6/e05ca64d5db4f1fa8c9420335176d6b3.jpg","date":"2012-09-16","year":2012,"month":9,"lon":4.588205,"lat":52.503742,"tags":"boef,cute,dog,fun,golven,hovawart,joy,playfull,running,spelen,strand,strandwandeling,wijk+aan+zee,zee","S2CellId":"47c4b00000000000","result":4268,"accuracy":0.050164863,"title":"DSC06669"}
{"id":8229383989,"url":"http://farm9.staticflickr.com/8342/8229383989_0a5bff62ef.jpg","path":"869/8b6/8698b67bb6e6e6fa16c8e6d398596f0.jpg","date":"2012-11-28","year":2012,"month":11,"lon":4.495897,"lat":52.2691,"tags":"2012,jeugdvoetbal,noordwijkerhout,sinterklaas,vvsb","S2CellId":"47c4331000000000","result":4251,"accuracy":0.6247012,"title":"ALG_8512"}
{"id":10713436396,"url":"http://farm6.staticflickr.com/5485/10713436396_4ab06dfe06.jpg","path":"fa8/476/fa8476fe78a19643e85482d86f16bc0.jpg","date":"2004-08-24","year":2004,"month":8,"lon":4.76533,"lat":52.307842,"tags":"airbus,airport,america,amsterdam,amsterdam+airport+schiphol,boeing,chicago+o%27hare+international+airport,d%C3%BCsseldorf+airport+-+dus+-+flughafen+d%C3%BCsseldorf,england,flughafen+m%C3%BCnster%2Fosnabr%C3%BCck+international+airport,lockheed,london+heathrow+airport,nikon+d300,nikon+d40,panasonic+dmc-fz10,panasonic+dmc-fz30,tamron+af+70-300mm+f%2F4-5.6+di+vc+usd+%28if%29,uk,united+states,winglet","S2CellId":"47bd0b0000000000","result":4083,"accuracy":0.12882616,"title":"Amsterdam+Airport+Schiphol","description":"Panasonic+DMC-FZ10"}
{"id":11349415636,"url":"http://farm6.staticflickr.com/5540/11349415636_fbe8f2c90b.jpg","path":"74b/5bc/74b5bc9472329f0a535d3c76270d5d3.jpg","date":"2013-11-21","year":2013,"month":11,"lon":4.883166,"lat":52.366333,"tags":"amsterdam,netherlands","S2CellId":"47c609c500000000","result":4320,"accuracy":0.14956713,"title":"Sunset++%7C++Amsterdam++%7C++Netherlands","description":"Sunset++%7C++Amsterdam++%7C++Netherlands"}
{"id":13520566283,"url":"http://farm6.staticflickr.com/5301/13520566283_ecfe16b77f.jpg","path":"ab2/7d8/ab27d83ed8de877288cac6852e982b14.jpg","date":"2014-03-30","year":2014,"month":3,"lon":4.297881,"lat":52.099426,"tags":"madurodam","S2CellId":"47c5b75000000000","result":4279,"accuracy":0.51086897,"title":"Veerpont"}
{"id":54375733,"url":"http://farm1.staticflickr.com/31/54375733_6f0412a563.jpg","path":"9aa/044/9aa044ad408891bd33708b61914f0.jpg","date":"2005-10-16","year":2005,"month":10,"lon":4.649362,"lat":52.11304,"tags":"cats","S2CellId":"8620af4000000000","result":7522,"accuracy":0.020177213,"title":"cats","description":"almost+hidden"}
{"id":289841965,"url":"http://farm1.staticflickr.com/113/289841965_d1b7f26efc.jpg","path":"8a2/fc5/8a2fc52f982da1ed6a4b8b47ff49380.jpg","date":"2006-11-03","year":2006,"month":11,"lon":4.938025,"lat":52.370106,"tags":"amsterdam,kronenstede,netherlands,sunset,view","S2CellId":"4719000000000000","result":3230,"accuracy":0.021326164,"title":"Kronenstede+after+Sunset","description":"Kronenstede%2C+the+building+in+which+I+work+in+Amstelveen+just+after+the+sunset.+The+picture+is+shot+from+the+apartmentbuilding+%22De+Watertoren%22+on+the+%22C.+van+Eesterenlaan%22+in+%22Het+Oostelijk+Havengebied%22."}
{"id":299370952,"url":"http://farm1.staticflickr.com/117/299370952_89c4c50432.jpg","path":"93c/bc5/93cbc5297d4e328d3fbb4aa38a941277.jpg","date":"2006-11-13","year":2006,"month":11,"lon":4.900503,"lat":52.373005,"tags":"2006,abstract,amsterdam,me","S2CellId":"89c25854c0000000","result":8959,"accuracy":0.0050019203,"title":"Rising+sun","description":"No+it%27s+not+a+filter"}
{"id":583137160,"url":"http://farm2.staticflickr.com/1038/583137160_28aea67234.jpg","path":"905/947/9059475e777a0794c6b2ede753ddd26.jpg","date":"2007-04-01","year":2007,"month":4,"lon":4.872683,"lat":52.358906,"tags":"01042007,amsterdam,mar2007,netherlands","S2CellId":"487604d900000000","result":5252,"accuracy":0.05521436,"title":"P4019200","description":"Sunday+morning+walk+in+the+Vondelpark%2C+Amsterdam."}
{"id":2975881290,"url":"http://farm4.staticflickr.com/3217/2975881290_31f4f36548.jpg","path":"6a9/d59/6a9d59dc2f57e144e222f78b4ecaf35a.jpg","date":"2008-10-25","year":2008,"month":10,"lon":4.612342,"lat":52.38926,"tags":"2008,chess,chesscool,cool,hutton,match,schaak,schaken,toernooi,tournament,wedstrijd","S2CellId":"87f1000000000000","result":8044,"accuracy":0.2699114,"title":"Hutton_Haarlem_16102008_045"}
{"id":3159420602,"url":"http://farm4.staticflickr.com/3291/3159420602_14a1ed29e6.jpg","path":"461/bb8/461bb82c4dbd863a8631a8128365c8d9.jpg","date":"2008-12-26","year":2008,"month":12,"lon":4.956003,"lat":52.36582,"tags":"%C5%BEiema,%CF%87%CE%B5%CE%B9%CE%BC%CF%8E%CE%BD%CE%B1%CF%82,%D0%B7%D0%B8%D0%BC%D0%B0,%E0%B8%A4%E0%B8%94%E0%B8%B9%E0%B8%AB%E0%B8%99%E0%B8%B2%E0%B8%A7,dimra,gaeaf,gwaf,hiver,inverno,jiilaal,k%C4%B1%C5%9F,musim+dingin,vinter,winter,wintry,zima,zistan","S2CellId":"47a9400000000000","result":3952,"accuracy":0.010636109,"title":"Harry+2008"}
{"id":4673112645,"url":"http://farm5.staticflickr.com/4058/4673112645_0f65fa9185.jpg","path":"c29/971/c29971d1e451aa97fbcc04681927a73.jpg","date":"2010-05-06","year":2010,"month":5,"lon":4.345779,"lat":52.118454,"tags":"jaap,simone,voorlinden,wassenaar","S2CellId":"89b7b7bd00000000","result":8872,"accuracy":0.056871623,"title":"177+Kiss","description":"foto%3A+Imagine+fotografie"}
{"id":5047033767,"url":"http://farm5.staticflickr.com/4091/5047033767_28bbd352c0.jpg","path":"9c6/a6c/9c6a6c1ca55053601df1bdb449e6bb6.jpg","date":"2010-10-03","year":2010,"month":10,"lon":4.319429,"lat":52.07671,"tags":"art,beeld,den+haag,ekenitr,muzenplein,nederland,netherlands,public+art,roberto+barni,sculpture,statue,the+hague,zuid-holland","S2CellId":"8718400000000000","result":7729,"accuracy":0.01899162,"title":"Den+Haag%2C+Andante+and+Adagio%2C+made+by+Roberto+Barni","description":"Muzenplein"}
{"id":5175643560,"url":"http://farm5.staticflickr.com/4088/5175643560_f8938da6cc.jpg","path":"3aa/063/3aa06348e1284dea5a5d0e812a936f1.jpg","date":"2009-04-06","year":2009,"month":4,"lon":4.897676,"lat":52.36822,"tags":"amsterdam,blog,canal,church,holland,netherlands","S2CellId":"47c609bf00000000","result":4317,"accuracy":0.31824914,"title":"Amsterdam","description":"Amsterdam%2C+Netherlands"}
{"id":5328413392,"url":"http://farm6.staticflickr.com/5010/5328413392_fb9cb5a4d9.jpg","path":"d65/956/d659568ef892f1702dd0fb9ec1d54ea.jpg","date":"2009-03-03","year":2009,"month":3,"lon":4.894752,"lat":52.37497,"tags":"amsterdam,city,holandia,holland,miasto,netherlands","S2CellId":"3404014000000000","result":2000,"accuracy":0.047637556,"title":"Amsterdam","description":"Amsterdam%2C+Holland."}
{"id":5487104968,"url":"http://farm6.staticflickr.com/5096/5487104968_c680fbb9b8.jpg","path":"a49/aa3/a49aa3e5141dd13043868837813a56b.jpg","date":"2011-02-25","year":2011,"month":2,"lon":4.865213,"lat":52.35757,"tags":"amsterdam,netherlands","S2CellId":"4876054c00000000","result":5266,"accuracy":0.017368544,"title":"Bird+watcher"}
{"id":6127285220,"url":"http://farm7.staticflickr.com/6199/6127285220_6856d55194.jpg","path":"127/dc3/127dc3acfc091229a83ddb06acb7fbf.jpg","date":"2011-09-03","year":2011,"month":9,"lon":4.5825,"lat":52.010166,"tags":"braderie,canon+eos+40d,marianne+de+wit,oogstfeest","S2CellId":"4652700000000000","result":2867,"accuracy":0.1321896,"title":"Oogstfeest+-+Braderie+-+ZH","description":"Oogstfeest+-+Braderie+-+Zuidholland+-+Zevenhuizen+2011"}
{"id":6134638922,"url":"http://farm7.staticflickr.com/6163/6134638922_9e9c847607.jpg","path":"ed8/971/ed8971bb1d8559928bb4bde6ea6c6d0.jpg","date":"2011-09-10","year":2011,"month":9,"lon":4.890188,"lat":52.29417,"tags":"amstelveen,fabriek,knsf-terrein,monument,rm%3D511967,rm%3D511969,watertoren","S2CellId":"47c9b00000000000","result":4397,"accuracy":0.23762812,"title":"Salpeter-+en+Katoenmagazijn+en+watertoren","description":"Links+het+Salpeter-+en+Katoenmagazijn+%28rijksmonument+511969%29+van+de+KNSF+uit+1903+aan+de+Oude+Molen+in+Amstelveen.+Rechts+de+watertoren+%28rijksmonument+511967%29."}
{"id":8207513214,"url":"http://farm9.staticflickr.com/8197/8207513214_cdcf863629.jpg","path":"6e9/991/6e9991c68a52bcddf11fd45663bd6871.jpg","date":"2012-11-20","year":2012,"month":11,"lon":4.917969,"lat":52.379475,"tags":"amsterdam,dog,javaeiland,knsm,magyarvizsla,vizsla","S2CellId":"46416ec000000000","result":2800,"accuracy":0.109558605,"title":"Gina","description":"photo%3A+Bert+Kommerij"}
{"id":9310901280,"url":"http://farm6.staticflickr.com/5495/9310901280_b3d2fecb58.jpg","path":"c4d/e98/c4de98a645757c78cbf6f23c75ae6f.jpg","date":"2013-07-11","year":2013,"month":7,"lon":4.218655,"lat":52.068142,"tags":"bc2013,beach+biking,beach+challenge+2013,cube,mtb,mtb+beach+race","S2CellId":"4652550000000000","result":2864,"accuracy":0.059337683,"title":"BC2013_MTB+criterium_%5BDSC_0214%5D_20130710_21-00-11","description":"Beach+Challenge+2013+-+CUBE+Beach+criterium"}
{"id":9351289490,"url":"http://farm8.staticflickr.com/7350/9351289490_f248e275ce.jpg","path":"83d/bbc/83dbbc6c9ef524c62482b36925662fd.jpg","date":"2013-07-23","year":2013,"month":7,"lon":4.515214,"lat":52.14586,"tags":"kat,leiden,moetkunnen,roomburg,vitriviusstraat","S2CellId":"47bed00000000000","result":4110,"accuracy":0.05521232,"title":"Apple%27s+magic+trackpad+als+ergonomisch+kussen+%23moetkunnen"}
{"id":1312025652,"url":"http://farm2.staticflickr.com/1134/1312025652_78e02ad939.jpg","path":"7dd/f45/7ddf4555b89987bc1da43a1bc48fb3.jpg","date":"2007-07-29","year":2007,"month":7,"lon":4.900428,"lat":52.371323,"tags":"amsterdam,architecture,netherlands,streets,summer,vacation","S2CellId":"47c434b000000000","result":4258,"accuracy":0.1879983,"title":"St.+Antoniesbreestraat"}
{"id":3996112040,"url":"http://farm4.staticflickr.com/3495/3996112040_a5a46c50fb.jpg","path":"655/bb7/655bb7f1e02a91b838646067d728f3cc.jpg","date":"2009-10-09","year":2009,"month":10,"lon":4.865833,"lat":52.38333,"tags":"amsterdam,maesum,netherlands,openismus","S2CellId":"88fd000000000000","result":8754,"accuracy":0.009733483,"title":"20091009_002.jpg"}
{"id":5771872046,"url":"http://farm4.staticflickr.com/3177/5771872046_c89e038a1c.jpg","path":"908/2de/9082de594d143ca58a7b844742f628.jpg","date":"2011-04-22","year":2011,"month":4,"lon":4.88987,"lat":52.369324,"tags":"amsterdam,english+church,house,statue,wooden","S2CellId":"47c609c100000000","result":4318,"accuracy":0.17067131,"title":"oldest+house+in+Amsterdam%2C+across+from+the+%22English%22+Church%2C+which+is+actually+the+Church+of+Scotland+in+Amsterdam.","description":"%3Ca+href%3D%22http%3A%2F%2Fmaps.google.co.uk%2Fmaps%2Fplace%3Fcid%3D15372718833439758135%26q%3Denglish%2Bchurch%2Bamsterdam%26hl%3Den%26gl%3Duk%26ved%3D0CBIQ-gswAA%26sa%3DX%26ei%3DKJDiTdLmJoj1jAfl-YjiDQ%26sig2%3DyJGppvcT2991aTcQSVl7DA%22+rel%3D%22nofollow%22%3Emaps.google.co.uk%2Fmaps%2Fplace%3Fcid%3D15372718833439758135%26amp...%3C%2Fa%3E"}
{"id":7097613567,"url":"http://farm6.staticflickr.com/5191/7097613567_da96469068.jpg","path":"801/b73/801b734d2972ec114efa8b42c7d1ed.jpg","date":"2012-04-20","year":2012,"month":4,"lon":4.905977,"lat":52.373734,"tags":"amsterdam,frontendunited","S2CellId":"4876053400000000","result":5263,"accuracy":0.020694973,"title":"random+mercedes"}
{"id":1382581049,"url":"http://farm2.staticflickr.com/1256/1382581049_7559e5a035.jpg","path":"a4b/6a7/a4b6a7dd691935725a728c284ecfada.jpg","date":"2007-08-23","year":2007,"month":8,"lon":4.585407,"lat":52.494835,"tags":"avond,licht,natuur,strand,water,weer,wijk+aan+zee,zee,zon,zonsondergang","S2CellId":"3bec000000000000","result":2578,"accuracy":0.02054242,"title":"Zonsondergang+op+het+strand","description":"Ondergaande+zon+bij+Wijk+aan+Zee."}
{"id":1387227285,"url":"http://farm2.staticflickr.com/1052/1387227285_d9c8f4bb6a.jpg","path":"db5/de2/db5de2ace9ccc06713d4811da5828f4.jpg","date":"2007-09-15","year":2007,"month":9,"lon":4.788758,"lat":52.92196,"tags":"airshow,den+helder","S2CellId":"88dec00000000000","result":8643,"accuracy":0.039181165,"title":"DSC_5103"}
{"id":3203802275,"url":"http://farm4.staticflickr.com/3522/3203802275_8ffa251227.jpg","path":"ca6/774/ca677466137ed3076c037e041b755e3.jpg","date":"2009-01-02","year":2009,"month":1,"lon":4.710817,"lat":52.346664,"tags":"737,737-82r,aircraft,airline,airlines,airplane,airplane+spotting,airplanes,ams,amsterdam,aviation,boeing,camera,commercial,d80,eham,fly,flying,nikon,pegasus,plane,plane+spotting,schiphol,spotting,tc-aae","S2CellId":"882b3c0000000000","result":8260,"accuracy":0.032225333,"title":"TC-AAE+Pegasus+Airlines","description":"500mm+and+little+crop+for+this+photo.%0ABoeing+737-82R+Amsterdam+schiphol+%5BAMS+%2F+EHAM%5D+02-01-2009"}
{"id":4397900544,"url":"http://farm3.staticflickr.com/2776/4397900544_f6dc8dd1b1.jpg","path":"57e/cba/57ecba0748292581626a5ed46205e87.jpg","date":"2010-02-27","year":2010,"month":2,"lon":4.688607,"lat":52.258408,"tags":"alojamiento,amsterdam,corredor,europa,hdr,holanda,hotel,madera,netherlands,pa%C3%ADses+bajos,pasadizo,schiphol,schiphol+a4,tehzeta,viaje","S2CellId":"85d1f94000000000","result":7469,"accuracy":0.023462914,"title":"Dormitorios+-+Schiphol+A4+Hotel"}
{"id":4460799480,"url":"http://farm5.staticflickr.com/4048/4460799480_d0245df0ee.jpg","path":"5d8/b95/5d8b95d4ee36986b4d59d6c51d78947b.jpg","date":"2010-03-24","year":2010,"month":3,"lon":4.481391,"lat":52.341003,"tags":"red-eared+slider,red-eared+terrapin,roodwangschildpad,schildpad,trachemys+scripta+elegans,turtle","S2CellId":"88d9f00000000000","result":8605,"accuracy":0.044866897,"title":"The+Reflection+-+Dutch+water+safari","description":"When+we+drove+past+some+water+on+our+way+home+%28less+than+500m+from+my+front+door%29+I+spotted+something+that+looked+a+bit+out+of+place%3A+a+25-30cm+Red-Eared+Slider+doing+nothing+much+in+particular.+%0A%0AI%27ve+seen+these+animals+in+the+Netherlands+before%2C+but+only+in+fish+tanks+%3B-%29%0AIt+looked+like+this+escapee+survived+last+harsh+winter+very+well.+The+canal+this+guy+was+in+was+completely+frozen+over+just+a+few+weeks+before+this+picture+was+taken.%0A%0AIn+fact%2C+this+was+the+first+animal+shot+I+took+after+our+return+from+a+steaming+hot+%2840%2B+deg%29+South+Africa+trip%2C+made+this+just+the+extra+bit+special.+%3A-%29"}
{"id":7555126644,"url":"http://farm9.staticflickr.com/8289/7555126644_b4ac5d1c06.jpg","path":"b44/3a9/b443a95b564a6c72b288e08c14c5da34.jpg","date":"2012-07-12","year":2012,"month":7,"lon":4.888666,"lat":52.368668,"tags":"amsterdam,amsterdamize,bicycles,bikeams,cycling,instagram,iphone,iphone4s,netherlands,peopleonbicycles,peopleonbikes,streetphotography","S2CellId":"47c609c500000000","result":4320,"accuracy":0.13217859,"title":"Instagram","description":"Shot+on+the+fly+with+my+iPhone.%0A%0AVisit+%3Ca+href%3D%22http%3A%2F%2Famsterdamize.com%22+target%3D%22_blank%22+rel%3D%22nofollow%22%3EAmsterdamize%3C%2Fa%3E%21"}
{"id":125254889,"url":"http://farm1.staticflickr.com/49/125254889_08672e9b17.jpg","path":"27c/db2/27cdb29cbc53f73857e1e8f145771bf.jpg","date":"2006-04-08","year":2006,"month":4,"lon":4.649362,"lat":52.11304,"tags":"2006,archeon,roman,tower,vvva,wall","S2CellId":"47c4100000000000","result":4245,"accuracy":0.024455009,"title":"roman+wall+%285%29","description":"Are+the+gods+positive%3F"}
{"id":155627290,"url":"http://farm1.staticflickr.com/46/155627290_8c1354126a.jpg","path":"257/399/257399f0dd2889ae24e71f4d95909d34.jpg","date":"2006-05-15","year":2006,"month":5,"lon":4.889152,"lat":52.362503,"tags":"amsterdam","S2CellId":"47c609bf00000000","result":4317,"accuracy":0.14742795,"title":"Amsterdam"}
{"id":163273617,"url":"http://farm1.staticflickr.com/48/163273617_3c09de9989.jpg","path":"fdc/a7d/fdca7db768132ba679728ce65a7dcc3.jpg","date":"2006-06-04","year":2006,"month":6,"lon":4.892714,"lat":52.373295,"tags":"amsterdam,azlan,canals,europe,holland,netherlands","S2CellId":"47c609bf00000000","result":4317,"accuracy":0.07942352,"title":"P6041236.JPG"}
{"id":2268412581,"url":"http://farm3.staticflickr.com/2034/2268412581_926d6b9ed5.jpg","path":"448/b66/448b66d893e6fa43a8d5d3655115a8.jpg","date":"2008-02-04","year":2008,"month":2,"lon":4.885418,"lat":52.37704,"tags":"amsterdam,d50,holland,red,travel","S2CellId":"47c350cc00000000","result":4172,"accuracy":0.25230002,"title":"Red+Shutters"}
{"id":5170186969,"url":"http://farm2.staticflickr.com/1431/5170186969_0da8a9b76f.jpg","path":"d13/2dc/d132dc716a4041a2f3157ff3a95e3f5.jpg","date":"2010-11-13","year":2010,"month":11,"lon":4.921749,"lat":52.372234,"tags":"gauwmeer,netherlands,schaatsen,skating","S2CellId":"47c61c0000000000","result":4342,"accuracy":0.5083266}
{"id":5213989341,"url":"http://farm6.staticflickr.com/5009/5213989341_b30225ccc7.jpg","path":"f1b/a1c/f1ba1c0ca7a8d19dbc5ffc94f5eec1f.jpg","date":"2010-11-28","year":2010,"month":11,"lon":4.884806,"lat":52.37239,"tags":"9+straatjes,amsterdam,bicyle,bridge,canal,city,cycle,de+negen+straatjes,holland,nederland,netherlands","S2CellId":"47c609c500000000","result":4320,"accuracy":0.16343312,"title":"Kees+Fensbrug","description":"Kees+Fensbrug+was++named+after+Kees+Fens%2C+the+writer+and+literary+critic+whose+house+overlooked+the+bridge."}
{"id":5505226337,"url":"http://farm6.staticflickr.com/5100/5505226337_5e7c9903ee.jpg","path":"4d2/a33/4d2a3369bfda576298c6d9aaa7afde1b.jpg","date":"2011-03-06","year":2011,"month":3,"lon":4.242374,"lat":52.037506,"tags":"2011,6,dames,den,downloaden%21,duell,finish,gieskens,gratis,haag,haags,hsk,kampioenschap,ladies,lady%27s,leontien,maart,nicky,pigge,selmar,swabo,te,trias,wielrennen,www.selmarpigge.nl","S2CellId":"485d400000000000","result":4830,"accuracy":0.06876039,"title":"Haags+Regio+Kampioenschap+2011","description":"6+maart+2011"}
{"id":5680318101,"url":"http://farm6.staticflickr.com/5141/5680318101_9fc1b75580.jpg","path":"d82/2d9/d822d9a82f1429ba0db757e4c5b9d.jpg","date":"2011-05-01","year":2011,"month":5,"lon":4.896385,"lat":52.36577,"tags":"amsterdam,city,netherlands,nl,view","S2CellId":"47a851df00000000","result":3938,"accuracy":0.030687718,"title":"Night+view+from+the+hotel","description":"Amsterdam"}
{"id":5973513458,"url":"http://farm7.staticflickr.com/6018/5973513458_f63dd12c35.jpg","path":"a0c/b9b/a0cb9b1c96e2fa3bc8f863384432b7cd.jpg","date":"2011-07-24","year":2011,"month":7,"lon":4.892783,"lat":52.364002,"tags":"amsterdam,foam","S2CellId":"12c9100000000000","result":838,"accuracy":0.0067657917,"title":"Mila+at+foam"}
{"id":6816277605,"url":"http://farm8.staticflickr.com/7013/6816277605_38dbe8297a.jpg","path":"751/47e/75147e3dc1a495dce924b2ec48912e2.jpg","date":"2012-02-04","year":2012,"month":2,"lon":4.677622,"lat":52.135273,"tags":"sneeuw,winter","S2CellId":"4653ac0000000000","result":2875,"accuracy":0.022749817,"title":"Beachvolleybalnet"}
{"id":6913689891,"url":"http://farm8.staticflickr.com/7186/6913689891_3ec744b4db.jpg","path":"9bc/6d6/9bc6d672bdcac6c19f2a2bed3f72df4.jpg","date":"2011-08-13","year":2011,"month":8,"lon":4.893189,"lat":52.37312,"tags":"amsterdam","S2CellId":"47c609c740000000","result":4323,"accuracy":0.086204425,"title":"Party+in+Front%2C+Business+in+Back"}
{"id":7902106642,"url":"http://farm9.staticflickr.com/8446/7902106642_dc8ca15c03.jpg","path":"553/69e/55369e7e84a50492727cd5a8ec1546.jpg","date":"2012-08-31","year":2012,"month":8,"lon":4.885986,"lat":52.37539,"tags":"%C3%A1msterdam,amsterdam,europa,europa+2012,holanda,holanda+septentrional,nikon+d800,pa%C3%ADses+bajos,paises+bajos","S2CellId":"47c609bf00000000","result":4317,"accuracy":0.23408565,"title":"Europa+2012-1976.jpg"}
{"id":8300588751,"url":"http://farm9.staticflickr.com/8499/8300588751_8e5c159a74.jpg","path":"199/894/199894b2f7f97a9b3b8bb6e7359f6aa5.jpg","date":"2012-12-23","year":2012,"month":12,"lon":4.492764,"lat":52.262577,"tags":"2012,glazenhuis,noordwijkerhout","S2CellId":"48761ca550000000","result":5339,"accuracy":0.08476379,"title":"FEE_2993+%28Large%29"}
{"id":8753578790,"url":"http://farm4.staticflickr.com/3740/8753578790_0aa690d442.jpg","path":"aab/195/aab19514dbebaed3aa50cfee299fcb3f.jpg","date":"2012-09-19","year":2012,"month":9,"lon":4.879333,"lat":52.357334,"tags":"photo+stream","S2CellId":"48761d7000000000","result":5354,"accuracy":0.11875055,"title":"IMG_5119"}
{"id":65060642,"url":"http://farm1.staticflickr.com/26/65060642_f2c1215f88.jpg","path":"d1e/071/d1e07131c7f0fb272aa556e9e9a86e25.jpg","date":"2005-11-20","year":2005,"month":11,"lon":4.541387,"lat":52.38681,"tags":"bike,ligfiets,recumbent","S2CellId":"0d30c00000000000","result":303,"accuracy":0.18748225}
{"id":151287013,"url":"http://farm1.staticflickr.com/47/151287013_79cd132462.jpg","path":"a09/0f0/a090f0d1314057e1a5f25e9c4ff16e23.jpg","date":"2006-05-21","year":2006,"month":5,"lon":4.541387,"lat":52.38681,"tags":"2006,cycle,recumbent,vision","S2CellId":"548ff00000000000","result":6177,"accuracy":0.030423362,"title":"IMG_6152"}
{"id":151303741,"url":"http://farm1.staticflickr.com/45/151303741_c16e58e538.jpg","path":"bae/454/bae454e2e29b214a7a1c5a5611cac0.jpg","date":"2006-05-21","year":2006,"month":5,"lon":4.541387,"lat":52.38681,"tags":"2006,cycle,recumbent,vision","S2CellId":"487603c000000000","result":5203,"accuracy":0.105598256,"title":"IMG_6229"}
{"id":232489508,"url":"http://farm1.staticflickr.com/87/232489508_ccaef4c87f.jpg","path":"6f3/915/6f3915bcad7b6085edde89773af57842.jpg","date":"2006-09-02","year":2006,"month":9,"lon":4.810638,"lat":52.367214,"tags":"7ouma,amsterdam,dance,festival,marokkaan,moroccan,moroccans,music,sloterpark,sloterplas,west","S2CellId":"33bd000000000000","result":1947,"accuracy":0.014932304,"title":"Circles"}
{"id":241395586,"url":"http://farm1.staticflickr.com/80/241395586_caa106b48a.jpg","path":"6c4/6e7/6c46e71fef2c61b0f1e9fdb33166bed1.jpg","date":"2006-09-10","year":2006,"month":9,"lon":4.930168,"lat":52.41162,"tags":"fietstocht,noordholland","S2CellId":"47b6400000000000","result":4028,"accuracy":0.008565734,"title":"Waterland+bij+zonsopkomst","description":"Waterland+bij+zonsopkomst%0A%0A%3Ca+href%3D%22http%3A%2F%2Fmaps.google.com%3Fq%3D52.4116212928173%2C4.930168390274048%28Waterland+bij+zonsopkomst%29%26t%3Dh%22%3ESee+where+this+picture+was+taken.%3C%2Fa%3E+%3Ca+href%3D%22http%3A%2F%2Fwww.flickr.com%2Fgroups%2Fgeotagging%2Fdiscuss%2F72157594165549916%2F%22%3E%5B%3F%5D%3C%2Fa%3E"}
{"id":789077473,"url":"http://farm2.staticflickr.com/1275/789077473_a1c4495e7a.jpg","path":"6cb/e3c/6cbe3c20bbdf3582a72b3881506e90.jpg","date":"2004-04-22","year":2004,"month":4,"lon":4.538297,"lat":52.264954,"tags":"flower,garden,holland,keukenhof,netherlands","S2CellId":"47c5c30000000000","result":4284,"accuracy":0.67580134,"title":"04-22-04+Keukenhof+0098"}
{"id":1032660216,"url":"http://farm2.staticflickr.com/1074/1032660216_9ebe52436a.jpg","path":"dd7/1a6/dd71a67dba6060901bf9a4eb9320a829.jpg","date":"2007-08-04","year":2007,"month":8,"lon":4.344127,"lat":52.106583,"tags":"bachelors+martijn,subsoci%C3%A9t%C3%A9+des+hommes+malboro","S2CellId":"464cc00000000000","result":2821,"accuracy":0.042015783,"title":"200708+bachelors+Martijn055"}
{"id":2651883705,"url":"http://farm3.staticflickr.com/2202/2651883705_13b8eeee57.jpg","path":"337/045/3370455248caf066d7947fd4436a61a7.jpg","date":"2004-11-08","year":2004,"month":11,"lon":4.544734,"lat":52.402523,"tags":"birds,nature,nederland,netherlands,sunset,zandvoort","S2CellId":"80dd311000000000","result":7373,"accuracy":0.010282065,"title":"DSCN0069"}
{"id":2931014983,"url":"http://farm4.staticflickr.com/3188/2931014983_f94d043d5d.jpg","path":"1f8/cc1/1f8cc18be7a16d32d5c1abc1531fbb5.jpg","date":"2008-09-14","year":2008,"month":9,"lon":4.896297,"lat":52.369835,"tags":"12sep2008,amsterdam,canaux,cmt,ibc,netherland","S2CellId":"47c609c500000000","result":4320,"accuracy":0.17144,"title":"Week-end+%C3%A0+Amsterdam+pour+l%27IBC"}
{"id":3527493945,"url":"http://farm4.staticflickr.com/3298/3527493945_5b55766f72.jpg","path":"33e/f52/33ef52fac34351b0b3f51fafcffd63e3.jpg","date":"2009-05-01","year":2009,"month":5,"lon":4.885666,"lat":52.365334,"tags":"amsterdam,dutch,eu,europe,holland,nederland,netherlands,vacation","S2CellId":"47a851e400000000","result":3939,"accuracy":0.022832692,"title":"IMG_2364"}
{"id":7544192328,"url":"http://farm9.staticflickr.com/8164/7544192328_72849a6fc5.jpg","path":"456/9da/4569da1567d64192e82c632a333b3af1.jpg","date":"2012-03-14","year":2012,"month":3,"lon":4.316811,"lat":52.104424,"tags":"alexanderkazerne,building,gebouw,grab+machine,grijpmachine,ruin,ruine","S2CellId":"487e770000000000","result":5651,"accuracy":0.02851708,"title":"Alexanderkazerne","description":"Such+a+pity%21+It%27s+a+black+day+for+a+lot+of+people.+The+last+building+of+the+barrack+is+going+down."}
{"id":194571844,"url":"http://farm1.staticflickr.com/67/194571844_26e8367f1c.jpg","path":"135/6b6/1356b6916bb894536d87ca1d2a5ca4c0.jpg","date":"2006-07-20","year":2006,"month":7,"lon":4.896469,"lat":52.37256,"tags":"amsterdam,europe+2006","S2CellId":"47c609c500000000","result":4320,"accuracy":0.18130527,"title":"The+Canal+Tour+around+various+canals+throughout+Amsterdam"}
{"id":222261767,"url":"http://farm1.staticflickr.com/81/222261767_881a34d860.jpg","path":"cf1/a8d/cf1a8d33e691f4bf8636f42397a3e5.jpg","date":"2006-08-21","year":2006,"month":8,"lon":4.484481,"lat":52.16293,"tags":"beestenmarkt,leiden,rain","S2CellId":"6d38afc000000000","result":6837,"accuracy":0.020425497,"title":"Rain%2C+and+more+rain"}
{"id":2489835974,"url":"http://farm3.staticflickr.com/2242/2489835974_0e99aa0ddb.jpg","path":"1d9/683/1d968381c2a79d9b47a6c9af6149b1.jpg","date":"2008-05-13","year":2008,"month":5,"lon":4.91827,"lat":52.37992,"tags":"amsterdam,goldstaraward,sunset,tramonto","S2CellId":"14cab84000000000","result":1309,"accuracy":0.12323543,"title":"-%2C-+tower+of+the+sun"}
{"id":2640791670,"url":"http://farm4.staticflickr.com/3058/2640791670_194c048efd.jpg","path":"aaf/00a/aaf00ad309c74f1c9af7a24b21cacb3.jpg","date":"2008-07-05","year":2008,"month":7,"lon":4.711074,"lat":52.63824,"tags":"amaranth,flowers,plant,purple","S2CellId":"864e640000000000","result":7620,"accuracy":0.16418317,"title":"IMG_4023.JPG"}
{"id":2867019043,"url":"http://farm4.staticflickr.com/3051/2867019043_fb2ed3a9f7.jpg","path":"70f/e4f/70fe4f47d684b965917b9a60a1da6c.jpg","date":"2008-09-09","year":2008,"month":9,"lon":4.914815,"lat":52.376465,"tags":"amsterdam,dog,kristynka,luna","S2CellId":"87cb000000000000","result":7985,"accuracy":0.009552242,"title":"Luna+the+houseboat+dog"}
{"id":5158322775,"url":"http://farm2.staticflickr.com/1211/5158322775_0d51ac3458.jpg","path":"17d/9b6/17d9b65e48ae27db84838cbbf46f1fe.jpg","date":"2010-11-08","year":2010,"month":11,"lon":4.706815,"lat":52.02021,"tags":"18-55mm,appartementen,balkon,canon,digital+rebel,ef-s,eos+500d,gouda,holland,hoogbouw,nederland,netherlands,nieuwbouw,ronssetoren,south,t1i,uitzicht,view,woontoren,zuid","S2CellId":"47c9b00000000000","result":4397,"accuracy":0.0732807,"title":"IMG_8017","description":"Richting+het+noordoosten+met+op+de+achtergrond+de+Reeuwijkse+Plassen"}
{"id":6751084167,"url":"http://farm8.staticflickr.com/7034/6751084167_7b183cb3bf.jpg","path":"763/7a6/7637a66cfe6018c379d65c3f9ec79b72.jpg","date":"2011-12-29","year":2011,"month":12,"lon":4.886991,"lat":52.37178,"tags":"14-42mm,2011,amsterdam,bicycle,br%C3%BCcken,dezember2011,fahrrad,grachten,holland,m.zukio,motiv,netherlands,niederlande,olympus+e-pl3,pen,rotlicht,sonstige,st%C3%A4dtereise,stadt","S2CellId":"47c3c38400000000","result":4200,"accuracy":0.015725985,"title":"Bicycle+town+Amsterdam%2C+29-30.12.2011","description":"Some+pictures+of+my+trip+to+Amsterdam%2C+Netherlands.%0A%0AShot+with+Olympus+E-PL3+with+M.Zuiko+14-42mm+II+R.+Postprocessed+with+Adobe+Lightroom+3.6."}
{"id":7081349201,"url":"http://farm6.staticflickr.com/5464/7081349201_261b057209.jpg","path":"369/74f/36974f3d59a8ffab8ec66a947618b87c.jpg","date":"2012-04-14","year":2012,"month":4,"lon":4.497413,"lat":52.268517,"tags":"2-2,23,b1,nikontino,noordwijkerhout,roda,voetbal,vvsb","S2CellId":"487e940000000000","result":5658,"accuracy":0.17159829,"title":"ALG_0112"}
{"id":7369423516,"url":"http://farm8.staticflickr.com/7212/7369423516_f35c4663a7.jpg","path":"fc7/eee/fc7eeea04724811fdb9ce61fbe8dd16.jpg","date":"2012-05-29","year":2012,"month":5,"lon":4.753646,"lat":52.306694,"tags":"20%3A30,2012,amsterdam,evening,klm,may+29,netherlands,schiphol+airport,sunset","S2CellId":"47c5e10000000000","result":4293,"accuracy":0.09707148,"title":"Schiphol+airport%2C+Amsterdam%2C+Netherlands"}
{"id":8642897416,"url":"http://farm9.staticflickr.com/8388/8642897416_faf1152252.jpg","path":"333/0db/3330dbdc95398f1a478b7bdc647fa4a.jpg","date":"2013-04-11","year":2013,"month":4,"lon":4.817491,"lat":52.47596,"tags":"de+zoeker,holland,mill,molen,nederland,netherlands,noord-holland,oil,oliemolen,zaandijk,zaanse+schans,zaanstad,zaanstreek","S2CellId":"60188bd000000000","result":6480,"accuracy":0.045765683,"title":"Oil+mill+%22De+Zoeker%22"}
{"id":9037039158,"url":"http://farm8.staticflickr.com/7340/9037039158_7eb82b2516.jpg","path":"6e7/860/6e786028c61834d29f31e658412b29.jpg","date":"2013-06-06","year":2013,"month":6,"lon":4.486885,"lat":52.161613,"tags":"harbor,holland,leiden,ships,travel","S2CellId":"47c6040000000000","result":4306,"accuracy":0.16921735,"title":"Old+ship+harbor%2C+Leiden"}
{"id":10561611194,"url":"http://farm6.staticflickr.com/5482/10561611194_68331498fa.jpg","path":"ed4/840/ed48408e4579ce76fcf8a77edd58a586.jpg","date":"2013-10-22","year":2013,"month":10,"lon":4.912186,"lat":52.34113,"tags":"2013,amsterdam,marco","S2CellId":"0d4e300000000000","result":411,"accuracy":0.002540471,"title":"IMG_4999"}
{"id":161607823,"url":"http://farm1.staticflickr.com/51/161607823_bf1dbbebd3.jpg","path":"294/480/2944808670606363d16f5c82627eb8.jpg","date":"2006-06-03","year":2006,"month":6,"lon":4.904751,"lat":52.319893,"tags":"amsterdam,cycling,dutch,holland","S2CellId":"47c6099000000000","result":4310,"accuracy":0.1590019,"title":"Cycling+around+the+outskirts+of+Amsterdam"}
{"id":769103133,"url":"http://farm2.staticflickr.com/1200/769103133_2bb4061670.jpg","path":"652/e7c/652e7c1558b1f1ee5f15db9027b3aa8a.jpg","date":"2007-07-10","year":2007,"month":7,"lon":4.867962,"lat":52.07477,"tags":"woerden","S2CellId":"47c6b00000000000","result":4362,"accuracy":0.09464255,"title":"Afgezette+wegen"}
{"id":2595740182,"url":"http://farm4.staticflickr.com/3105/2595740182_d8b68dc01e.jpg","path":"552/99c/55299c26975db82ccf5eea2a5a6bf5f.jpg","date":"2008-06-20","year":2008,"month":6,"lon":4.8669,"lat":52.33442,"tags":"amsterdam,decoi,decoi2007,vrije+universiteit","S2CellId":"85d2010000000000","result":7483,"accuracy":0.013881626,"title":"DECOI+2007"}
{"id":3707779070,"url":"http://farm4.staticflickr.com/3465/3707779070_166b1e8d8f.jpg","path":"367/ddc/367ddce30536fcdb685f1ff37e9b67.jpg","date":"2009-07-10","year":2009,"month":7,"lon":4.925469,"lat":52.365818,"tags":"amsterdam,singelgracht","S2CellId":"47d870b000000000","result":4419,"accuracy":0.010437353,"description":"voglio+una+barca"}
{"id":4489132411,"url":"http://farm5.staticflickr.com/4022/4489132411_dc523036cb.jpg","path":"f06/acc/f06accbf5721aa6816b3cfeb52979c5d.jpg","date":"2010-03-29","year":2010,"month":3,"lon":4.896651,"lat":52.36145,"tags":"amsterdam,deduif,momo15,momoams,momoams15","S2CellId":"94ce59f000000000","result":9723,"accuracy":0.018920856,"title":"MoMo+15"}
{"id":5157885830,"url":"http://farm2.staticflickr.com/1242/5157885830_11822431a1.jpg","path":"1a6/b3f/1a6b3fa4cf57e8456684927a4b8b4f58.jpg","date":"2010-11-07","year":2010,"month":11,"lon":4.484825,"lat":52.159718,"tags":"autumn+colour,ginkgo,herfst,hortus+botanicus","S2CellId":"48760dd000000000","result":5282,"accuracy":0.010071471,"title":"in+the+Hortus"}
{"id":5675850084,"url":"http://farm6.staticflickr.com/5189/5675850084_2c68ae34e4.jpg","path":"d64/066/d64066ae5d62aa837f14258b9f35c984.jpg","date":"2011-05-01","year":2011,"month":5,"lon":4.789938,"lat":52.361797,"tags":"2011,amsterdam,architecture%3A,claus+en+kaan,escaleras,nieuw-west,ps,reflectie,stairs","S2CellId":"47a851cc00000000","result":3933,"accuracy":0.007930081,"title":"Leo+Polakhuis","description":"%3Ca+href%3D%22http%3A%2F%2Fcreativecommons.org%2Flicenses%2Fby-nc-nd%2F3.0%2Fnl%2F%22+rel%3D%22nofollow%22%3E%3C%2Fa%3EOp+dit+werk+is+een+%3Ca+href%3D%22http%3A%2F%2Fcreativecommons.org%2Flicenses%2Fby-nc-nd%2F3.0%2Fnl%2F%22+rel%3D%22nofollow%22%3ECreative+Commons+Licentie%3C%2Fa%3E+van+toepassing."}
{"id":6703152921,"url":"http://farm8.staticflickr.com/7155/6703152921_77c7de81e8.jpg","path":"89f/5df/89f5df65754b5ac6336473c6fd25c27.jpg","date":"2012-01-15","year":2012,"month":1,"lon":4.431308,"lat":52.248646,"tags":"beach,holland,noordwijk,pentaxk10d,sunset,winter","S2CellId":"47b4400000000000","result":4025,"accuracy":0.2458659,"title":"Day+at+the+Beach"}
{"id":9386912516,"url":"http://farm8.staticflickr.com/7457/9386912516_2893acdbea.jpg","path":"dd7/2f5/dd72f56aff9193a04fe67161f9de6912.jpg","date":"2013-07-28","year":2013,"month":7,"lon":4.530079,"lat":52.381783,"tags":"instagram+app,iphoneography,square,square+format,valencia","S2CellId":"808587c000000000","result":6980,"accuracy":0.049765263,"title":"Cheers"}
{"id":184955953,"url":"http://farm1.staticflickr.com/68/184955953_1abb7334f3.jpg","path":"f3c/d3f/f3cd3f2fe130d5541dc51aec15345.jpg","date":"2006-07-08","year":2006,"month":7,"lon":4.563617,"lat":52.25518,"tags":"holland,keukenhof,netherlands","S2CellId":"47c5c30000000000","result":4284,"accuracy":0.34908798,"title":"014"}
{"id":1490609331,"url":"http://farm2.staticflickr.com/1355/1490609331_5dd80921ac.jpg","path":"416/1d4/4161d46da6fadb5b3cb620d6c1e253.jpg","date":"2006-05-12","year":2006,"month":5,"lon":4.867115,"lat":52.33442,"tags":"amsterdam,green,lake,puddle,vu,wood","S2CellId":"4cb29d0000000000","result":5845,"accuracy":0.013148252,"title":"after+the+rain"}
{"id":2135434162,"url":"http://farm3.staticflickr.com/2199/2135434162_02e612475a.jpg","path":"a92/bfc/a92bfca4f4babcf53823d1be0bfb8d9.jpg","date":"2007-12-23","year":2007,"month":12,"lon":4.89281,"lat":52.37281,"tags":"amsterdam,holland,netherlands,olanda","S2CellId":"47c609bf00000000","result":4317,"accuracy":0.18735304,"title":"DSC_4907"}
{"id":3217538561,"url":"http://farm4.staticflickr.com/3513/3217538561_594743489a.jpg","path":"7ce/e28/7cee28cfe3fc9cac5e8e44886910e6.jpg","date":"2008-07-05","year":2008,"month":7,"lon":4.891372,"lat":52.401264,"tags":"amsterdam,lamp","S2CellId":"549015c000000000","result":6194,"accuracy":0.0388675,"title":"One+down","description":"%5BImg_9046.Jpg%5D"}
{"id":4122282745,"url":"http://farm3.staticflickr.com/2556/4122282745_515d05a4fd.jpg","path":"909/2ed/9092ed1a9b4ce64d55ecad45979ce56.jpg","date":"2009-11-21","year":2009,"month":11,"lon":4.9167,"lat":52.35,"tags":"vlogeurope09","S2CellId":"12c9100000000000","result":838,"accuracy":0.008746271,"title":"Vlogeurope+2009+-+Amsterdam","description":"Oh+there%27s+me%21"}
{"id":4428806548,"url":"http://farm3.staticflickr.com/2686/4428806548_014c000eef.jpg","path":"1dd/72c/1dd72c998b69febe983f5672ecac554.jpg","date":"2010-03-04","year":2010,"month":3,"lon":4.897842,"lat":52.373505,"tags":"amsterdam,holland,netherlands","S2CellId":"89b7b7ec00000000","result":8879,"accuracy":0.008230278,"title":"IMG_3022"}
{"id":5580527718,"url":"http://farm6.staticflickr.com/5066/5580527718_25af2a663c.jpg","path":"818/956/8189566186913dc5f1f51bd6da38933.jpg","date":"2011-04-01","year":2011,"month":4,"lon":4.960828,"lat":52.324127,"tags":"hefe,instagram+app,iphoneography,square,square+format","S2CellId":"548673d400000000","result":6143,"accuracy":0.0030489678,"title":"Perfect+Night+For+A+%23Balloon+Ride+%40visiblethinking"}
{"id":6136693609,"url":"http://farm7.staticflickr.com/6078/6136693609_888a23674c.jpg","path":"197/f80/197f80c08dedf941e1f5d87db7f701a.jpg","date":"2010-02-14","year":2010,"month":2,"lon":4.869003,"lat":52.378323,"tags":"amsterdam,bike,fiets,holland,hollande,neige,snow,velo","S2CellId":"47c609c500000000","result":4320,"accuracy":0.18804194,"title":"IMG_3135"}
{"id":13143206144,"url":"http://farm4.staticflickr.com/3818/13143206144_7a5442c045.jpg","path":"eba/3c3/eba3c333d3de67434c9d69eba32e4ce.jpg","date":"2014-02-18","year":2014,"month":2,"lon":4.89478,"lat":52.373024,"tags":"amsterdam,europe,north+holland,the+netherlands","S2CellId":"47c609c100000000","result":4318,"accuracy":0.149474,"title":"Street+Perspective","description":"Amsterdam"}
{"id":280692984,"url":"http://farm1.staticflickr.com/109/280692984_4e82aec6cf.jpg","path":"b03/d87/b03d87207b87ae1de9346a7da5c0cb9c.jpg","date":"2006-10-17","year":2006,"month":10,"lon":4.759152,"lat":52.302414,"tags":"aerial,airport,amsterdam,europe,flying,fokker,frankfurt,fraport,germany,netherlands,plane,schipol","S2CellId":"89c2670000000000","result":9088,"accuracy":0.118171215,"title":"DSC_8869"}
{"id":438816103,"url":"http://farm1.staticflickr.com/163/438816103_ca52584825.jpg","path":"d14/615/d14615caff661815a4461be2e8f251d.jpg","date":"2007-03-25","year":2007,"month":3,"lon":4.882113,"lat":52.353455,"tags":"amsterdam","S2CellId":"89c2599900000000","result":9021,"accuracy":0.015282021,"title":"L1080444.JPG"}
{"id":2604488568,"url":"http://farm4.staticflickr.com/3152/2604488568_fbf599391b.jpg","path":"3e4/e97/3e4e9776533f9d420c62468bb527068.jpg","date":"2008-05-15","year":2008,"month":5,"lon":4.482464,"lat":52.158337,"tags":"cafe,horsechestnut","S2CellId":"47c9cc0000000000","result":4399,"accuracy":0.04480883,"title":"horse+chestnut%2C+Nieuwe+Rijn"}
{"id":3117752083,"url":"http://farm4.staticflickr.com/3112/3117752083_0547f69967.jpg","path":"ecf/cd4/ecfcd4c10cd8ce7ece5b8f8e3ffe5.jpg","date":"2008-12-03","year":2008,"month":12,"lon":4.870777,"lat":52.366848,"tags":"amsterdam,asmsterdam,b%26w,black+and+white,canal,housse+boat,netherlands","S2CellId":"47c609bf00000000","result":4317,"accuracy":0.19734819,"title":"Amsterdam+winter","description":"Amsterdam"}
{"id":3453407576,"url":"http://farm4.staticflickr.com/3340/3453407576_7c378ca98f.jpg","path":"df9/add/df9addab4503144432addd286fa0e3.jpg","date":"2009-04-15","year":2009,"month":4,"lon":4.545249,"lat":52.2711,"tags":"bloem%3B,bloemen%3B,canon%3B,close-up%3B,digital,eos%3B,flower%3B,flowers%3B,keukenhof%3B,lisse","S2CellId":"47c5c30000000000","result":4284,"accuracy":0.11499652,"title":"IMG_2963"}
{"id":3603373018,"url":"http://farm3.staticflickr.com/2433/3603373018_1784ec206f.jpg","path":"aff/4c4/aff4c4e5e289159b97954d79d07fa963.jpg","date":"2009-06-06","year":2009,"month":6,"lon":4.893252,"lat":52.377808,"tags":"amsterdam,centre,erfgoed,heritage,hotel,monument,rijksmonument,rm%3D5149,singel+13,singel+hotel,wikilovesmonuments","S2CellId":"47c6099000000000","result":4310,"accuracy":0.080164775,"title":"Singel+Hotel+006","description":"SINGEL+HOTEL%0ASINGEL+13-17%0A1012+VC+Amsterdam%0A%2B31%280%2920-6263108%0A%3Ca+href%3D%22http%3A%2F%2Fwww.singelhotel.nl%22+rel%3D%22nofollow%22%3Ewww.singelhotel.nl%3C%2Fa%3E%0A***%0A32+kamers%0A66+bedden%0A%0ASingel+13+is+rijksmonument+5149%0APand+met+gevel+onder+rechte+lijst+%28XIXa%29%2C+met+empire+deurpartij."}
{"id":3808425148,"url":"http://farm4.staticflickr.com/3569/3808425148_44e2632c01.jpg","path":"116/3ce/1163ce781c988c6c61cdbfe2d02c5f69.jpg","date":"2009-07-11","year":2009,"month":7,"lon":4.914793,"lat":52.36669,"tags":"amsterdam+zoo,nikon+d90","S2CellId":"6b12ac4000000000","result":6676,"accuracy":0.0425305,"title":"DSC_375"}
{"id":5271127651,"url":"http://farm6.staticflickr.com/5207/5271127651_fff0cbd475.jpg","path":"bef/a89/befa892ea4201e43de8a646ec4140fc.jpg","date":"2010-12-18","year":2010,"month":12,"lon":4.313399,"lat":52.081345,"tags":"hague,snow,winter","S2CellId":"47c5b73000000000","result":4278,"accuracy":0.25971615,"title":"Duiven+bij+de+Hofvijver"}
{"id":6096470743,"url":"http://farm7.staticflickr.com/6068/6096470743_7784dc8f35.jpg","path":"557/a2a/557a2a9715a2867e5503b46f034ce.jpg","date":"2010-10-31","year":2010,"month":10,"lon":4.893189,"lat":52.37312,"tags":"for+without+them+life+is+a+broken+winged+bird+that+cannot+fly.%E2%80%9Damsterdam+funfair+bird+birds+toned+sepia,hold+fast+to+your+dreams","S2CellId":"88d0a631cabb5071","result":8563,"accuracy":0.0025777048,"title":"Hold+fast+to+your+dreams%2C+for+without+them+life+is+a+broken+winged+bird+that+cannot+fly.%E2%80%9D"}
{"id":6368517833,"url":"http://farm7.staticflickr.com/6231/6368517833_d097b534c7.jpg","path":"c9d/363/c9d36340c6d989d2ab5bf511c33c3231.jpg","date":"2011-11-20","year":2011,"month":11,"lon":4.432175,"lat":52.247684,"tags":"2011,carlo,hotel,monte,noordwijk,oranje,van,winterchallenge","S2CellId":"47c6300000000000","result":4343,"accuracy":0.08408558,"title":"20112011-FEE_1117","description":"Noordwijk+Monte+Carlo+Winterchallenge+2011+Hotel+van+Oranje"}
{"id":7359070244,"url":"http://farm8.staticflickr.com/7242/7359070244_4acb23cf23.jpg","path":"9fe/b2f/9feb2f7aff8b519036d210955fdc4c5a.jpg","date":"2012-06-09","year":2012,"month":6,"lon":4.496068,"lat":52.26909,"tags":"denemarken,foto,nikontino,noordwijkerhout,oranje,voetbal,vvsb,vvsb+bavo+bivak+e+noordwijkerhout+2012+tino+stulen","S2CellId":"0d50940000000000","result":432,"accuracy":0.09243783,"title":"ALG_9059"}
{"id":146305015,"url":"http://farm1.staticflickr.com/48/146305015_92790fafab.jpg","path":"20f/540/20f54042174cb84efdea5c1c903337ef.jpg","date":"2006-05-12","year":2006,"month":5,"lon":4.476928,"lat":52.1773,"tags":"holland,leiden,leyden,the+netherlands,windmill,windmills","S2CellId":"4872100000000000","result":5075,"accuracy":0.027780173,"title":"Doll+Houses"}
{"id":2141511065,"url":"http://farm3.staticflickr.com/2270/2141511065_5d8be6805f.jpg","path":"0f7/42c/0f742cdefdd4586996e585ddf95b3.jpg","date":"2007-12-17","year":2007,"month":12,"lon":4.89605,"lat":52.363537,"tags":"%C3%A1msterdam,%CE%AC%CE%BC%CF%83%CF%84%CE%B5%CF%81%CE%BD%CF%84%CE%B1%CE%BC,%CE%B5%CF%85%CF%81%CF%8E%CF%80%CE%B7,%CF%80%CE%BF%CE%B4%CE%AE%CE%BB%CE%B1%CF%84%CE%BF,%D0%B0%D0%BC%D1%81%D1%82%D0%B5%D1%80%D0%B4%D0%B0%D0%BC,%D0%B2%D0%B5%D0%BB%D0%BE%D1%81%D0%B8%D0%BF%D0%B5%D0%B4,%D0%B3%D0%BE%D0%BB%D0%BB%D0%B0%D0%BD%D0%B4%D0%B8%D1%8F,%D0%B5%D0%B2%D1%80%D0%BE%D0%BF%D0%B0,%D0%BD%D0%B8%D0%B4%D0%B5%D1%80%D0%BB%D0%B0%D0%BD%D0%B4%D1%8B,amsterd%C3%A3,amsterd%C3%A3o,amsterdam,amszterdam,anal%C3%B3gico,avrupa,bicicleta,bicicletta,bicycle,bicyclette,bisiklet,cykel,eur%C3%B3pa,eurooppa,europa,europe,evropa,fahrrad,fiets,film,filme,holanda,holandia,holandsko,holland,hollanda,hollande,hollandia,j%C3%ADzdn%C3%AD+kolo,k-1000,ker%C3%A9kp%C3%A1r,nederl%C3%A4nderna,nederland,netherlands,niederlande,nizozemsko,olanda,pa%C3%ADses+baixos,pa%C3%ADses+bajos,pa%C3%AFsos+baixos,paesi+bassi,pentax,pentax+k-1000,rower","S2CellId":"47c609c500000000","result":4320,"accuracy":0.15436907,"title":"Orange+bike","description":"Reguliersgracht%0AAmsterd%C3%A3+-+Holanda%0AAbril+2002"}
{"id":2702392804,"url":"http://farm4.staticflickr.com/3050/2702392804_32dc7d3920.jpg","path":"214/24c/21424cd576cf454140e9d2c0b8dbd33f.jpg","date":"2008-05-11","year":2008,"month":5,"lon":4.896469,"lat":52.381046,"tags":"agua,amsterdam,bicicleta,bike,canal,city,ciudad,claudio+mufarrege,claudio.ar,color,cruzadas,dsc,europa,europe,fabulous%21,h9,holanda,holland,netherlands,sony,water","S2CellId":"47c609c500000000","result":4320,"accuracy":0.107269086,"title":"Amsterdam%2C+Holland+091+-+Bikes%2C+bikes%2C+bikes+...","description":"%3Ca+href%3D%22http%3A%2F%2Fbighugelabs.com%2Fflickr%2Fonblack.php%3Fid%3D2702392804%26size%3Dlarge%22%3ERecommended+View+On+Black%2C+large+-+Recomendado+Ver+en+Fondo+Negro%2C+grande%3C%2Fa%3E%0A%0A%3Ca+href%3D%22http%3A%2F%2Fwww.flickriver.com%2Fphotos%2Fclaudio_ar%2F%22%3EMost+recent+photos+in+black++-+Mis+fotos+m%C3%A1s+recientes+en+negro%3C%2Fa%3E%0A%0A%3Cb%3EAmsterdam+%3C%2Fb%3Eis+one+of+the+most+bicycle-friendly+cities+in+the+world+and+is+a+centre+of+bicycle+culture+with+good+provision+for+cyclists+such+as+bike+paths+and+bike+racks%2C+which+are+pervasive+throughout+the+city.+%3Cb%3EThere+are+an+estimated+one+million+bicycles+in+the+city%3C%2Fb%3E.+Bike+theft+is+common%2C+so+cyclists+use+large+secure+locks.+Approximately+100+000+bicycles+get+stolen+a+year+in+Amsterdam.+People+use+their+bicycles+for+a+lot+of+different+purposes%2C+which+range+from+going+to+work+to+picking+up+the+children+from+school+and+doing+groceries+with.+A+wide+variety+of+bicycles+can+be+found+throughout+the+city.%0A%0A%3Cb%3EAmsterdam%3C%2Fb%3E+es+uno+de+las+ciudades+del+mundo+m%C3%A1s+amigables+con+la+bicicleta+y+es+un+centro+de+cultura+alrededor+de+este+medio+de+transporte%2C+con+bicisendasi+y++estacionamientos+para+bicicletas%2C+que+son+omnipresentes+en+toda+la+ciudad.+%3Cb%3ESe+calcula+que+hay+un+mill%C3%B3n+de+bicicletas+en+la+ciudad.%3C%2Fb%3E+El+robo+de+bicicletas+es+com%C3%BAn%2C+por+lo+que+los+ciclistas+utilizan+grandes+candados+y+cerraduras+seguras.+Aproximadamente+100+000+bicicletas+son+robadas+por+a%C3%B1o+Amsterdam.++La+gente+usa+sus+bicicletas+para+muchos+fines+diferentes%2C+que+van+desde+ir+a+trabajar+a+recoger+a+los+ni%C3%B1os+de+la+escuela+y+hacer+las+compras+en+las+tiendas+de+comestibles.+Una+amplia+variedad+de+bicicletas+se+pueden+encontrar+en+toda+la+ciudad."}
{"id":2874339143,"url":"http://farm4.staticflickr.com/3106/2874339143_f83a92e9e6.jpg","path":"b7b/84d/b7b84db17f85602fca4a9946c8abd6d.jpg","date":"2008-09-20","year":2008,"month":9,"lon":4.901479,"lat":52.369892,"tags":"amsterdam,nl","S2CellId":"47c609bf00000000","result":4317,"accuracy":0.20380858,"title":"DSC00452"}
{"id":4144776089,"url":"http://farm3.staticflickr.com/2580/4144776089_4cfc896a7c.jpg","path":"f46/98e/f4698e2a64fc17bc22ab789c678aa786.jpg","date":"2009-06-21","year":2009,"month":6,"lon":4.947259,"lat":52.371918,"tags":"amsterdam,architecture,netherlands,scheepstimmermanstraat","S2CellId":"47c6094000000000","result":4309,"accuracy":0.089494176,"title":"Scheepstimmermanstraat"}
{"id":4971125996,"url":"http://farm5.staticflickr.com/4150/4971125996_d731bc83d2.jpg","path":"13f/a26/13fa26c2197cc0c7f01f53523f641.jpg","date":"2010-08-13","year":2010,"month":8,"lon":4.899215,"lat":52.37781,"tags":"amsterdam,holland,netherland,street+photography","S2CellId":"3f40000000000000","result":2632,"accuracy":0.00843308,"title":"Street+Musician+in+Amsterdam+%281+of+2%29"}
{"id":5214396678,"url":"http://farm5.staticflickr.com/4087/5214396678_4023cd4690.jpg","path":"d15/a12/d15a124b3256217d89a974d88fc077a.jpg","date":"2010-11-28","year":2010,"month":11,"lon":4.98886,"lat":52.33505,"tags":"close,cold,d3100,flower,freeze,freezing,ice,icy,macro,nikon,up,water,winter","S2CellId":"4879640000000000","result":5487,"accuracy":0.00884429,"title":"Icy+flower","description":"I+cropped+the+photo.+Bad+choice+to+crop+the+photo+you+think%3F"}
{"id":5675440303,"url":"http://farm6.staticflickr.com/5223/5675440303_dee01409cf.jpg","path":"60e/bc1/60ebc1f3b7945b5d5d8cb3ccf571d8f.jpg","date":"2011-05-01","year":2011,"month":5,"lon":4.663406,"lat":52.668808,"tags":"bos,brand,duin","S2CellId":"89b4400000000000","result":8820,"accuracy":0.03354137,"title":"Duinen+aan+de+Uilenvangersweg","description":"Bos+en+duingebied"}
