{"id":7731977508,"url":"http://farm9.staticflickr.com/8288/7731977508_6bf0f57e1e.jpg","path":"1b2/5aa/1b25aa73e793fe7534aaef849ff52.jpg","date":"2011-12-27","year":2011,"month":12,"lon":-68.85475,"lat":18.36039,"tags":"bayahibe,plonge%CC%81e,republique+dominicaine","S2CellId":"3d00000000000000","result":2580,"accuracy":0.8594201,"title":"Araign%C3%A9e","description":"Araign%C3%A9e+%C3%A0+nez+pointu%2C+end%C3%A9mique+de+la+Mer+des+Cara%C3%AFbes.+Le+macropode+de+l%27endroit+en+quelque+sorte+%28Yellowline+Arrow+Crab%29"}
{"id":8315840972,"url":"http://farm9.staticflickr.com/8082/8315840972_076a1661da.jpg","path":"1ed/b9f/1edb9f723570c7a8780ffda90bb7fcf.jpg","date":"2012-11-18","year":2012,"month":11,"lon":-68.413925,"lat":18.677221,"tags":"barcelo,bavaro,cana,canon,caribbean,caribe,dominican,dominicana,ferias,punta,republic,republica,t4i,travel,vacation","S2CellId":"8ea9000000000000","result":9495,"accuracy":0.05480247,"title":"bavaro","description":"Bavar%C3%B3+-+Punta+Cana+-+Dominican+Republic"}
{"id":2283179782,"url":"http://farm3.staticflickr.com/2116/2283179782_56f6a5ee35.jpg","path":"89c/e65/89ce65c552d49b25f1fef79341ea39a6.jpg","date":"2004-03-08","year":2004,"month":3,"lon":-68.823166,"lat":18.344585,"tags":"caribbean,dr","S2CellId":"8f4c400000000000","result":9516,"accuracy":0.12104427,"title":"P3080045","description":"Santo+Domingo%2C+Dominican+Republic"}
{"id":383815249,"url":"http://farm1.staticflickr.com/133/383815249_100a6fde87.jpg","path":"939/79e/93979e91ee24b211ceecb9ea3a04a58.jpg","date":"2006-12-18","year":2006,"month":12,"lon":-68.829,"lat":18.348986,"tags":"dominicana,dominicus,hacienda,hotel,republica","S2CellId":"8ef7000000000000","result":9508,"accuracy":0.019181889,"title":"Patio+Interior+Edificio+6","description":"Nuestro+edificio"}
{"id":4161406168,"url":"http://farm3.staticflickr.com/2498/4161406168_d095a3fc61.jpg","path":"f9c/35d/f9c35dce34d5a6d7656a5888ec43273.jpg","date":"2009-11-27","year":2009,"month":11,"lon":-68.428116,"lat":18.64809,"tags":"dominican,manatipark,parrot,republic","S2CellId":"88d0a631cabb5071","result":8563,"accuracy":0.18823217,"title":"A+climbing+parrot"}
{"id":3473500912,"url":"http://farm4.staticflickr.com/3358/3473500912_89589225c6.jpg","path":"f31/198/f311983cd05e3f44dc5f986ac962e29f.jpg","date":"2009-04-20","year":2009,"month":4,"lon":-68.35831,"lat":18.568153,"tags":"2009,bahiaprincipe,beach,dominicanrepublic,holiday,puntacana","S2CellId":"8f4fc00000000000","result":9526,"accuracy":0.12374723,"title":"IMG_1971"}
{"id":6988077773,"url":"http://farm8.staticflickr.com/7053/6988077773_566973283a.jpg","path":"82e/377/82e377fa8be1d4203392d05ee3a289ce.jpg","date":"2012-02-21","year":2012,"month":2,"lon":-68.34511,"lat":18.643093,"tags":"altagracia,antillen,antilles,b%C3%A1varo,beach,boyer,cana,carib,caribbean,casino,catalonia,clemens,de,dom.,dom.rep.,dominican,dominicana,dominikanische,golf,greater,gro%C3%9Fe,hig%C3%BCey,hispaniola,hochzeitsreise,honeymoon,indies,insel,inseln,islands,julia,karibik,karibisches,la,leeward,lesser,martin,meer,palm,palmen,palmtree,pirates,playas,punta,rep%C3%BAblica,rep.,republic,republik,resort,romana,ron,rum,salvale%C3%B3n,sand,sea,sonne,sugarcane,tree,west,westindische,white,windward,wippel,zuckerrohr","S2CellId":"88e6c00000000000","result":8660,"accuracy":0.12395375,"title":"Dominikanische+Republik+2012"}
{"id":2683392895,"url":"http://farm4.staticflickr.com/3072/2683392895_1c93578e0c.jpg","path":"b2b/4d9/b2b4d91d8288887c256a9eec236691f1.jpg","date":"2008-07-19","year":2008,"month":7,"lon":-68.35728,"lat":18.64773,"tags":"cana,catalonia,dominican,iphone,puj,punta,republic,resort","S2CellId":"8f4c400000000000","result":9516,"accuracy":0.10455629,"title":"Catalonia+Bavaro-Punta+Cana-19"}
{"id":286783949,"url":"http://farm1.staticflickr.com/115/286783949_08555bf062.jpg","path":"a51/157/a5115741ac53e2622c1f962e4c43354.jpg","date":"2006-10-18","year":2006,"month":10,"lon":-68.43933,"lat":18.42229,"tags":"2006,caribean,celine,chregu,dom.+republik,ferien,iberostar,karibik,luesu,punta+cana,saona","S2CellId":"8f4fc00000000000","result":9526,"accuracy":0.24678032,"title":"DSC09627"}
{"id":313757418,"url":"http://farm1.staticflickr.com/118/313757418_82a15ae6b3.jpg","path":"d91/baa/d91baa37e727fb515760df4cfb9603.jpg","date":"2006-11-23","year":2006,"month":11,"lon":-68.823166,"lat":18.343853,"tags":"bayahibe,dominican+republic,iberostar+hacienda+dominicus,r%C3%A9publique+dominicaine","S2CellId":"8f4c400000000000","result":9516,"accuracy":0.03234781,"title":"Rochers+de+la+plage+au+coucher+de+soleil"}
{"id":2744990609,"url":"http://farm4.staticflickr.com/3026/2744990609_959b462c5e.jpg","path":"885/0e9/8850e93f3f55a96f3427e036b39e84c3.jpg","date":"2008-08-08","year":2008,"month":8,"lon":-68.347664,"lat":18.641365,"tags":"punta+cana,viaje","S2CellId":"3b50000000000000","result":2536,"accuracy":0.055374313,"title":"IMG_0412","description":"Amanecr+en+la+playa.+Punta+Cana"}
{"id":12243177393,"url":"http://farm8.staticflickr.com/7389/12243177393_8f74f2e782.jpg","path":"4f3/fe6/4f3fe613d463a6c690daadc61357ec4d.jpg","date":"2014-01-28","year":2014,"month":1,"lon":-68.44277,"lat":18.712196,"tags":"dominican,jeff+jerrard,punta+cana,sarah+grennan,wedding","S2CellId":"185c000000000000","result":1431,"accuracy":0.17661747,"title":"Jeff+and+Sarah%27s+Wedding"}
{"id":8931366802,"url":"http://farm4.staticflickr.com/3684/8931366802_43d8d53084.jpg","path":"c31/bc2/c31bc2f7693d1cc1eb25a5f9a88a79a4.jpg","date":"2013-04-01","year":2013,"month":4,"lon":-68.705345,"lat":18.623384,"tags":"day,earth,higuey,instacool,instadaily,instagood,instamood,instapic,instaplace,instaplaceapp,photo,photooftheday,pic,picoftheday,picture,place,rep,travelgram,world","S2CellId":"07b4000000000000","result":115,"accuracy":0.07050947,"title":"instaplace+%23instaplaceapp+%23instagood+%23travelgram+%23photooftheday+%23instamood...","description":"%23instaplace+%23instaplaceapp+%23instagood+%23travelgram+%23photooftheday+%23instamood+%23picoftheday+%23instadaily+%23photo+%23instacool+%23instapic+%23picture+%23pic+%40instaplaceapp+%23place+%23earth+%23world++%23rep%C3%BAblicadominicana+%23higuey++%23day%0A%0A11+Likes+on+Instagram"}
{"id":347885972,"url":"http://farm1.staticflickr.com/131/347885972_66c49cac0a.jpg","path":"d9c/8e0/d9c8e0bb9d352c8c9de8318e4b99f22.jpg","date":"2006-12-28","year":2006,"month":12,"lon":-68.894745,"lat":18.395985,"tags":"bayahibe,dominican+republic,republica+dominicana,sunset","S2CellId":"8c41000000000000","result":9435,"accuracy":0.104400866,"title":"Bayahibe%2C+puesta+del+sol","description":"Bayahibe+puesta+del+sol"}
{"id":420094122,"url":"http://farm1.staticflickr.com/150/420094122_43f55a8dc6.jpg","path":"90b/7ff/90b7ff78e22c55c59d234187e29666d.jpg","date":"2007-03-11","year":2007,"month":3,"lon":-68.97457,"lat":18.431084,"tags":"adrian+first+church+of+the+nazarene,dominican+republic,la+romana,missions,nazarene,work+and+witness","S2CellId":"0dafee5000000000","result":627,"accuracy":0.105066925,"title":"DSCF6391"}
{"id":4041334574,"url":"http://farm4.staticflickr.com/3516/4041334574_dfc76e1594.jpg","path":"8ad/f97/8adf97dc90993897397a72b88a40905c.jpg","date":"2009-08-17","year":2009,"month":8,"lon":-68.443275,"lat":18.713488,"tags":"dominican+republic,dr,gringo+honeymoon,honeymoon,honeymoon+day+15,luna+de+miel,majestic+colonial,punta+cana","S2CellId":"8e85000000000000","result":9491,"accuracy":0.07195082,"title":"Turning+away+from+Ana"}
{"id":452639881,"url":"http://farm1.staticflickr.com/210/452639881_1ae97c68fa.jpg","path":"62e/547/62e5479c3cd31b5bf8d1ceb6a3c27f8.jpg","date":"2007-03-29","year":2007,"month":3,"lon":-68.959465,"lat":18.415775,"tags":"2007,caribbean,costa,costa+mediterranea,cruise,dominican+republic,spring,vacation","S2CellId":"3143000000000000","result":1758,"accuracy":0.07893136,"title":"the+DR","description":"la+romana%2C+where+we+had+our+adventure%2C+is+in+the+distance+on+the+right.+i+wanted+to+remember+looking+at+it+this+way%2C+too%2C+safely+back+on+board+our+ship%21"}
{"id":634559398,"url":"http://farm2.staticflickr.com/1001/634559398_e338f519e4.jpg","path":"52f/f11/52ff116a45667fa104b7b90509e9345.jpg","date":"2006-10-11","year":2006,"month":10,"lon":-68.50662,"lat":18.695032,"tags":"dominican,republic","S2CellId":"3d00000000000000","result":2580,"accuracy":0.020433769,"title":"IMG_1334.JPG"}
{"id":6947395837,"url":"http://farm8.staticflickr.com/7066/6947395837_d5def6d3d4.jpg","path":"167/055/167055d08ee497a1b8265430fb7885e8.jpg","date":"2012-02-28","year":2012,"month":2,"lon":-68.44583,"lat":18.696938,"tags":"picnik","S2CellId":"5485500000000000","result":6101,"accuracy":0.0071633,"title":"zen"}
{"id":6841938294,"url":"http://farm8.staticflickr.com/7067/6841938294_e5415c1b90.jpg","path":"991/de0/991de04ea294ddd42444ab10cfe2fead.jpg","date":"2012-02-19","year":2012,"month":2,"lon":-68.3451,"lat":18.643194,"tags":"altagracia,antillen,antilles,b%C3%A1varo,beach,boyer,cana,carib,caribbean,casino,catalonia,clemens,de,dom.,dom.rep.,dominican,dominicana,dominikanische,golf,greater,gro%C3%9Fe,hig%C3%BCey,hispaniola,hochzeitsreise,honeymoon,indies,insel,inseln,islands,julia,karibik,karibisches,la,leeward,lesser,martin,meer,palm,palmen,palmtree,pirates,playas,punta,rep%C3%BAblica,rep.,republic,republik,resort,romana,ron,rum,salvale%C3%B3n,sand,sea,sonne,sugarcane,tree,west,westindische,white,windward,wippel,zuckerrohr","S2CellId":"8ea9000000000000","result":9495,"accuracy":0.08069593,"title":"Dominikanische+Republik+2012","description":"Tropical+Garden%2C+Catalonia+Bavaro+Beach%2C+Casino+%26+Golf+Resort%2C+Punta+Cana%2C+Dominican+Republic"}
{"id":12963917944,"url":"http://farm8.staticflickr.com/7306/12963917944_4ef2b3d110.jpg","path":"8af/555/8af55599f17d324290fd33da6d4faa46.jpg","date":"2014-02-18","year":2014,"month":2,"lon":-68.834335,"lat":18.347666,"tags":"boat,catamaran,dominicanrepublic,sail,sun,water","S2CellId":"8c0c000000000000","result":9416,"accuracy":0.064566396,"title":"Under+Way+II"}
{"id":5911168597,"url":"http://farm7.staticflickr.com/6038/5911168597_341f00c06f.jpg","path":"6de/5c4/6de5c4ecd9cf2dbb95a3452df39679.jpg","date":"2011-06-20","year":2011,"month":6,"lon":-68.363625,"lat":18.653076,"tags":"am%C3%A8rica,am%C3%A9rica,america,ave,aves,beach,cara%C3%AFbes,caraibi,carib,caribbean,caribe,dominican+republic,foticosyrutas.blogspot.com,hotel+natura+park+resort,l%27am%C3%A9rique,parad%C3%ADs,paradis,paradise,paradiso,paraiso,plage,platja,playa,punta+cana,r%C3%A9publique+dominicaine,rep%C3%BAblica+dominicana,repubblica++dominicana,tropical,xenaia","S2CellId":"88d0a631cabb5071","result":8563,"accuracy":0.3374651,"title":"Punta+Cana+047"}
{"id":6841834568,"url":"http://farm8.staticflickr.com/7040/6841834568_6fa7305dfb.jpg","path":"f38/dd8/f38dd81b25b4a22d0c45562a6d1d2c8.jpg","date":"2012-02-10","year":2012,"month":2,"lon":-68.95839,"lat":18.41547,"tags":"antillen,antilles,boyer,carib,caribbean,clemens,cruise,cruises,greater,hochzeitsreise,honeymoon,indies,insel,inseln,islands,julia,karibik,karibisches,kitts,kreuzfahrt,leeward,lesser,liner,lucia,marteen,martin,meer,mein+schiff,mein+schiff+2,pirates,pooldeck,saint,sankt,sea,ship,sint,st.,sugarcane,tortola,tui,vincent,west,westindische,windward,wippel","S2CellId":"14a1bb0000000000","result":1250,"accuracy":0.03247335,"title":"Karibik-Kreuzfahrt+2012","description":"Pooldeck%2C+Mein+Schiff+2"}
{"id":12243614595,"url":"http://farm3.staticflickr.com/2821/12243614595_3515b245c5.jpg","path":"836/0cf/8360cf996cadd980a6dcb25bd20a898.jpg","date":"2014-01-24","year":2014,"month":1,"lon":-68.44471,"lat":18.710642,"tags":"punta+cana","S2CellId":"8084c00000000000","result":6909,"accuracy":0.03488245,"title":"Punta+Cana+2014"}
{"id":4883263299,"url":"http://farm5.staticflickr.com/4141/4883263299_a9a029c14c.jpg","path":"abb/17a/abb17abddfb762a052c23fd77e7e9f7.jpg","date":"2010-08-07","year":2010,"month":8,"lon":-68.64412,"lat":18.135574,"tags":"azul,bayahibe,beach,blue,domincus,dominican++republic+2,dominican+republic,isla+soana,la+romana,manu+juan,palm+trees,palmas,playa,republica+dominicano,santo+domingo","S2CellId":"8ea4000000000000","result":9494,"accuracy":0.13062295,"title":"Dominican++Republic+2+140"}
{"id":3472582093,"url":"http://farm4.staticflickr.com/3327/3472582093_ab73cd344e.jpg","path":"247/c90/247c90d8ae5130d8f76abe16921b9bf.jpg","date":"2009-04-13","year":2009,"month":4,"lon":-68.35831,"lat":18.568153,"tags":"2009,bahiaprincipe,beach,dominicanrepublic,holiday,puntacana","S2CellId":"68c0000000000000","result":6578,"accuracy":0.074159384,"title":"IMG_1646"}
{"id":283658147,"url":"http://farm1.staticflickr.com/115/283658147_6d0a50c68d.jpg","path":"dd6/a39/dd6a391dce12145bca05eb663ec224.jpg","date":"2006-10-25","year":2006,"month":10,"lon":-68.43933,"lat":18.42229,"tags":"2006,caribean,celine,chregu,dom.+republik,ferien,iberostar,karibik,luesu,punta+cana,saona","S2CellId":"8f4e440000000000","result":9520,"accuracy":0.07291867,"title":"DSC09991"}
{"id":912836909,"url":"http://farm2.staticflickr.com/1190/912836909_065eaab9f5.jpg","path":"ff8/cb6/ff8cb6653daa7bbb8597df4f4aad659.jpg","date":"2007-07-24","year":2007,"month":7,"lon":-68.330925,"lat":18.616314,"tags":"barcelo,beach,domincan+republic,punta+cana,summer,vacation","S2CellId":"4876035300000000","result":5198,"accuracy":0.24480952,"title":"IMG_2300.JPG"}
{"id":9485782875,"url":"http://farm4.staticflickr.com/3673/9485782875_3c4ed55cca.jpg","path":"3bb/28c/3bb28c1d7182e3f388dd11411122c0.jpg","date":"2013-07-16","year":2013,"month":7,"lon":-68.45439,"lat":18.7215,"tags":"dominican+republic,vacation","S2CellId":"88d8f00000000000","result":8576,"accuracy":0.043881435,"title":"Dominican+Republic","description":"Pictures+from+our+vacation+to+Punta+Cana+in+the+Dominican+Republic"}
{"id":12244661406,"url":"http://farm8.staticflickr.com/7322/12244661406_5ffc2ec310.jpg","path":"34f/83d/34f83d90784da53ffa6c7120b7836.jpg","date":"2014-01-28","year":2014,"month":1,"lon":-68.44313,"lat":18.71248,"tags":"punta+cana","S2CellId":"8ea9000000000000","result":9495,"accuracy":0.13805744,"title":"Punta+Cana+2014"}
{"id":12244822584,"url":"http://farm3.staticflickr.com/2859/12244822584_8ec5bd27ae.jpg","path":"8a5/4d9/8a54d949c55e9217a45d5645fa7763.jpg","date":"2014-01-29","year":2014,"month":1,"lon":-68.44377,"lat":18.710947,"tags":"punta+cana","S2CellId":"7700000000000000","result":6860,"accuracy":0.039069477,"title":"Punta+Cana+2014"}
{"id":12244300593,"url":"http://farm8.staticflickr.com/7374/12244300593_88e5b58a7c.jpg","path":"9fb/041/9fb0411c84915ca73d95f1998bfe38.jpg","date":"2014-01-29","year":2014,"month":1,"lon":-68.44377,"lat":18.710947,"tags":"punta+cana","S2CellId":"80dead0000000000","result":7390,"accuracy":0.09416456,"title":"Punta+Cana+2014"}
{"id":1517768116,"url":"http://farm3.staticflickr.com/2037/1517768116_21ace8aeb6.jpg","path":"6f7/61e/6f761e949efb4fae52fabd851939c0c3.jpg","date":"2007-06-14","year":2007,"month":6,"lon":-68.4602,"lat":18.727257,"tags":"6+months,dominican+rebpulic,gran+bahia+principe+resort,julia+marquez,pool,wedding","S2CellId":"0c46240000000000","result":140,"accuracy":0.04214254,"title":"DSCN1317"}
{"id":2684210198,"url":"http://farm4.staticflickr.com/3169/2684210198_b5bcdd3f79.jpg","path":"ae1/2ca/ae12cae8e64e461fd674adf5382b528.jpg","date":"2008-07-19","year":2008,"month":7,"lon":-68.35728,"lat":18.64773,"tags":"cana,catalonia,dominican,iphone,puj,punta,republic,resort","S2CellId":"8f4c400000000000","result":9516,"accuracy":0.049063616,"title":"Catalonia+Bavaro-Punta+Cana-18"}
{"id":6788227387,"url":"http://farm8.staticflickr.com/7008/6788227387_5692d50584.jpg","path":"b37/f71/b37f7175e2951c5b9e539e65136aa49.jpg","date":"2011-10-16","year":2011,"month":10,"lon":-68.776474,"lat":18.146013,"tags":"caribe,estrella,isla+saona,kikaytete,mar,rep%C3%BAblica+dominicana","S2CellId":"47edc00000000000","result":4703,"accuracy":0.04971504,"title":"Reclamo+tur%C3%ADstico"}
{"id":5429128305,"url":"http://farm6.staticflickr.com/5251/5429128305_4b14b6276a.jpg","path":"cbf/cc0/cbfcc0cbb58d153cabf6311c768f5.jpg","date":"2011-02-03","year":2011,"month":2,"lon":-68.46199,"lat":18.729298,"tags":"ambar,bahia,dominican+republic,gran,principe,punta+cana","S2CellId":"88db300000000000","result":8609,"accuracy":0.039479468,"title":"Punta+Cana+2011+066"}
{"id":3903993486,"url":"http://farm3.staticflickr.com/2516/3903993486_331954fa3f.jpg","path":"772/ef3/772ef3bf9175d534de7fede353b24ba.jpg","date":"2009-07-08","year":2009,"month":7,"lon":-68.96066,"lat":18.671942,"tags":"5d+mark+ii,argentino,art,batey,byn,ca%C3%B1averal,canon,caribbean,caribe,creative+commons,dominicana,eos,fer,fer+figheras,figheras,la+romana,peligro,rosarino","S2CellId":"8620af4000000000","result":7522,"accuracy":0.013881937,"title":"Batey+Peligro"}
{"id":2747836597,"url":"http://farm4.staticflickr.com/3017/2747836597_1b1c1bd3c1.jpg","path":"ed4/550/ed4550ff3b91992c3a848240c3e23a6b.jpg","date":"2008-08-09","year":2008,"month":8,"lon":-68.78746,"lat":18.176598,"tags":"mar,playa,punta+cana,republica+dominicana,saona,sol,viaje","S2CellId":"864e640000000000","result":7620,"accuracy":0.024247285,"title":"IMG_0604","description":"Lagartija+Caribe%C3%B1a+de+playa"}
{"id":3472580759,"url":"http://farm4.staticflickr.com/3578/3472580759_ea87ca3b85.jpg","path":"9e3/d40/9e3d40ca99fc496c05cf6a8598e9f6d.jpg","date":"2009-04-13","year":2009,"month":4,"lon":-68.35831,"lat":18.568153,"tags":"2009,bahiaprincipe,beach,dominicanrepublic,holiday,puntacana","S2CellId":"88d5000000000000","result":8572,"accuracy":0.40239215,"title":"IMG_1639"}
{"id":7541721114,"url":"http://farm9.staticflickr.com/8166/7541721114_c4641494bb.jpg","path":"f5b/abd/f5babd94392ead2f5cb8944047b444db.jpg","date":"2012-06-24","year":2012,"month":6,"lon":-68.58078,"lat":18.802319,"tags":"palapa,palm,palmera,playa+b%C3%A1varo,punta+cana,rep%C3%BAblica+dominicana,republica+dominicana","S2CellId":"8ea9000000000000","result":9495,"accuracy":0.5470469,"title":"Playa+B%C3%A1varo+III","description":"Y+mas+palmeras%2C+os+tengo+aburridos+jajaja..."}
{"id":12242968385,"url":"http://farm6.staticflickr.com/5482/12242968385_b111973e32.jpg","path":"6c3/04f/6c304fc25eae54627f492ad94365c5b.jpg","date":"2014-01-28","year":2014,"month":1,"lon":-68.44277,"lat":18.712196,"tags":"dominican,jeff+jerrard,punta+cana,sarah+grennan,wedding","S2CellId":"0640000000000000","result":73,"accuracy":0.0746361,"title":"Jeff+and+Sarah%27s+Wedding"}
{"id":6841950428,"url":"http://farm8.staticflickr.com/7189/6841950428_fe05760965.jpg","path":"ad1/a7c/ad1a7cc45393d18f16c3fc6764b71bb.jpg","date":"2012-02-21","year":2012,"month":2,"lon":-68.34511,"lat":18.643093,"tags":"altagracia,antillen,antilles,b%C3%A1varo,beach,boyer,cana,carib,caribbean,casino,catalonia,clemens,de,dom.,dom.rep.,dominican,dominicana,dominikanische,golf,greater,gro%C3%9Fe,hig%C3%BCey,hispaniola,hochzeitsreise,honeymoon,indies,insel,inseln,islands,julia,karibik,karibisches,la,leeward,lesser,martin,meer,palm,palmen,palmtree,pirates,playas,punta,rep%C3%BAblica,rep.,republic,republik,resort,romana,ron,rum,salvale%C3%B3n,sand,sea,sonne,sugarcane,tree,west,westindische,white,windward,wippel,zuckerrohr","S2CellId":"472c000000000000","result":3253,"accuracy":0.019886127,"title":"Dominikanische+Republik+2012"}
{"id":9488817486,"url":"http://farm6.staticflickr.com/5492/9488817486_54272b40fd.jpg","path":"058/8fc/0588fc93ff8a552c896154002a3990.jpg","date":"2013-07-17","year":2013,"month":7,"lon":-68.95411,"lat":18.411972,"tags":"dominican+republic,vacation","S2CellId":"8e85000000000000","result":9491,"accuracy":0.03373368,"title":"Dominican+Republic","description":"Pictures+from+our+vacation+to+Punta+Cana+in+the+Dominican+Republic"}
{"id":6988060499,"url":"http://farm8.staticflickr.com/7200/6988060499_52c2f89c72.jpg","path":"d6a/f64/d6af64114806abb5ae8b0f054dcd1e.jpg","date":"2012-02-19","year":2012,"month":2,"lon":-68.3451,"lat":18.643194,"tags":"altagracia,antillen,antilles,b%C3%A1varo,beach,boyer,cana,carib,caribbean,casino,catalonia,clemens,de,dom.,dom.rep.,dominican,dominicana,dominikanische,golf,greater,gro%C3%9Fe,hig%C3%BCey,hispaniola,hochzeitsreise,honeymoon,indies,insel,inseln,islands,julia,karibik,karibisches,la,leeward,lesser,martin,meer,palm,palmen,palmtree,pirates,playas,punta,rep%C3%BAblica,rep.,republic,republik,resort,romana,ron,rum,salvale%C3%B3n,sand,sea,sonne,sugarcane,tree,west,westindische,white,windward,wippel,zuckerrohr","S2CellId":"8c13000000000000","result":9418,"accuracy":0.043556083,"title":"Dominikanische+Republik+2012","description":"Caribbean+Sunrise%2C+Catalonia+Bavaro+Beach%2C+Casino+%26+Golf+Resort%2C+Punta+Cana%2C+Dominican+Republic"}
{"id":8085927669,"url":"http://farm9.staticflickr.com/8044/8085927669_7e4344e75f.jpg","path":"fa2/d8f/fa2d8f49d5e0b06f47fcb51a634b6846.jpg","date":"2012-10-08","year":2012,"month":10,"lon":-68.9588,"lat":18.416798,"tags":"dominican+republic,la+romana","S2CellId":"89e3300000000000","result":9307,"accuracy":0.038084976,"title":"D7K_3821.jpg"}
{"id":6659798469,"url":"http://farm8.staticflickr.com/7161/6659798469_3b79f2dc4c.jpg","path":"574/23d/57423d58677eec7917b8c57de2c571e.jpg","date":"2011-12-27","year":2011,"month":12,"lon":-68.40486,"lat":18.63503,"tags":"colonial+majestic,dominican+republic,punta+cana,saona+island","S2CellId":"8f4c400000000000","result":9516,"accuracy":0.06294606,"title":"Sunset+from+balcony+Majestic+Colonial+Punta+Cana"}
{"id":5911981966,"url":"http://farm6.staticflickr.com/5280/5911981966_77695326ac.jpg","path":"803/5c8/8035c8df224ca9fdf04bc89348bcb77.jpg","date":"2011-06-22","year":2011,"month":6,"lon":-68.363625,"lat":18.653076,"tags":"am%C3%A8rica,am%C3%A9rica,amanecer,america,back+light,beach,beautiful,beauty,cara%C3%AFbes,caraibi,carib,caribbean,caribe,chico,cielo,cloud,contraluz,cute,dominican+republic,foticosyrutas.blogspot.com,hombre,home,l%27am%C3%A9rique,male,man,men,n%C3%BAvol,nube,parad%C3%ADs,paradis,paradise,paradiso,paraiso,people,plage,platja,playa,portrait,punta+cana,r%C3%A9publique+dominicaine,rep%C3%BAblica+dominicana,repubblica++dominicana,retrato,salida+del+sol,shadows,silhouettes,siluetas,sky,sol,sombras,sun,sunrise,tropical,txus,xenaia","S2CellId":"88db300000000000","result":8609,"accuracy":0.1224312,"title":"Punta+Cana+143"}
{"id":2872800922,"url":"http://farm3.staticflickr.com/2278/2872800922_fa28cc1721.jpg","path":"1bb/3f2/1bb3f2541edce768efe22d0b174affa.jpg","date":"2006-11-22","year":2006,"month":11,"lon":-68.42701,"lat":18.695316,"tags":"11,2006,2006-11+-+karibik,amerika,beach,dominican+republic,dominikanische+republik,meironke,personen,public,punta+cana,puta+cana,rating3,strand","S2CellId":"8f4c400000000000","result":9516,"accuracy":0.23195559,"title":"Urlaub+in+der+Dominikanischen+Republik","description":"Es+regnet+wie+H%C3%B6lle%21+%28Taken+with%3A+FinePix+S7000+-+1%2F500+s%2C+f%2F7%2C+34+mm%2C+ISO+160%29"}
{"id":404961565,"url":"http://farm1.staticflickr.com/165/404961565_ae17186168.jpg","path":"104/069/104069ecc5d05ad299047e94419991.jpg","date":"2007-02-20","year":2007,"month":2,"lon":-68.604126,"lat":18.390366,"tags":"bavaro+expedition,dominican+republic,http%3A%2F%2Fwww.tinner.sg,punta+cana,tinner.sg,www.tinner.sg","S2CellId":"3b0c000000000000","result":2533,"accuracy":0.0871984,"title":"Bavaro+Expedition","description":"Idyles+on+the+way"}
{"id":3472695771,"url":"http://farm4.staticflickr.com/3589/3472695771_f677e37b43.jpg","path":"cb5/fb2/cb5fb2ae36ba451dd158ca25aaceb.jpg","date":"2009-04-21","year":2009,"month":4,"lon":-68.35831,"lat":18.568153,"tags":"2009,bahiaprincipe,beach,dominicanrepublic,holiday,puntacana","S2CellId":"8f4e440000000000","result":9520,"accuracy":0.108244956,"title":"IMG_1980"}
{"id":336316762,"url":"http://farm1.staticflickr.com/161/336316762_6f75521aab.jpg","path":"cc4/63c/cc463cda60a88ca729c79e0bd28ae24.jpg","date":"2006-12-14","year":2006,"month":12,"lon":-68.82282,"lat":18.343771,"tags":"bayahibe,coral,dominicus,hacienda,hotel,peces,submarina","S2CellId":"8c13000000000000","result":9418,"accuracy":0.09496493,"title":"Snorkel","description":"Cerca+del+bar+de+la+playa+y+lejos+del+area+de+nado+el+agua+estaba+mas+clara+para+poder+sacar+estas+fotos"}
{"id":8085928627,"url":"http://farm9.staticflickr.com/8329/8085928627_f734781915.jpg","path":"bf4/7fb/bf47fb936e0abacc928afd241e1a98.jpg","date":"2012-10-08","year":2012,"month":10,"lon":-68.9588,"lat":18.416798,"tags":"dominican+republic,la+romana","S2CellId":"1296400000000000","result":655,"accuracy":0.017276715,"title":"D7K_3826.jpg"}
{"id":286761094,"url":"http://farm1.staticflickr.com/104/286761094_e07ef7a7bc.jpg","path":"4f9/308/4f93088bbdf1545c262eca872e49bf.jpg","date":"2006-10-17","year":2006,"month":10,"lon":-68.43933,"lat":18.42229,"tags":"2006,caribean,celine,chregu,dom.+republik,ferien,iberostar,karibik,luesu,punta+cana,saona","S2CellId":"80d954bc00000000","result":7299,"accuracy":0.046828732,"title":"DSC09560"}
{"id":3472406349,"url":"http://farm4.staticflickr.com/3332/3472406349_9f4f14edf8.jpg","path":"6a9/17a/6a917a37029c1b99f3e879e12b866f.jpg","date":"2009-04-12","year":2009,"month":4,"lon":-68.35831,"lat":18.568153,"tags":"2009,bahiaprincipe,beach,dominicanrepublic,holiday,puntacana","S2CellId":"8ea9000000000000","result":9495,"accuracy":0.36635247,"title":"IMG_1570"}
{"id":286807888,"url":"http://farm1.staticflickr.com/119/286807888_9dabd02410.jpg","path":"695/a13/695a13be8f3a36b2b942d699a4dabf.jpg","date":"2006-10-18","year":2006,"month":10,"lon":-68.43933,"lat":18.42229,"tags":"2006,caribean,celine,chregu,dom.+republik,ferien,iberostar,karibik,luesu,punta+cana,saona","S2CellId":"88d9b64000000000","result":8599,"accuracy":0.13770454,"title":"DSC09673"}
{"id":13414876303,"url":"http://farm4.staticflickr.com/3756/13414876303_b2060ce98f.jpg","path":"11e/9b2/11e9b2bfbd1b4f89d4bee99f95ed6a5.jpg","date":"2011-04-13","year":2011,"month":4,"lon":-68.56842,"lat":18.773714,"tags":"cana,punta","S2CellId":"8f4c400000000000","result":9516,"accuracy":0.121829696,"title":"Punta+Cana+playa1"}
{"id":2683394589,"url":"http://farm4.staticflickr.com/3186/2683394589_45751a186c.jpg","path":"a39/62f/a3962fd2b6d97d33ce07ff6a7bc17d0.jpg","date":"2008-07-22","year":2008,"month":7,"lon":-68.35728,"lat":18.64773,"tags":"cana,catalonia,dominican,iphone,puj,punta,republic,resort","S2CellId":"88db300000000000","result":8609,"accuracy":0.13148665,"title":"Catalonia+Bavaro-Punta+Cana-16"}
{"id":7929775254,"url":"http://farm9.staticflickr.com/8037/7929775254_fa208cd26f.jpg","path":"16a/022/16a02238eef11ffbc1087c7a9afe5e4.jpg","date":"2012-08-29","year":2012,"month":8,"lon":-68.38749,"lat":18.664907,"tags":"delfino","S2CellId":"1367000000000000","result":1190,"accuracy":0.038268436,"title":"IMG_4206","description":"29+agosto+2012%3A+nuotare+coi+delfini+a+Punta+Cana%2C+Repubblica+Dominicana"}
{"id":269789499,"url":"http://farm1.staticflickr.com/91/269789499_e9ee15a9b8.jpg","path":"80e/df4/80edf4726a78e84417e79a8441fc84.jpg","date":"2006-10-06","year":2006,"month":10,"lon":-68.33307,"lat":18.580359,"tags":"punta+cana","S2CellId":"6f00000000000000","result":6856,"accuracy":0.040491167,"title":"Dominican+Republic+sunrise","description":"Dominican+Republic+sunrise"}
{"id":4462468006,"url":"http://farm5.staticflickr.com/4056/4462468006_b69ac96183.jpg","path":"106/bf7/106bf7396f8779f59affc4e9c1f1905e.jpg","date":"2010-03-19","year":2010,"month":3,"lon":-68.75596,"lat":18.220709,"tags":"2010,la+romana","S2CellId":"8ea4000000000000","result":9494,"accuracy":0.2562053,"title":"IMG_6741"}
{"id":269790780,"url":"http://farm1.staticflickr.com/96/269790780_3bba6191f0.jpg","path":"ffa/a92/ffaa927bbd231c481a6723530f778.jpg","date":"2006-10-12","year":2006,"month":10,"lon":-68.33307,"lat":18.580359,"tags":"punta+cana","S2CellId":"8c13000000000000","result":9418,"accuracy":0.048659164,"title":"Dominican+Republic+beach+6","description":"Dominican+Republic+beach"}
{"id":250957585,"url":"http://farm1.staticflickr.com/119/250957585_b3ba800a74.jpg","path":"3a9/e5f/3a9e5ff37af345de147b8442bf6db91f.jpg","date":"2005-11-13","year":2005,"month":11,"lon":-68.36346,"lat":18.646894,"tags":"eric+b%C3%A9gin,eric+begin,turkey+vulture,vulture","S2CellId":"1950000000000000","result":1435,"accuracy":0.047380768,"title":"Turkey+Vulture"}
{"id":2873674824,"url":"http://farm4.staticflickr.com/3117/2873674824_a58d3d3b7e.jpg","path":"53d/43f/53d43f13e6aa5cba2a363271728a918.jpg","date":"2006-12-03","year":2006,"month":12,"lon":-68.365814,"lat":18.564615,"tags":"11,2006,2006-11+-+karibik,amerika,dominican+republic,dominikanische+republik,geb%C3%A4ude,meironke,public,punta+cana,puta+cana,rating3","S2CellId":"1030000000000000","result":645,"accuracy":0.031659957,"title":"Urlaub+in+der+Dominikanischen+Republik","description":"Der+Flughafen+-+in+Weihnachts-Stimmung...+%28Taken+with%3A+FinePix+S7000+-+1%2F6+s%2C+f%2F2.8%2C+7.8+mm%2C+ISO+200%29"}
{"id":6988080933,"url":"http://farm8.staticflickr.com/7049/6988080933_679bc0c079.jpg","path":"f63/688/f63688d02c834e9b4bcc5b4bd8aa085.jpg","date":"2012-02-21","year":2012,"month":2,"lon":-68.34511,"lat":18.643093,"tags":"altagracia,antillen,antilles,b%C3%A1varo,beach,boyer,cana,carib,caribbean,casino,catalonia,clemens,de,dom.,dom.rep.,dominican,dominicana,dominikanische,golf,greater,gro%C3%9Fe,hig%C3%BCey,hispaniola,hochzeitsreise,honeymoon,indies,insel,inseln,islands,julia,karibik,karibisches,la,leeward,lesser,martin,meer,palm,palmen,palmtree,pirates,playas,punta,rep%C3%BAblica,rep.,republic,republik,resort,romana,ron,rum,salvale%C3%B3n,sand,sea,sonne,sugarcane,tree,west,westindische,white,windward,wippel,zuckerrohr","S2CellId":"89b7b73000000000","result":8848,"accuracy":0.043868344,"title":"Dominikanische+Republik+2012"}
{"id":912648845,"url":"http://farm2.staticflickr.com/1320/912648845_893de50430.jpg","path":"358/f15/358f159c27f029db4a39bd3ff28be2ac.jpg","date":"2007-07-26","year":2007,"month":7,"lon":-68.330925,"lat":18.616314,"tags":"barcelo,beach,domincan+republic,punta+cana,summer,vacation","S2CellId":"80c8c3c000000000","result":7231,"accuracy":0.035919137,"title":"P1010053.JPG"}
{"id":12243568486,"url":"http://farm6.staticflickr.com/5491/12243568486_0c3ce0bf11.jpg","path":"b7f/a7b/b7fa7bd335386bfce4f85a3dceff7.jpg","date":"2014-01-28","year":2014,"month":1,"lon":-68.44277,"lat":18.712196,"tags":"dominican,jeff+jerrard,punta+cana,sarah+grennan,wedding","S2CellId":"8f4ec00000000000","result":9525,"accuracy":0.47139433,"title":"Jeff+and+Sarah%27s+Wedding"}
{"id":4462458636,"url":"http://farm5.staticflickr.com/4042/4462458636_a530ec9a7e.jpg","path":"e9f/094/e9f09483e52ccbe7bad06de1d0f49b93.jpg","date":"2010-03-15","year":2010,"month":3,"lon":-68.9005,"lat":18.406654,"tags":"2010,la+romana,shortlist","S2CellId":"7953d00000000000","result":6866,"accuracy":0.05205486,"title":"IMG_6547"}
{"id":314878575,"url":"http://farm1.staticflickr.com/115/314878575_6a41bbb5a4.jpg","path":"cc7/afe/cc7afe25863a9a57ead0f1a36cf3c0ea.jpg","date":"2006-11-26","year":2006,"month":11,"lon":-68.82634,"lat":18.340431,"tags":"dominican+republic,republica+dominicana","S2CellId":"8f4c400000000000","result":9516,"accuracy":0.07681047,"title":"L1020693"}
{"id":6724678629,"url":"http://farm8.staticflickr.com/7161/6724678629_655303d79f.jpg","path":"1ad/166/1ad16610b5c522807173b2c6a63a10a4.jpg","date":"2011-10-17","year":2011,"month":10,"lon":-68.34209,"lat":18.639982,"tags":"caribe,kikaytete,peces,punta+cana,rep%C3%BAblica+dominicana,snorkel,submarinismo,tropical","S2CellId":"3d00000000000000","result":2580,"accuracy":0.0852196,"title":"Snorkel+en+Rep%C3%BAblica+Dominicana+I"}
{"id":9488824292,"url":"http://farm8.staticflickr.com/7384/9488824292_ffe88e4cbe.jpg","path":"ebe/f4a/ebef4a47407d49fed033707c459b66.jpg","date":"2013-07-17","year":2013,"month":7,"lon":-68.955696,"lat":18.412582,"tags":"dominican+republic,vacation","S2CellId":"185c000000000000","result":1431,"accuracy":0.08509518,"title":"Dominican+Republic","description":"Pictures+from+our+vacation+to+Punta+Cana+in+the+Dominican+Republic"}
{"id":5911420385,"url":"http://farm6.staticflickr.com/5080/5911420385_13a8c1b864.jpg","path":"6b1/1b6/6b11b6db6dfc1022038415994f83210.jpg","date":"2011-06-22","year":2011,"month":6,"lon":-68.363625,"lat":18.653076,"tags":"am%C3%A8rica,am%C3%A9rica,amanecer,america,back+light,beach,beautiful,beauty,cara%C3%AFbes,caraibi,carib,caribbean,caribe,cielo,cloud,contraluz,cute,dominican+republic,dona,face,female,femme,foticosyrutas.blogspot.com,girl,l%27am%C3%A9rique,me,merche,mujer,n%C3%BAvol,nube,parad%C3%ADs,paradis,paradise,paradiso,paraiso,people,plage,platja,playa,portrait,punta+cana,r%C3%A9publique+dominicaine,rep%C3%BAblica+dominicana,repubblica++dominicana,retrato,risa,salida+del+sol,self,selfportrait,shadows,silhouettes,siluetas,sky,smile,sol,sombras,somriure,sonrisa,sun,sunrise,tropical,woman,xenaia,yo","S2CellId":"33a4000000000000","result":1932,"accuracy":0.033619683,"title":"Punta+Cana+142"}
{"id":5732162742,"url":"http://farm4.staticflickr.com/3484/5732162742_89c15e641a.jpg","path":"308/659/3086595a519483a944106ca08318dc4f.jpg","date":"2008-01-28","year":2008,"month":1,"lon":-68.40486,"lat":18.63503,"tags":"300d,canon,dominican+republic,eos,footprints,ocean,rebel,sand,surf,tide,water","S2CellId":"1c70000000000000","result":1446,"accuracy":0.013583508,"title":"Into+The+Abyss"}
{"id":8598158540,"url":"http://farm9.staticflickr.com/8506/8598158540_b01fb390a5.jpg","path":"87c/7ce/87c7ce7e1033659e2abb49bc7c89b91.jpg","date":"2013-03-28","year":2013,"month":3,"lon":-68.71294,"lat":18.616238,"tags":"instagram+app,iphoneography,square,square+format,x-pro+ii","S2CellId":"8ea9000000000000","result":9495,"accuracy":0.022460248,"title":"Mi+brothers"}
