{"id":2931662850,"url":"http://farm4.staticflickr.com/3002/2931662850_38cd007336.jpg","path":"dd2/ca6/dd2ca6d1bc45de24cbb46c3ec38fe32.jpg","date":"2008-08-29","year":2008,"month":8,"lon":33.04619,"lat":45.287086,"tags":"%D0%BA%D0%B0%D0%B7%D0%B0%D0%BD%D1%82%D0%B8%D0%BF,%D1%83%D0%BA%D1%80%D0%B0%D0%B8%D0%BD%D0%B0,dance,drum%26bass,kazantip,kazantip+2008,krym%2C+avtonomna+respublika,mirnyy,techno,ukraine,z16","S2CellId":"3bc4000000000000","result":2563,"accuracy":0.024159264,"title":"DSC_3257"}
{"id":337478603,"url":"http://farm1.staticflickr.com/138/337478603_9a41640ad4.jpg","path":"5db/7bc/5db7bc5ab0c88696a6f13d30d522367.jpg","date":"2006-08-09","year":2006,"month":8,"lon":33.374126,"lat":45.191467,"tags":"boats,crimea,eupatoria,sea","S2CellId":"4804400000000000","result":4751,"accuracy":0.022216758,"title":"Boats+in+Eupatoria+bay+%282006-08-286%29"}
{"id":314030919,"url":"http://farm1.staticflickr.com/120/314030919_16e2723b76.jpg","path":"879/f21/879f2123cc5c7ab6d85d3751e54ce24.jpg","date":"2006-08-25","year":2006,"month":8,"lon":33.04619,"lat":45.287086,"tags":"%D0%BA%D0%B0%D0%B7%D0%B0%D0%BD%D1%82%D0%B8%D0%BF,%D1%83%D0%BA%D1%80%D0%B0%D0%B8%D0%BD%D0%B0,kazantip,z006","S2CellId":"88d9b44000000000","result":8592,"accuracy":0.049425617,"title":"Kazantip+2006+05+%2827%29"}
{"id":330730704,"url":"http://farm1.staticflickr.com/124/330730704_89327370fc.jpg","path":"947/e7b/947e7b23f634914db4ead7706addf8.jpg","date":"2006-08-06","year":2006,"month":8,"lon":33.09001,"lat":45.330887,"tags":"crimea,mirny,plain","S2CellId":"536c000000000000","result":6045,"accuracy":0.22154656,"title":"Wind+power+turbines+%282006-08-186%29"}
{"id":2933940891,"url":"http://farm4.staticflickr.com/3224/2933940891_d30c2074dc.jpg","path":"c6a/f6a/c6af6abba6d7c4c118fa42694ad996aa.jpg","date":"2008-08-29","year":2008,"month":8,"lon":33.04619,"lat":45.287086,"tags":"%D0%BA%D0%B0%D0%B7%D0%B0%D0%BD%D1%82%D0%B8%D0%BF,%D1%83%D0%BA%D1%80%D0%B0%D0%B8%D0%BD%D0%B0,dance,drum%26bass,kazantip,kazantip+2008,kazantip+girls,krym%2C+avtonomna+respublika,mirnyy,techno,ukraine,z16","S2CellId":"12c9100000000000","result":838,"accuracy":0.031819265,"title":"DSC_3411"}
{"id":4195570337,"url":"http://farm3.staticflickr.com/2589/4195570337_02094b4093.jpg","path":"eef/cc0/eefcc0f56a3b631b76bd58c3a25d41.jpg","date":"2008-08-28","year":2008,"month":8,"lon":33.045845,"lat":45.288536,"tags":"%D0%B2%D0%B5%D1%87%D0%B5%D1%80%D0%B8%D0%BD%D0%BA%D0%B0,%D0%B2%D0%B5%D1%87%D1%91%D1%80%D0%B0,%D0%BA%D0%BB%D1%83%D0%B1,%D0%BB%D1%8E%D0%B4%D0%B8,%D0%BF%D0%BE%D1%80%D1%82%D1%80%D0%B5%D1%82,%D1%80%D0%B5%D0%BF%D0%BE%D1%80%D1%82%D0%B0%D0%B6,club,clubculture,dance,entertainment,kazantip,lifestyle,mars,night,party,partypics,partypix,people,popovka,portrait,report,russia,summer,z%3A16,z008","S2CellId":"809f000000000000","result":7130,"accuracy":0.014372138,"title":"20080828-IMG_2508+Mars+%40+Kazantip","description":"Kazantip%2C+Popovka%2C+Ukraine"}
{"id":5120416464,"url":"http://farm5.staticflickr.com/4068/5120416464_e20bb12ab2.jpg","path":"f1b/d6f/f1bd6fc68814705f42bc65e23f484d59.jpg","date":"2010-09-05","year":2010,"month":9,"lon":33.37715,"lat":45.19147,"tags":"%D0%B5%D0%B2%D0%BF%D0%B0%D1%82%D0%BE%D1%80%D0%B8%D1%8F,%D0%B7%D0%B0%D0%BA%D0%B0%D1%82,%D0%BA%D1%80%D1%8B%D0%BC,%D0%BC%D0%BE%D1%80%D0%B5,16-85,crimea,d90,sea,sunset,yevpatoriya","S2CellId":"46920b9000000000","result":2990,"accuracy":0.056515247,"title":"Crimean+sunset"}
{"id":9396843168,"url":"http://farm8.staticflickr.com/7310/9396843168_ff4c1bd053.jpg","path":"8a6/ac4/8a6ac43ae8eff0dd8fe935c2ba1bfebc.jpg","date":"2013-07-23","year":2013,"month":7,"lon":33.526978,"lat":45.121265,"tags":"black+sea,krymea,sea","S2CellId":"1331c00000000000","result":1122,"accuracy":0.050112672,"title":"DSCN7940"}
{"id":9270823983,"url":"http://farm6.staticflickr.com/5325/9270823983_f48ca04b74.jpg","path":"3b4/970/3b4970ee927eca2fa2dcd1291b7f4c0.jpg","date":"2012-09-09","year":2012,"month":9,"lon":33.392044,"lat":45.197945,"tags":"%D0%B5%D0%B2%D0%BF%D0%B0%D1%82%D0%BE%D1%80%D0%B8%D1%8F,%D0%BA%D1%80%D1%8B%D0%BC,%D1%83%D0%BA%D1%80%D0%B0%D0%B8%D0%BD%D0%B0","S2CellId":"89c0b00000000000","result":8924,"accuracy":0.08154157,"title":"%D0%95%D0%B2%D0%BF%D0%B0%D1%82%D0%BE%D1%80%D0%B8%D1%8F+2012","description":"%D0%9F%D0%BB%D1%8F%D0%B6+%22%D0%9E%D0%B0%D0%B7%D0%B8%D1%81%22"}
{"id":2991800098,"url":"http://farm4.staticflickr.com/3038/2991800098_1a3c8de8b3.jpg","path":"10d/548/10d548e1b5eb5bd5cdc6f7f7aa020.jpg","date":"2006-08-25","year":2006,"month":8,"lon":33.04619,"lat":45.287086,"tags":"2006,kazantip,z006","S2CellId":"1367000000000000","result":1190,"accuracy":0.025599713,"title":"Kazantip+2006+06+%2818%29"}
{"id":9394078925,"url":"http://farm8.staticflickr.com/7414/9394078925_ff6abd2d37.jpg","path":"8d5/8b1/8d58b1caf3747f99063299c1099347.jpg","date":"2013-07-23","year":2013,"month":7,"lon":33.52654,"lat":45.121666,"tags":"black+sea,krymea,sea,water,wave","S2CellId":"1331c00000000000","result":1122,"accuracy":0.06512087,"title":"DSCN8024"}
