{"id":203122254,"url":"http://farm1.staticflickr.com/68/203122254_ef076dc258.jpg","path":"d6f/3ea/d6f3ea9f7e2b8383b896a7d94e2c3b.jpg","date":"2005-11-23","year":2005,"month":11,"lon":175.62195,"lat":-37.10886,"tags":"coromandel,holiday,new+zealand","S2CellId":"8085940000000000","result":6982,"accuracy":0.052876484,"title":"Kauaeranga+gumdiggers+stairs","description":"These+stone+steps+where+dug+out+from+the+hard+rock+by+the+gumdiggers+in+the+early+1900s+to+ease+transport+of+horses+and+supplies.+It%27s+hard+to+imagine+they+were+transporting+all+their+logging+equipment+up+these+slippery+stairs%21"}
{"id":5604690498,"url":"http://farm5.staticflickr.com/4102/5604690498_dd001f7bf2.jpg","path":"6ed/aa2/6edaa205821815796f28ad8fbfcc47.jpg","date":"2011-04-10","year":2011,"month":4,"lon":175.27003,"lat":-37.799137,"tags":"air,balloon,club,hamilton,hamilton+hot+air+balloon+club+innes+common,hot","S2CellId":"152b000000000000","result":1396,"accuracy":0.27162948,"title":"DSC03344"}
{"id":9030201880,"url":"http://farm9.staticflickr.com/8533/9030201880_0f502b24d4.jpg","path":"e65/682/e65682543b5d49041deccb3a9c89ba.jpg","date":"2013-06-13","year":2013,"month":6,"lon":175.28189,"lat":-37.804497,"tags":"%C2%A92013_john_van_rooy,canon_powershot_g10,gimp,gimp_users,jayveeare,johnvanrooy%40gmail.com_john_van_rooy,picasa_3.9","S2CellId":"549014c000000000","result":6183,"accuracy":0.10863531,"title":"Lake+Rotoroa+Triptych+Sunset+130515","description":"Lake+Rotorua+Sunset+triptych%2C+images+taken+over+some+15+mins+in+early+winter+from+the+fifth+floor+of+Waikato+Hospital."}
{"id":5626750058,"url":"http://farm6.staticflickr.com/5106/5626750058_b6b648d8ac.jpg","path":"add/91e/add91ec90a5232053b354bd3a1d411.jpg","date":"2011-04-13","year":2011,"month":4,"lon":175.8784,"lat":-37.212864,"tags":"birds,coromandel,newzealand,seagull,whangamata","S2CellId":"5494c00000000000","result":6235,"accuracy":0.28565693,"title":"Gull","description":"Whangamata+Beach"}
{"id":4919377408,"url":"http://farm5.staticflickr.com/4120/4919377408_88b3025144.jpg","path":"da9/943/da99435345a687d4bee757c8ea1ae16.jpg","date":"2010-08-22","year":2010,"month":8,"lon":175.15184,"lat":-37.67561,"tags":"%23project365,%23project365-22aug2010,%2F365,dandelion,flower,grass,lawn,nature,yellow","S2CellId":"4872100000000000","result":5075,"accuracy":0.009769824,"title":"83%2F365+-+Dandelion","description":"yes%2C+the+lawns+need+mowing%21"}
{"id":246129647,"url":"http://farm1.staticflickr.com/87/246129647_a08279ffb6.jpg","path":"ad3/36e/ad336ee7b154ad9b63d8129c2ae771.jpg","date":"2006-08-21","year":2006,"month":8,"lon":175.53714,"lat":-37.133156,"tags":"new+zealand,thames","S2CellId":"89c25896c0000000","result":8974,"accuracy":0.19996886,"title":"feral+boar+skin"}
{"id":3381341713,"url":"http://farm4.staticflickr.com/3588/3381341713_dd1c965c92.jpg","path":"c5b/285/c5b2851d1b3fd767978feb41e8f6cb0.jpg","date":"2009-01-24","year":2009,"month":1,"lon":175.71722,"lat":-37.042915,"tags":"coromandel,flower,kauaeranga,pinnacles+walk,white","S2CellId":"80e9500000000000","result":7405,"accuracy":0.029810945,"title":"White+flower","description":"Need+to+get+to+know+more+NZ+flowers."}
{"id":4547824126,"url":"http://farm5.staticflickr.com/4058/4547824126_25bd99084c.jpg","path":"e82/56a/e8256a561936b8e94d20c86d92df6646.jpg","date":"2010-04-24","year":2010,"month":4,"lon":175.47488,"lat":-37.886246,"tags":"cambridge,canon,tamron1755,tennis","S2CellId":"4cc9194000000000","result":5884,"accuracy":0.41726586,"title":"Robbie+in+mens+singles+final"}
{"id":2265691070,"url":"http://farm3.staticflickr.com/2274/2265691070_13a806aaca.jpg","path":"c65/9bd/c659bd20b1b7efd6ead21e68a497361b.jpg","date":"2008-02-10","year":2008,"month":2,"lon":175.3229,"lat":-37.795273,"tags":"hamilton,jamie,nz,triathlon,tryathlon,weet-bix","S2CellId":"880e2c9000000000","result":8115,"accuracy":0.27212992,"title":"Jamie","description":"Weet-Bix+Tryathlon+-+A+fun+triathlon+for+kids"}
{"id":3596609664,"url":"http://farm3.staticflickr.com/2448/3596609664_03414c02df.jpg","path":"cf2/6f6/cf26f6a1872790d378a1af77f48ce4dd.jpg","date":"2009-05-31","year":2009,"month":5,"lon":175.21825,"lat":-37.77165,"tags":"aviary,birds,hamiton+zoo","S2CellId":"478e500000000000","result":3680,"accuracy":0.009897952,"title":"imgp2355.jpg"}
{"id":3318243007,"url":"http://farm4.staticflickr.com/3549/3318243007_00149a8684.jpg","path":"5d4/5cf/5d45cf73db5a3b4ac12017e479553fec.jpg","date":"2009-01-09","year":2009,"month":1,"lon":175.3023,"lat":-37.80468,"tags":"%27hamilton+gardens%27,flowers,hamilton,plants,red","S2CellId":"3ba9000000000000","result":2540,"accuracy":0.004996402,"title":"Red+and+white+flower","description":"Hamilton+Gardens+January+2009"}
{"id":1359019555,"url":"http://farm2.staticflickr.com/1117/1359019555_b78022ebda.jpg","path":"bf9/e7e/bf9e7e446a8774c72a3386413cdaf57.jpg","date":"2007-08-26","year":2007,"month":8,"lon":175.87592,"lat":-37.204422,"tags":"123bw,2007,beach,blackandwhite,bw,essjaynz,new+zealand,nz,sand,sarah+macmillan,seaweed,taken2007","S2CellId":"5493000000000000","result":6233,"accuracy":0.013213684,"title":"sand+catcher"}
{"id":2266828296,"url":"http://farm3.staticflickr.com/2159/2266828296_0b7fff61f4.jpg","path":"40e/ec8/40eec87915135dd95422ee5e81b3ee3.jpg","date":"2008-02-15","year":2008,"month":2,"lon":175.84401,"lat":-37.388847,"tags":"gold+mine,new+zealand,waihi","S2CellId":"6d50000000000000","result":6846,"accuracy":0.12512758,"title":"Waihi+Beach+02152008727","description":"Gold+mine."}
{"id":3168423703,"url":"http://farm4.staticflickr.com/3230/3168423703_9f4aa5b560.jpg","path":"24b/43b/24b43b39f8e54a85869a6f86c179853.jpg","date":"2009-01-02","year":2009,"month":1,"lon":175.33356,"lat":-37.207363,"tags":"aoeteora,camping,colorful,farm,field,hot,kiwi,maldivian+photographer,manspic,miranda,munah+ahmed,new+zealand,north+island,nz,springs,sunset,sunset+photography,sunsets+of+manspic,waikatoa","S2CellId":"6b12bc0000000000","result":6706,"accuracy":0.022361828,"title":"Sunset+in+Miranda","description":"From+a+camping+trip+to+Miranda%0A9+photo+HDR"}
{"id":5460181467,"url":"http://farm6.staticflickr.com/5300/5460181467_de24b2997b.jpg","path":"b6b/3f8/b6b3f8326fc5b042f55af052f51ce.jpg","date":"2011-02-20","year":2011,"month":2,"lon":175.66821,"lat":-37.37759,"tags":"motorcycle,motorsport,paeroa+battle+of+the+streets,race","S2CellId":"89b7b71000000000","result":8847,"accuracy":0.0400181,"title":"Tom+Western+on+a+Suzuki+SV+650","description":"Rounding+the+hairpin+corner."}
{"id":2442550970,"url":"http://farm4.staticflickr.com/3093/2442550970_b9f8be6314.jpg","path":"468/199/468199d17d5be0c6d628b1e3a3c6ef6e.jpg","date":"2008-04-12","year":2008,"month":4,"lon":175.31807,"lat":-37.78196,"tags":"balloonsoverwaikato,hamilton,hotairballoon,newzealand,nightglow","S2CellId":"8722740000000000","result":7745,"accuracy":0.3612156,"title":"Nightglow"}
{"id":4659534360,"url":"http://farm5.staticflickr.com/4041/4659534360_40a58f92b0.jpg","path":"16f/8f0/16f8f0b24cbe4ed261dd9a432086ad24.jpg","date":"2010-06-01","year":2010,"month":6,"lon":175.15224,"lat":-37.67566,"tags":"%23project365,%23project365-01jun2010,1%2F356,daily+shoot,daily+shot,garden,green,lupin,nature,photo+a+day,plant,seedling,soil,water,weeds","S2CellId":"13141c0000000000","result":971,"accuracy":0.029932959,"title":"1%2F365+-+Lupin+seedling"}
{"id":4952667139,"url":"http://farm5.staticflickr.com/4107/4952667139_b74baf646b.jpg","path":"1fc/ae1/1fcae15bebedea873813c18671666a7d.jpg","date":"2010-09-02","year":2010,"month":9,"lon":175.31577,"lat":-37.786606,"tags":"%23project365,%23project365-2sep2010,94%2F365,bench,clouds,nature,rain,reflection,sky,stone,stone+bench,trees,university+of+waikato,uow,water,wet","S2CellId":"6d6d400000000000","result":6852,"accuracy":0.020203734,"title":"94%2F365+-+Rain+on+the+bench"}
{"id":5770665451,"url":"http://farm3.staticflickr.com/2186/5770665451_76d5a79133.jpg","path":"39f/d92/39fd92bcb6fd8d04a427b8ea0bc8e7b.jpg","date":"2011-05-29","year":2011,"month":5,"lon":175.53992,"lat":-37.923584,"tags":"autumn,dam,gimp,grass,hdr,high+dynamic+range,hugin,karapiro,lake,landscape,new+zealand,panorama,qtpfsgui,rawtherapee,reflections,river,s1500,sky,trees,waikato,water,winter","S2CellId":"6d6dc00000000000","result":6853,"accuracy":0.043502625,"title":"Lake+Karapiro","description":"A+panorama+of+Lake+Karapiro+and+the+Karapiro+dam.%0A%0AEditing%3A+Pano+stiched+in+Hugin%2C+HDR+and+LDR+images+saved.+HDR+tonemapped+using+qtpfsgui%2C+then+blended+%28using+the+GIMP%29+with+the+LDR+image."}
{"id":8129573800,"url":"http://farm9.staticflickr.com/8194/8129573800_4b535bca5b.jpg","path":"57b/a48/57ba486244fc51b123d6d6da63e81b1.jpg","date":"2012-10-17","year":2012,"month":10,"lon":175.28026,"lat":-37.790234,"tags":"evanx,evanxiao","S2CellId":"808f770000000000","result":7015,"accuracy":0.012145813}
{"id":5501221663,"url":"http://farm6.staticflickr.com/5298/5501221663_55e83df2ae.jpg","path":"7d9/f65/7d9f65e78c8f1e8bb5daf631c436f459.jpg","date":"2011-03-03","year":2011,"month":3,"lon":175.2185,"lat":-37.778957,"tags":"barn,fence,grunge,hdr,landscape,sky","S2CellId":"6d6dc00000000000","result":6853,"accuracy":0.1568118,"description":"%3Cu%3E%3Cb%3E65%2F365%3C%2Fb%3E%3C%2Fu%3E%0A+++++%0A%C6%92-Stop+%7C+%3Cb%3E8%3C%2Fb%3E%0AShutter+%7C+%3Cb%3E1%2F40+%28Median%29%3C%2Fb%3E%0AFocal+Length+%7C+%3Cb%3E18mm%3C%2Fb%3E%0A%0AI+took+this+shot+a+few+days+ago.+A+due+break+from+my+recent+spell+of+portrait+photos.+I+noticed+the+place+and+planned+the+shot+weeks+ago%2C+but+I+recently+saw+a+sunset+that+I+thought+suitable+for+this+shot.+I+had+to+take+it+handheld%2C+because+my+tripod+isn%27t+high+enough.+But+I+still+got+something+reasonably+good.+Adobe+Camera+Raw+is+a+handy+tool.+I%27m+just+starting+to+organize+my+workflows+with+this+new+software.+On+another+note%2C+my+shoot+at+the+markets+went+well%2C+got+some+interesting+shots%2C+met+some+interesting+people.%0A%0A%3Cb%3E%3Ca+href%3D%22http%3A%2F%2Fbighugelabs.com%2Fonblack.php%3Fid%3D5501221663%22+rel%3D%22nofollow%22%3EOn+Black%3C%2Fa%3E%3C%2Fb%3E+%7C+%3Cb%3E%3Ca+href%3D%22http%3A%2F%2Fwww.facebook.com%2Fprofile.php%3Fid%3D100000033613190%22+rel%3D%22nofollow%22%3EFacebook%3C%2Fa%3E%3C%2Fb%3E+%7C+%3Cb%3E%3Ca+href%3D%22http%3A%2F%2Fwww.facebook.com%2FPluralFilms%22+rel%3D%22nofollow%22%3EFilm+Project%3C%2Fa%3E%3C%2Fb%3E"}
{"id":5588465920,"url":"http://farm6.staticflickr.com/5223/5588465920_44cb703b49.jpg","path":"113/03e/11303eedf2be54d79236dba1edbdfe9a.jpg","date":"2007-11-19","year":2007,"month":11,"lon":175.95772,"lat":-37.611782,"tags":"1001+nights+%2F+magic+city,gmt","S2CellId":"961c000000000000","result":9868,"accuracy":0.2515637,"title":"North+Island"}
{"id":5399915654,"url":"http://farm6.staticflickr.com/5294/5399915654_fc26902dce.jpg","path":"2e2/496/2e2496cf9bb9ad71683dd33c44b87f.jpg","date":"2011-01-05","year":2011,"month":1,"lon":175.46895,"lat":-37.77692,"tags":"plants","S2CellId":"8620af4000000000","result":7522,"accuracy":0.018321257}
{"id":466613517,"url":"http://farm1.staticflickr.com/182/466613517_92c10d11b2.jpg","path":"892/6ec/8926ec6c7f9270802180a78825a7fcda.jpg","date":"2007-01-05","year":2007,"month":1,"lon":175.86992,"lat":-37.022427,"tags":"nature","S2CellId":"9630000000000000","result":9869,"accuracy":0.10801169,"title":"Paunui+beach"}
{"id":3530686732,"url":"http://farm3.staticflickr.com/2270/3530686732_2c89743ebe.jpg","path":"306/c47/306c474cc18f9fd7185ccc830ba8aeb.jpg","date":"2009-05-14","year":2009,"month":5,"lon":175.21764,"lat":-37.77402,"tags":"fiji,new+zealand,nz,zoo","S2CellId":"95d0000000000000","result":9860,"accuracy":0.014405112,"title":"Hamilton+Zoo+%288%29","description":"Trip+to+New+Zealand+%26+Fiji+with+People+to+People+Student+Ambassadors+in+2001"}
{"id":8517731268,"url":"http://farm9.staticflickr.com/8372/8517731268_5839d18372.jpg","path":"c0b/464/c0b464f056dc755ee72c91eef8d25e73.jpg","date":"2013-02-18","year":2013,"month":2,"lon":175.77129,"lat":-37.80897,"tags":"hobbiton,new+zealand","S2CellId":"6d6dc00000000000","result":6853,"accuracy":0.79498065,"title":"Hobbiton"}
{"id":7620235658,"url":"http://farm9.staticflickr.com/8284/7620235658_a95ca5e378.jpg","path":"517/a23/517a23713dd45294137c0c88cab3c6.jpg","date":"2012-07-21","year":2012,"month":7,"lon":175.72621,"lat":-37.422985,"tags":"gorge,karangahake,loop,new,tunnel,waikato,walk,zealand","S2CellId":"6d6b000000000000","result":6849,"accuracy":0.17349528,"title":"Karangahake+Gorge"}
{"id":10477066305,"url":"http://farm4.staticflickr.com/3816/10477066305_5c888251a7.jpg","path":"e96/2b6/e962b67f1352bcbb2efa99fb5263ba7.jpg","date":"2013-10-15","year":2013,"month":10,"lon":175.84897,"lat":-37.002655,"tags":"18.3+mm+f%2F2.8","S2CellId":"6d74000000000000","result":6855,"accuracy":0.18629724}
{"id":7548847956,"url":"http://farm9.staticflickr.com/8142/7548847956_3493af1738.jpg","path":"c56/395/c563958890d4ea417eb599815cea6d.jpg","date":"2010-11-21","year":2010,"month":11,"lon":175.29918,"lat":-37.80395,"tags":"animals,dog,hamilton,hamilton+zoo,monkey,rhino,zebra,zoo","S2CellId":"94ce5b4000000000","result":9726,"accuracy":0.0071922583,"title":"Zoo+Photos+21.11.10013-13"}
{"id":8502073969,"url":"http://farm9.staticflickr.com/8101/8502073969_c7091e397c.jpg","path":"3c4/38f/3c438f42e5c576db448a5dfe057631.jpg","date":"2013-02-23","year":2013,"month":2,"lon":175.46895,"lat":-37.77692,"tags":"abuse,art,children,communication,sculpture,waikato","S2CellId":"009bd5c000000000","result":41,"accuracy":0.006159095,"title":"Attitudinal+Change","description":"The+Sculpture+Park%2C+Waikato+%3Ca+href%3D%22http%3A%2F%2Fwww.sculpturepark.co.nz%2F%22+rel%3D%22nofollow%22%3Ewww.sculpturepark.co.nz%2F%3C%2Fa%3E%0A%0A+Currently+152%2C800+care+and+protection+notifications+are+made+to+Child%2C+Youth+and+Family%2C+each+year.+418+calls+are+made+each+day%2C+and+these+services+are+overwhelmed.+These+418+cellphones+represent+those+daily+calls.+%3Ca+href%3D%22http%3A%2F%2Fwww.sculpturepark.co.nz%2Fexhibitions%2Fsummer-utopia-into-dystopia%2Fsculptures%2Fattitudinal-change%22+rel%3D%22nofollow%22%3Ewww.sculpturepark.co.nz%2Fexhibitions%2Fsummer-utopia-into-dy...%3C%2Fa%3E"}
{"id":3523205565,"url":"http://farm4.staticflickr.com/3622/3523205565_7d63095d06.jpg","path":"188/b76/188b767edaf136a97255836e53f4727c.jpg","date":"2009-05-11","year":2009,"month":5,"lon":175.31825,"lat":-37.797764,"tags":"fire+bellied+newt,newt","S2CellId":"88fd000000000000","result":8754,"accuracy":0.022684406,"title":"Newt"}
{"id":12199584745,"url":"http://farm4.staticflickr.com/3697/12199584745_d733e60cc6.jpg","path":"5b2/636/5b2636dfdd1308c80b64553587b69e8.jpg","date":"2014-01-03","year":2014,"month":1,"lon":175.68065,"lat":-37.85743,"tags":"explore,hdr,hobbiton,karapiro,new+zealand,sandyman%27s+mill,waikato","S2CellId":"6d6dc00000000000","result":6853,"accuracy":0.6532548,"title":"Hobbiton%27s+Mill","description":"see+my+HDR+collection+also+on+%3Ca+href%3D%22http%3A%2F%2F500px.com%2Frobysaltori%22+rel%3D%22nofollow%22%3E500px.com%2Frobysaltori%3C%2Fa%3E%0A%3Ca+href%3D%22https%3A%2F%2Fnomadfoto.com%2F%22+rel%3D%22nofollow%22%3Enomadfoto.com%2F%3C%2Fa%3E%0ASandyman%27s+mill%0AHDR%2C+7ex%2C+handheld%0AMy+first+pic+in+Explore+%28%232%29+since+2008%21+%3A-%29"}
{"id":8538697452,"url":"http://farm9.staticflickr.com/8373/8538697452_eff37f6c6e.jpg","path":"491/f96/491f9639c91964e3467128ba513f8261.jpg","date":"2013-01-21","year":2013,"month":1,"lon":175.68192,"lat":-37.857697,"tags":"matamata,new+zealand,waikato","S2CellId":"6018e10000000000","result":6527,"accuracy":0.0051734843,"title":"Hobbiton"}
{"id":229929406,"url":"http://farm1.staticflickr.com/89/229929406_06b032cc90.jpg","path":"ea9/495/ea94950e4a7277fc444b7126194364e.jpg","date":"2006-08-31","year":2006,"month":8,"lon":175.68417,"lat":-37.95394,"tags":"2006,5-10-fav,blackandwhite,bw,essjaynz,lamb,newzealand,sarah+macmillan,sheep,specnature,tag1,tag2,tag3,taggedout,taken2006,woolly","S2CellId":"48746c0000000000","result":5139,"accuracy":0.008072862,"title":"Spring+Lamb","description":"I+spent+a+day+at+Roxborough+Farm%2C+Tirau.+Their+1700+ewes+had+almost+finished+lambing."}
{"id":8501799884,"url":"http://farm9.staticflickr.com/8235/8501799884_e1f17da72c.jpg","path":"394/7c2/3947c2dafd409c4fb81cdf42eb888d.jpg","date":"2013-02-23","year":2013,"month":2,"lon":175.46895,"lat":-37.77692,"tags":"arboretum,park,sculpture","S2CellId":"1502d00000000000","result":1353,"accuracy":0.02660372,"title":"20130223_152920"}
{"id":3245850832,"url":"http://farm4.staticflickr.com/3509/3245850832_1bbf58c1d4.jpg","path":"722/740/72274057387bd38f5c859c276bc9173d.jpg","date":"2009-01-22","year":2009,"month":1,"lon":175.31577,"lat":-37.786606,"tags":"button,class+forum,hardware,server,uow","S2CellId":"808fb74000000000","result":7058,"accuracy":0.050507493,"title":"The+OFF+Button","description":"Pushing+the+%27OFF%27+switch..."}
{"id":8143223400,"url":"http://farm9.staticflickr.com/8050/8143223400_7cd470a1d8.jpg","path":"751/397/751397a88566fcb4469fbeb8b162cb.jpg","date":"2012-10-30","year":2012,"month":10,"lon":175.8799,"lat":-37.105213,"tags":"new+zealand,wharekawa+wildlife+refuge","S2CellId":"86d5000000000000","result":7692,"accuracy":0.028575253,"title":"Angry+bird"}
{"id":7181351181,"url":"http://farm9.staticflickr.com/8168/7181351181_0dd16f634e.jpg","path":"ff1/8f5/ff18f597d7fa1296ce98164a135f5298.jpg","date":"2012-06-13","year":2012,"month":6,"lon":175.15228,"lat":-37.67579,"tags":"cold,dirt,frost,garden,garrots,nature,plants,seeds,soil,weather","S2CellId":"464a400000000000","result":2813,"accuracy":0.01278756,"title":"Frozen+Carrots"}
{"id":4762910191,"url":"http://farm5.staticflickr.com/4116/4762910191_2be62d0e99.jpg","path":"de8/524/de8524cf1deb249e88dec0caa8c194.jpg","date":"2010-07-05","year":2010,"month":7,"lon":175.299,"lat":-37.776707,"tags":"365,fish%26chips,project365","S2CellId":"87d5000000000000","result":7996,"accuracy":0.011773947,"title":"Double+K","description":"East+Street+Fish+n+Fnerks"}
{"id":8173664748,"url":"http://farm9.staticflickr.com/8484/8173664748_cbeac39e53.jpg","path":"efd/523/efd523bd54c6f3e755236b4fc2b11e.jpg","date":"2012-11-11","year":2012,"month":11,"lon":175.23212,"lat":-37.73194,"tags":"hefe,instagram+app,iphoneography,square,square+format","S2CellId":"12a4a2f640000000","result":731,"accuracy":0.012622397,"title":"Donuts"}
{"id":7171943205,"url":"http://farm8.staticflickr.com/7223/7171943205_43d20cfd25.jpg","path":"981/914/981914bb44f42ad43eee8f4d5756155.jpg","date":"2012-02-26","year":2012,"month":2,"lon":175.29918,"lat":-37.80395,"tags":"flower,flowers,fountain,garden,gardens,hamilton,hamilton+gardens,new+zealand,petal,stem","S2CellId":"8834400000000000","result":8304,"accuracy":0.013363054,"title":"P1320654-70"}
{"id":8538779644,"url":"http://farm9.staticflickr.com/8519/8538779644_a388879701.jpg","path":"9fd/e6e/9fde6e91f04389431dbfc4ab14b30d8.jpg","date":"2013-01-21","year":2013,"month":1,"lon":175.6816,"lat":-37.859608,"tags":"hdr,matamata,new+zealand,waikato","S2CellId":"6d6dc00000000000","result":6853,"accuracy":0.95024025,"title":"Hobbiton+Green+Dragon+Pub"}
{"id":11124623403,"url":"http://farm3.staticflickr.com/2808/11124623403_5234bc860c.jpg","path":"f8f/a66/f8fa66a1d319f4bcce62f694d83e16b.jpg","date":"2013-11-10","year":2013,"month":11,"lon":175.54062,"lat":-37.9288,"tags":"armistice+in+cambridge+2013,battle,german,lake+karapiro,re-enactment,wwii","S2CellId":"8831c00000000000","result":8299,"accuracy":0.06196423,"title":"ArmCamb13_1535fl"}
{"id":11737118674,"url":"http://farm8.staticflickr.com/7347/11737118674_9dcfc806fb.jpg","path":"d55/4b5/d554b582b8c6840a3b4958d07ea4c.jpg","date":"2013-11-18","year":2013,"month":11,"lon":175.68117,"lat":-37.857845,"tags":"hobbiton,matamata,new+zealand,tolkien","S2CellId":"6d6dc00000000000","result":6853,"accuracy":0.998026,"title":"Hobbiton"}
{"id":4241314065,"url":"http://farm5.staticflickr.com/4067/4241314065_17183f2af6.jpg","path":"ddd/35a/ddd35a926190763b5328d5a5b15daf4.jpg","date":"2010-01-03","year":2010,"month":1,"lon":175.47534,"lat":-37.898293,"tags":"2009,cambridge,fern,new+zealand,plant,treefern","S2CellId":"48760dd000000000","result":5282,"accuracy":0.012485771,"title":"Tree+fern+from+above"}
{"id":6279264425,"url":"http://farm7.staticflickr.com/6107/6279264425_182eb4de47.jpg","path":"f94/86a/f9486acbe26a42fa5dc1caa516176846.jpg","date":"2011-10-14","year":2011,"month":10,"lon":175.87395,"lat":-37.199432,"tags":"beach,coast,empty,flat,hills,sand,smooth,whangamata","S2CellId":"6b90400000000000","result":6745,"accuracy":0.23714833,"title":"Whangamata+Beach"}
{"id":6908609539,"url":"http://farm8.staticflickr.com/7050/6908609539_c5a3134f94.jpg","path":"a72/f88/a72f88bdfd014558ed704dd97c1c56.jpg","date":"2012-02-02","year":2012,"month":2,"lon":175.09003,"lat":-37.068535,"tags":"hunua+falls,kayaks","S2CellId":"7953b00000000000","result":6865,"accuracy":0.37977508,"title":"Outdoor+Pursuits"}
{"id":8362805769,"url":"http://farm9.staticflickr.com/8367/8362805769_f68719671b.jpg","path":"951/53e/95153ef5a66b2499d6ee2494b7c6f4d6.jpg","date":"2013-01-09","year":2013,"month":1,"lon":175.08981,"lat":-37.0686,"tags":"1.4,35mm,alien+skin+exposure,asph,fle,leica,m9,m9-p,summilux-m","S2CellId":"6d6b000000000000","result":6849,"accuracy":0.062497266,"title":"the+other+direction"}
{"id":4437776748,"url":"http://farm5.staticflickr.com/4066/4437776748_059f62bf2f.jpg","path":"f98/a18/f98a18aab97c16785ea028a1387f52.jpg","date":"2010-03-06","year":2010,"month":3,"lon":175.2911,"lat":-37.022778,"tags":"kaiaua,neuseeland","S2CellId":"6d74000000000000","result":6855,"accuracy":0.1582088,"title":"20100306_011"}
{"id":10613894276,"url":"http://farm4.staticflickr.com/3684/10613894276_50887a6ef9.jpg","path":"8a1/9b6/8a19b6c78a2c8194aec991c1337980ec.jpg","date":"2013-11-02","year":2013,"month":11,"lon":175.276,"lat":-37.802155,"tags":"instagram+app,iphoneography,sierra,square,square+format","S2CellId":"8891000000000000","result":8520,"accuracy":0.0034516088,"title":"Hanging+out+to+dry+%23rotoroa+%23hamiltonlake"}
{"id":8242014557,"url":"http://farm9.staticflickr.com/8481/8242014557_f20c7be83c.jpg","path":"23f/5d3/23f5d3d37b3b1e58a3c09abb72a9912c.jpg","date":"2012-12-04","year":2012,"month":12,"lon":175.36119,"lat":-37.667904,"tags":"evanx,evanxiao,goat,horse,pet,swt","S2CellId":"876c900000000000","result":7897,"accuracy":0.017304238,"title":"%E2%99%A1sWt%E2%99%A1"}
{"id":7548856904,"url":"http://farm9.staticflickr.com/8433/7548856904_71372c16ea.jpg","path":"8bf/3b6/8bf3b6748a3cd26f643c3eeac7f3171b.jpg","date":"2010-11-21","year":2010,"month":11,"lon":175.29918,"lat":-37.80395,"tags":"animals,dog,hamilton,hamilton+zoo,monkey,rhino,zebra,zoo","S2CellId":"48742d0000000000","result":5107,"accuracy":0.004159329,"title":"Zoo+Photos+21.11.10010-10"}
{"id":4313488350,"url":"http://farm3.staticflickr.com/2715/4313488350_d582be0211.jpg","path":"255/595/255595a0ac21f7f2318576c13bdabb37.jpg","date":"2010-01-29","year":2010,"month":1,"lon":175.31058,"lat":-37.79742,"tags":"365,ford,pickup,project365,truck,ute","S2CellId":"4cce070000000000","result":5919,"accuracy":0.049299628,"title":"F+O+R+D","description":"Parked+outside+the+fish+n+fnerks+shop+tonight.++Its+owner+arrived+later+with+jump+leads+to+start+it."}
{"id":86229507,"url":"http://farm1.staticflickr.com/41/86229507_6ea7b284af.jpg","path":"5b1/f8f/5b1f8fe82523bd5a617944a7b3e9b737.jpg","date":"2006-01-13","year":2006,"month":1,"lon":175.80322,"lat":-37.87485,"tags":"mobile,treo650,twinf","S2CellId":"8085830000000000","result":6963,"accuracy":0.0700991,"title":"Sachi+caught+a+Red+Snapper+yesterday...","description":"But+I+caught+three..."}
{"id":3196626378,"url":"http://farm4.staticflickr.com/3510/3196626378_4d3f0e2405.jpg","path":"b5c/f4e/b5cf4ef3c7468e763fd3fb3e156f85ff.jpg","date":"2009-01-14","year":2009,"month":1,"lon":175.84871,"lat":-37.002415,"tags":"coromandel+peninsula,estuary,panasonic+lumix+dmc+fz-5,sandy+austin,tairua","S2CellId":"6d3d000000000000","result":6844,"accuracy":0.12991497,"title":"Tairua%2C+Coromandel+Peninsula%2C+New+Zealand","description":"Tairua+estuary"}
{"id":9060361159,"url":"http://farm4.staticflickr.com/3753/9060361159_de6ce51238.jpg","path":"e7b/72e/e7b72e9d9cb19c7ffe8bb07fe1f0d2.jpg","date":"2013-06-15","year":2013,"month":6,"lon":175.35208,"lat":-37.87294,"tags":"2013,agricultural,creek,event,fieldays,hamilton,mystery,new,waikato,zealand","S2CellId":"479bc00000000000","result":3811,"accuracy":0.039327744,"title":"2013+National+Agricultural+Fieldays"}
{"id":5003466307,"url":"http://farm5.staticflickr.com/4153/5003466307_0a4330c950.jpg","path":"3e7/0ee/3e70ee08e44631dde2760ad90ada1ef.jpg","date":"2010-08-04","year":2010,"month":8,"lon":175.765,"lat":-37.837334,"tags":"2010,anroir,new+zealand,new+zeland,nueva+zelanda,oceania,summer","S2CellId":"47dcd00000000000","result":4497,"accuracy":0.07361436,"title":"IMG_2511+-+Version+2"}
{"id":401224934,"url":"http://farm1.staticflickr.com/180/401224934_290cb7ff9d.jpg","path":"437/fcf/437fcf868c25a96c9d0e0f7cadbf08.jpg","date":"2006-12-12","year":2006,"month":12,"lon":175.303,"lat":-37.80531,"tags":"beauty,flowers,gardens,hamilton,roses,sun","S2CellId":"5495090000000000","result":6237,"accuracy":0.037592966,"title":"100_0146.JPG"}
{"id":5438153142,"url":"http://farm5.staticflickr.com/4150/5438153142_752230c39b.jpg","path":"f49/8cd/f498cd27aec25997095f0703b8b2cd3.jpg","date":"2011-02-12","year":2011,"month":2,"lon":175.15149,"lat":-37.676228,"tags":"canterbury,football,ngaruawahia+united+afc,soccer,sport,waikato","S2CellId":"8808c00000000000","result":8102,"accuracy":0.25893402,"title":"Waikato+FC+vs+Canterbury+United"}
{"id":2816150721,"url":"http://farm4.staticflickr.com/3284/2816150721_8d30043f1d.jpg","path":"bf5/be8/bf5be88dc7931640d341ebbed81d65.jpg","date":"2008-08-30","year":2008,"month":8,"lon":175.35321,"lat":-37.87126,"tags":"c4,car,citroen,hamilton,motorsport,mystery+creek,new+zealand,nz,rally,rally+new+zealand,rally+new+zealand+2008,rally+nz,sebastien+loeb,waikato,world+rally+cahmpionship,wrc","S2CellId":"4884300000000000","result":5674,"accuracy":0.07936837,"title":"Sebastien+Loeb.+Rally+New+Zealand."}
{"id":4606347932,"url":"http://farm4.staticflickr.com/3406/4606347932_c4f4010c9a.jpg","path":"795/744/795744de95441f71ee26c302a796337.jpg","date":"2010-05-14","year":2010,"month":5,"lon":175.44719,"lat":-37.89739,"tags":"canon7d,ef+70-200mm+f%2F2.8l+is+ii+usm,fieldhockey,hockey,kidssport,raw,stpeterscambridge","S2CellId":"47c5c64000000000","result":4286,"accuracy":0.08512596,"title":"Mulligan"}
{"id":5405514338,"url":"http://farm6.staticflickr.com/5134/5405514338_1f5e95218a.jpg","path":"f0f/4f6/f0f4f6d9a8631b80709315f2757ced65.jpg","date":"2011-01-08","year":2011,"month":1,"lon":175.98055,"lat":-37.46743,"tags":"afternoon,bowentown,hdr,high+dynamic+range,long+exposure,rocks,trees,water","S2CellId":"2dcc000000000000","result":1536,"accuracy":0.09192404,"title":"Bowentown+Rocks","description":"%3Cb%3E%3Cu%3E32%2F365%3C%2Fu%3E%3C%2Fb%3E%0A%0A%3Ci%3EA+High+Dynamic+Range+Panoramic+Photograph+of+Rocks+at+Bowentown.+Taken+during+the+Afternoon+w%2F+a+Canon+EOS+1000D+%2B+ND8+%2B+CPL%2C+Post-Processing+in+RAW+w%2F+Digital+Photo+Professional%2C+Tonemapping+w%2F+Photomatix%2C+stitch+in+Hugin%2C+editing+in+Gimp.%3C%2Fi%3E%0A%3Cb%3Ef%2F22%2C+2s+%28median%29%2C+18mm%3C%2Fb%3E%0A%0AThis+photo+was+taken+on+the+same+day+that+I+took+the+previous+3+photos.+As+I+was+walking+around+the+rocks%2C+I+noticed+the+sunlight+leaking+through+the+trees%2C+creating+these+golden+patches.+I+set+up+this+shot%2C+and+took+2x+Long-exposure+HDR+photos%2C+and+stiched+them+together.+The+people+in+the+corner+stayed+still%2C+so+I+just+fixed+some+ghosting+areas+instead+of+completely+removing+them.%0A%0A%3Cb%3E%3Ca+href%3D%22http%3A%2F%2Fbighugelabs.com%2Fonblack.php%3Fid%3D5405514338%26size%3Dlarge%22+rel%3D%22nofollow%22%3EView+On+Black%3C%2Fa%3E%3C%2Fb%3E"}
{"id":3521519439,"url":"http://farm4.staticflickr.com/3567/3521519439_a3b58c18ab.jpg","path":"176/071/176071a77fc6ec4f6970dc25f7198ce3.jpg","date":"2009-05-11","year":2009,"month":5,"lon":175.31825,"lat":-37.797764,"tags":"fire+bellied+newt,newt","S2CellId":"808fcc9000000000","result":7071,"accuracy":0.022128334,"title":"Newt"}
{"id":4884355275,"url":"http://farm5.staticflickr.com/4137/4884355275_64d800ce79.jpg","path":"28a/f3f/28af3fcf8c102ee698a11833b9b3c6d3.jpg","date":"2010-08-11","year":2010,"month":8,"lon":175.31577,"lat":-37.786606,"tags":"%23project365,%23project365-11aug2010,72%2F365,building,university,university+of+waikato,uow,waikato","S2CellId":"4799db0000000000","result":3792,"accuracy":0.0126662105,"title":"72%2F365+-+J+%26+K+Blocks"}
{"id":5592620627,"url":"http://farm6.staticflickr.com/5094/5592620627_6c52af43f8.jpg","path":"39f/d40/39fd4044e1e84f3404ced3e1013a3f.jpg","date":"2011-03-19","year":2011,"month":3,"lon":175.26477,"lat":-37.78723,"tags":"frankton+markets","S2CellId":"4888469000000000","result":5738,"accuracy":0.011265037,"description":"%3Cu%3E%3Cb%3E96%2F365%3C%2Fb%3E%3C%2Fu%3E%0A+++++%0A%C6%92-Stop+%7C+%3Cb%3E1.8%3C%2Fb%3E%0AShutter+%7C+%3Cb%3E1%2F320%3C%2Fb%3E%0AFocal+Length+%7C+%3Cb%3E50mm%3C%2Fb%3E%0A%0AI+like+this+photo.+The+man+was+standing+is+that+particular+position%2C+and+because+I+was+standing+next+to+him%2C+I+needed+to+ask+for+a+photo%2C+then+tell+him+to+pose+in+exactly+the+same+position+as+before.+If+only+I+was+invisible.+Things+would+be+so+much+easier%21+I+could+capture+the+moment%27s+perfectly.+Maybe+it%27s+something+I+should+look+into.%0A%0A%3Cb%3E%3Ca+href%3D%22http%3A%2F%2Fbighugelabs.com%2Fonblack.php%3Fid%3D5592620627%22+rel%3D%22nofollow%22%3EOn+Black%3C%2Fa%3E%3C%2Fb%3E+%7C+%3Cb%3E%3Ca+href%3D%22http%3A%2F%2Fwww.facebook.com%2Fprofile.php%3Fid%3D100000033613190%22+rel%3D%22nofollow%22%3EFacebook%3C%2Fa%3E%3C%2Fb%3E+%7C+%3Cb%3E%3Ca+href%3D%22http%3A%2F%2Fwww.facebook.com%2FPluralFilms%22+rel%3D%22nofollow%22%3EFilm+Project%3C%2Fa%3E%3C%2Fb%3E"}
{"id":5217508120,"url":"http://farm5.staticflickr.com/4125/5217508120_55ceb9c30a.jpg","path":"dda/fe5/ddafe53bf96a46a7e91c4604173171f.jpg","date":"2010-11-28","year":2010,"month":11,"lon":175.14442,"lat":-37.666157,"tags":"boat,bridge+to+bridge,ngaruawahia,race,ski+race,skiing,the+point,trees,waikato+river,water","S2CellId":"87e5000000000000","result":8030,"accuracy":0.02896884,"title":"Pro-Floors"}
{"id":7635660100,"url":"http://farm8.staticflickr.com/7268/7635660100_4259019bd2.jpg","path":"c1f/ca0/c1fca0e7c75e2ed841daf47fa892fdec.jpg","date":"2012-07-21","year":2012,"month":7,"lon":175.77324,"lat":-37.413033,"tags":"battery,coromandel,historic,new,site,victoria,waikino,zealand","S2CellId":"8f5f000000000000","result":9534,"accuracy":0.14944074,"title":"Victoria+Battery%2C+Waikino"}
{"id":3529873591,"url":"http://farm4.staticflickr.com/3410/3529873591_80cb3f5715.jpg","path":"f4c/3e1/f4c3e166bfcbe7068ce8b722b6fce1b.jpg","date":"2009-05-14","year":2009,"month":5,"lon":175.21764,"lat":-37.77402,"tags":"fiji,new+zealand,nz,zoo","S2CellId":"60188c3000000000","result":6489,"accuracy":0.019651089,"title":"Hamilton+Zoo0001","description":"Trip+to+New+Zealand+%26+Fiji+with+People+to+People+Student+Ambassadors+in+2001"}
{"id":8289848323,"url":"http://farm9.staticflickr.com/8219/8289848323_cd1ef28f5f.jpg","path":"9a4/5b2/9a45b2f56a97665b6de15b21eda1dd.jpg","date":"2012-12-16","year":2012,"month":12,"lon":175.19089,"lat":-37.85412,"tags":"garden,nature,plants,shrub","S2CellId":"47c5c30000000000","result":4284,"accuracy":0.009448077,"title":"Shrub"}
{"id":11764993235,"url":"http://farm6.staticflickr.com/5516/11764993235_a26d4be5cd.jpg","path":"ed3/9de/ed39deea61c98ebacfa989bfa752d1d.jpg","date":"2014-01-04","year":2014,"month":1,"lon":175.3099,"lat":-37.691273,"tags":"2014,dmcg10,fountain,gordonton,january,lumix,microfourthirds,microfourthirds43,microfourthirdsmicro43,newzealand,northisland,panasonic,panasoniclumix,statue,tea,teaestate,teapot,waterfeature,zealong","S2CellId":"89c9b00000000000","result":9209,"accuracy":0.034914736,"title":"Teapot+Dragon+Head+%40+Zealong+Tea+Estate","description":"These+teapots+all+a+row%2C+with+a+dragons+tail+at+one+end+and+head+at+the+other%2C+will+eventually+form+a+water+feature%2Ffountain."}
{"id":3594060232,"url":"http://farm4.staticflickr.com/3596/3594060232_5238c3a475.jpg","path":"552/d10/552d10645c859f9b861871b31ac64c5e.jpg","date":"2009-06-04","year":2009,"month":6,"lon":175.21825,"lat":-37.77165,"tags":"hamilton+zoo,monkey,monkeys,new+zealand","S2CellId":"48738c0000000000","result":5085,"accuracy":0.009671084,"title":"Hilarious%2C+they+sleep+with+their+heads+rolled+on+to+their+feet%21"}
{"id":5475318747,"url":"http://farm6.staticflickr.com/5172/5475318747_e317083ac8.jpg","path":"4bb/97a/4bb97ad97c784b70f2fa3770dbd44413.jpg","date":"2011-02-25","year":2011,"month":2,"lon":175.13237,"lat":-37.217003,"tags":"beagles,darwin,new+zealand,woody","S2CellId":"2e69f70000000000","result":1574,"accuracy":0.014612013,"title":"Woody+%26+Darwin+arrive+in+New+Zealand","description":"Woody+%26+Darwin+at+their+quarantine+facility+in+Mangatawhiri%2C+New+Zealand"}
{"id":7861816824,"url":"http://farm9.staticflickr.com/8283/7861816824_38a0283783.jpg","path":"2d8/6d1/2d86d1c6dbf12cab0a732be26d953cc.jpg","date":"2012-08-25","year":2012,"month":8,"lon":175.13339,"lat":-37.570007,"tags":"huntly,lake,new,waahi,waikato,zealand","S2CellId":"94db000000000000","result":9745,"accuracy":0.02302251,"title":"Lake+Waahi%2C+Huntly%2C+Waikato","description":"Lake+Waahi+is+the+third+largest+lake+in+the+Waikato+Region+and+has+suffered+from+high+levels+of+suspended+sediment+entering+the+lake%2C+originating+from+both+pastoral+and+mine+Drainage.+Currently%2C+the+lake+is+considered+to+be+eutrophic."}
{"id":91367298,"url":"http://farm1.staticflickr.com/29/91367298_9c28021781.jpg","path":"e68/b64/e68b64f4d02afdfc7d54e7ae9b8d3e4.jpg","date":"2006-01-12","year":2006,"month":1,"lon":175.86682,"lat":-37.223152,"tags":"new+zealand","S2CellId":"5493000000000000","result":6233,"accuracy":0.017471427,"title":"beach","description":"tumbleweed+at+whangamata"}
{"id":2453239197,"url":"http://farm3.staticflickr.com/2016/2453239197_36b300905d.jpg","path":"bf3/9d9/bf39d9a6fdd432368566642e8296bd.jpg","date":"2008-04-25","year":2008,"month":4,"lon":175.61731,"lat":-37.815548,"tags":"bush,forest,kaimai,maungakawa,view,walk","S2CellId":"1829000000000000","result":1419,"accuracy":0.029161286,"title":"Kaimai%27s+from+Maungakawa","description":"Looking+over+the+Hauraki+Plain+to+the+Kaimai%27s.++Hazy+and+light+very+flat+%3A%28"}
{"id":3585419996,"url":"http://farm3.staticflickr.com/2430/3585419996_5b00f746bf.jpg","path":"cce/960/cce9604f2eb89bf72a264496819ed6d.jpg","date":"2009-06-01","year":2009,"month":6,"lon":175.93832,"lat":-37.386047,"tags":"new+zealand","S2CellId":"0d7c000000000000","result":608,"accuracy":0.03990611,"title":"IMG_4421","description":"Note%3A+Any+creative+commons+license+applied+to+this+image+is+in+addition+to+certain+restrictions.+See+my+profile+for+more+information."}
{"id":5576742966,"url":"http://farm6.staticflickr.com/5187/5576742966_ab5c344ef2.jpg","path":"f53/3a3/f533a320acb661415e238b84ca97094.jpg","date":"2011-03-31","year":2011,"month":3,"lon":175.2905,"lat":-37.81735,"tags":"365,teachernz","S2CellId":"8842400000000000","result":8397,"accuracy":0.023119813,"title":"Inflating","description":"Shortly+afterwards+it+was+deflating...+too+windy+for+a+launch."}
{"id":2442573318,"url":"http://farm4.staticflickr.com/3122/2442573318_d8f88b8957.jpg","path":"9ee/194/9ee19477fa362ef06739a0ef2f2030ef.jpg","date":"2008-04-12","year":2008,"month":4,"lon":175.31807,"lat":-37.78196,"tags":"balloonsoverwaikato,hamilton,hotairballoon,newzealand,nightglow","S2CellId":"8722740000000000","result":7745,"accuracy":0.46631947,"title":"Nightglow","description":"Balloons+over+Waikato%2C+Nightglow."}
{"id":8691618068,"url":"http://farm8.staticflickr.com/7052/8691618068_4025550c76.jpg","path":"a32/131/a321317e8686a78198f25bdfe4c350.jpg","date":"2013-04-02","year":2013,"month":4,"lon":175.68065,"lat":-37.857796,"tags":"film+location,film+set,hobbiton,lord+of+the+rings,matamata,middle-earth,new+zealand,north+island,the+hobbit,the+shire","S2CellId":"6d6dc00000000000","result":6853,"accuracy":0.7600523,"title":"Hobbiton"}
{"id":4603943488,"url":"http://farm4.staticflickr.com/3434/4603943488_4636317124.jpg","path":"ccb/6fe/ccb6fed9c458cd93cba040a6693df74b.jpg","date":"2009-09-27","year":2009,"month":9,"lon":175.30278,"lat":-37.806915,"tags":"flowers,gardens,hamilton","S2CellId":"6b164d0000000000","result":6716,"accuracy":0.27162153,"title":"20090927_Hamilton+Gardens_002","description":"Hamilton+Gardens"}
{"id":5217502178,"url":"http://farm5.staticflickr.com/4124/5217502178_6316203bc2.jpg","path":"cbe/ef7/cbeef7767b6829776e743a36dc263f6.jpg","date":"2010-11-28","year":2010,"month":11,"lon":175.14442,"lat":-37.666157,"tags":"boat,bridge+to+bridge,ngaruawahia,race,ski+race,skiing,the+point,trees,waikato+river,water","S2CellId":"54c5000000000000","result":6306,"accuracy":0.09790948,"title":"BJammin"}
{"id":5625916345,"url":"http://farm6.staticflickr.com/5305/5625916345_df676e9c09.jpg","path":"2fd/9bf/2fd9bfa17c5a9055a22da55b4d220c7.jpg","date":"2011-04-10","year":2011,"month":4,"lon":175.87357,"lat":-37.204166,"tags":"beach,cinema,coromandel,movies,newzealand,whangamata","S2CellId":"56c4000000000000","result":6318,"accuracy":0.01788338,"title":"Cinema","description":"Whangamata+movie+theatre%0ACoromandel+Peninsula"}
{"id":12741961455,"url":"http://farm8.staticflickr.com/7407/12741961455_e132e1fc7d.jpg","path":"a1c/628/a1c6285a5653ad4a6a97d6e06d9752f4.jpg","date":"2014-02-02","year":2014,"month":2,"lon":175.56406,"lat":-37.027874,"tags":"coromandle,crosbie%27s,doc,forest,hike,hut,park,peninsula","S2CellId":"88da400000000000","result":8606,"accuracy":0.04681327,"title":"I+will+kick+your+ass%21"}
{"id":3099844218,"url":"http://farm4.staticflickr.com/3168/3099844218_3319144878.jpg","path":"2bf/765/2bf765b690aff67c3da6dc1188df354.jpg","date":"2008-12-11","year":2008,"month":12,"lon":175.31577,"lat":-37.786606,"tags":"conference,elearning,technology,wcel,wcelfest08","S2CellId":"8804c00000000000","result":8073,"accuracy":0.07248634,"title":"WCELfest08+Angela+%26+Merilyn","description":"Merilyn+Taylor+%26+Angela+Painter+talking+about+their+perceptions+of+eLearning+-+from+both+sides%21%0A%0AWCELfest08%2C+University+of+Waikato%2C+December+11%2C+2008"}
{"id":4486051293,"url":"http://farm5.staticflickr.com/4020/4486051293_d4bffb799a.jpg","path":"721/a86/721a86445dfee6f295bd754386a4b181.jpg","date":"2010-03-26","year":2010,"month":3,"lon":175.72124,"lat":-37.423073,"tags":"18-200,d90,gorge,island,karangahake,new,new+zealand,nikon,north,zealand","S2CellId":"479c900000000000","result":3813,"accuracy":0.06029166,"title":"Karangahake+Gorge.+New+Zealand-38"}
{"id":5460177627,"url":"http://farm6.staticflickr.com/5299/5460177627_0fdce06fe7.jpg","path":"c8f/8a8/c8f8a810768dedb1ca46952d312216.jpg","date":"2011-02-20","year":2011,"month":2,"lon":175.66821,"lat":-37.37759,"tags":"motorcycle,motorsport,paeroa+battle+of+the+streets,race","S2CellId":"48638c0000000000","result":4862,"accuracy":0.22978961,"title":"Glen+Williams+on+a+Suzuki+SVR+650","description":"Rounding+the+hairpin"}
{"id":12265794775,"url":"http://farm8.staticflickr.com/7329/12265794775_607ddde5ba.jpg","path":"5d9/6bc/5d96bc53b15bbe563d49ae8e33bc237.jpg","date":"2014-01-07","year":2014,"month":1,"lon":175.26936,"lat":-37.763523,"tags":"blue,dive,swim,swimming,water","S2CellId":"5495900000000000","result":6258,"accuracy":0.009289444,"title":"Diving+at+Dio","description":"Swimming+at+Dio"}
{"id":476401270,"url":"http://farm1.staticflickr.com/205/476401270_eb7a309a17.jpg","path":"c89/2f1/c892f121349137c6d6d9dc6dda2d78.jpg","date":"2007-04-29","year":2007,"month":4,"lon":175.23279,"lat":-37.795746,"tags":"autumn,brown,fungi,grass,green,mushrooms","S2CellId":"465a400000000000","result":2886,"accuracy":0.04353913,"title":"Phallus+Minimus","description":"These+rather+phallic+looking+structures+are+on+the+edge+of+our+driveway+at+the+moment%2C+about+40mm+high+and+12mm+diam+caps.+They+grow+up+%3Ca+href%3D%22http%3A%2F%2Fwww.flickr.com%2Fphotos%2Fdeeknow%2F476401248%2F%22%3Einto+these%3C%2Fa%3E"}
{"id":2145876500,"url":"http://farm3.staticflickr.com/2130/2145876500_5f294ab345.jpg","path":"735/5f4/7355f4e5e343ee9cdb1b3aad353cae61.jpg","date":"2007-01-27","year":2007,"month":1,"lon":175.12439,"lat":-37.668808,"tags":"bush,clean,forest,green,kenneth,new+zealand,ngaruawahia,nz,outdoors,pirongia,pristine,relaxing","S2CellId":"6b9c000000000000","result":6776,"accuracy":0.024744745,"title":"A+Totora"}
{"id":3391130080,"url":"http://farm4.staticflickr.com/3437/3391130080_20304fa483.jpg","path":"1ea/b52/1eab5227ca2387608d36253f8406527.jpg","date":"2009-03-28","year":2009,"month":3,"lon":175.51637,"lat":-37.096264,"tags":"beach,coromandel+peninsula,firth+of+thames,hauraki+gulf,new+zealand,north+island,panasonic+lumix+dmc+fz-5,sandy+austin","S2CellId":"6d74000000000000","result":6855,"accuracy":0.30304977,"title":"Coromandel+Peninsula%2C+New+Zealand","description":"The+road+to+Coromandel+township+follows+the+Firth+of+Thames+coastline+through+several+bays%2C+beaches+and+holiday+settlements"}
{"id":3205710316,"url":"http://farm4.staticflickr.com/3125/3205710316_349920721b.jpg","path":"c7d/081/c7d081912c4e2710cfa5b05717838f76.jpg","date":"2006-07-13","year":2006,"month":7,"lon":175.83159,"lat":-37.630497,"tags":"94,aotearoa,bush,clay,dirt,jeep,jeep+cherokee,jeep+cherokee+1994,mud,new+zealand,offroad,thompsons+track,track","S2CellId":"94cef40000000000","result":9736,"accuracy":0.016863432,"title":"P1010880","description":"Thomsons+Track+from+Te+Aroha+side%2C+New+Zealand%0A%0AThomsons+Track+from+Te+Aroha+side%2C+New+Zealand"}
{"id":5208089929,"url":"http://farm5.staticflickr.com/4106/5208089929_4feea39907.jpg","path":"fe5/677/fe5677b875b17715760fa2cddfc7442.jpg","date":"2010-11-26","year":2010,"month":11,"lon":175.75241,"lat":-37.970997,"tags":"flowers,gardens,rosebuds,roses,scentedflowers","S2CellId":"3404005400000000","result":1984,"accuracy":0.013653506,"title":"Assorted+Roses","description":"Collection+of+Rose+heads+%26+rose+buds."}
{"id":431976829,"url":"http://farm1.staticflickr.com/165/431976829_4dc6192089.jpg","path":"353/feb/353febb9f9f2320d0629f44f82cacb6.jpg","date":"2007-03-22","year":2007,"month":3,"lon":175.87807,"lat":-37.04778,"tags":"2007,400d,aldermanislands,canon,dive,eos,holiday,kelp,march2007,newzealand,water","S2CellId":"1453000000000000","result":1198,"accuracy":0.029055644,"title":"Alderman+Islands+-+Kelp"}
{"id":13792154,"url":"http://farm1.staticflickr.com/12/13792154_7287f2fd78.jpg","path":"d35/d2c/d35d2c8517dc6bf1e7e3d70973b674b.jpg","date":"2005-05-07","year":2005,"month":5,"lon":175.56633,"lat":-37.10831,"tags":"coromandel,kauaeranga+valley,new+zealand,pinnacles","S2CellId":"5495f00000000000","result":6276,"accuracy":0.015619779,"title":"Squirt"}
{"id":4520004469,"url":"http://farm5.staticflickr.com/4061/4520004469_d8bc67688e.jpg","path":"238/825/238825e3471beae4309a9b8bf95a16.jpg","date":"2010-04-14","year":2010,"month":4,"lon":175.28851,"lat":-37.788418,"tags":"365,aeroplane,memorial,project365","S2CellId":"470bf00000000000","result":3178,"accuracy":0.024906969,"title":"Memorial","description":"In+Memorial+Park%2C+Hamilton...+anybody+know+what+plane+this+is%3F++Hurricane%3F"}
{"id":7756603570,"url":"http://farm9.staticflickr.com/8422/7756603570_ccd4d75140.jpg","path":"bfe/749/bfe7490bfc7115bc2d6ab6d3837481.jpg","date":"2012-08-11","year":2012,"month":8,"lon":175.30412,"lat":-37.80524,"tags":"androidography,instagram+app,lo-fi,square,square+format","S2CellId":"3415000000000000","result":2020,"accuracy":0.002089874,"title":"Koru"}
{"id":3985897636,"url":"http://farm3.staticflickr.com/2670/3985897636_e119133c78.jpg","path":"d96/ad3/d96ad39a27eee0cd6bd5033578dd8e.jpg","date":"2009-10-01","year":2009,"month":10,"lon":175.68063,"lat":-37.857925,"tags":"hobbiton,matamata,new+zealand","S2CellId":"6d6dc00000000000","result":6853,"accuracy":0.996075,"description":"Bag+End%2C+Hobbiton"}
{"id":8691626056,"url":"http://farm8.staticflickr.com/7045/8691626056_6e230afbeb.jpg","path":"f4d/035/f4d035a07e6a88d516cc634845b863.jpg","date":"2013-04-02","year":2013,"month":4,"lon":175.68065,"lat":-37.857796,"tags":"film+location,film+set,hobbiton,lord+of+the+rings,matamata,middle-earth,new+zealand,north+island,the+green+dragon+inn,the+hobbit,the+shire","S2CellId":"6d6dc00000000000","result":6853,"accuracy":0.32804096,"title":"The+Green+Dragon+Inn"}
{"id":8213296592,"url":"http://farm9.staticflickr.com/8207/8213296592_52fe9ea2ec.jpg","path":"2d5/8a9/2d58a9482c3676f1881d98ff27daf89.jpg","date":"2012-11-05","year":2012,"month":11,"lon":175.48024,"lat":-37.893955,"tags":"new+zealand","S2CellId":"477bd00000000000","result":3447,"accuracy":0.0132388575,"title":"Hello","description":"On+our+second+night+in+New+Zealand+our+group+of+32+travelers+split+up+into+groups+of+four+and+went+to+stay+on+farms+in+the+Hamilton+%2F+Cambridge+area.+++++Our+hosts%2C+Brian+and+Ann%2C+keep+only+a+couple+dozen+cows+on+their+farm.++The+bulk+of+their+income+comes+from+bull+semen."}
{"id":2339106328,"url":"http://farm3.staticflickr.com/2369/2339106328_754d05fb07.jpg","path":"539/b4d/539b4d304ec1ca8eb167e5cebeb0923c.jpg","date":"2008-03-17","year":2008,"month":3,"lon":175.30687,"lat":-37.803253,"tags":"hamilton,hamilton+gardens,horoeka,juvenile,lancewood,new+zealand,north+island,panasonic+lumix+dmc+fz-5,pseudopanax,pseudopanax+crassifolius,sandy+austin,tree","S2CellId":"88d9d00000000000","result":8604,"accuracy":0.02680086,"title":"Hamilton+Gardens%2C+Hamilton%2C+Waikato%2C+New+Zealand","description":"The+juvenile+lancewood+tree+%28Pseudopanax+crassifolius%29+Horoeka+with+it+sharp+spear-like+leaves+that+grow+downwards.+These+are+replaced+in+adult+trees+with+rounded+crowns+and+finger-like+leaves."}
{"id":3021294665,"url":"http://farm4.staticflickr.com/3038/3021294665_6110d70687.jpg","path":"ca4/e4c/ca4e4cc317e869f75aa5e633746ff1.jpg","date":"2008-10-30","year":2008,"month":10,"lon":175.67766,"lat":-37.048447,"tags":"breccia,coromandel,igneous,miocene,new+zealand,rhyolite,volcanics,whitianga+group","S2CellId":"479d100000000000","result":3817,"accuracy":0.0075713973,"title":"Rhyolitic+Breccia","description":"Miocene+Rhyolite+Breccia+of+the+Whitianga+group+exposed+in+bed+of+Kauaeranga+River%2C+Coromandel+Forest+Park%2C+Coromandel+Peninsula%2C+New+Zealand.%0A%0A%0ADSC03614"}
{"id":2603779720,"url":"http://farm4.staticflickr.com/3242/2603779720_aa3c50e928.jpg","path":"311/6d9/3116d9a5e3c1b0249d8b1a322b948a9.jpg","date":"2008-06-19","year":2008,"month":6,"lon":175.31577,"lat":-37.786606,"tags":"nature,path,tree,trees,uni,uow+golf+day,waikato","S2CellId":"48670e9f00000000","result":4895,"accuracy":0.14253713,"title":"Tree"}
{"id":9753743922,"url":"http://farm8.staticflickr.com/7283/9753743922_67a948aaa1.jpg","path":"284/036/284036a81feab22efdcf8d99a4c937a9.jpg","date":"2013-09-13","year":2013,"month":9,"lon":175.23933,"lat":-37.79683,"tags":"flower,luisa+plum,white","S2CellId":"477f440000000000","result":3496,"accuracy":0.012641072,"title":"P9130035","description":"White+flowers+of+the+Luisa+plum+tree."}
{"id":7548839778,"url":"http://farm8.staticflickr.com/7275/7548839778_b57d9ccd77.jpg","path":"6cf/a21/6cfa2172793154a863dad50c42d852b.jpg","date":"2010-11-21","year":2010,"month":11,"lon":175.29918,"lat":-37.80395,"tags":"animals,dog,hamilton,hamilton+zoo,monkey,rhino,zebra,zoo","S2CellId":"4879440000000000","result":5477,"accuracy":0.028143782,"title":"Zoo+Photos+21.11.10017-17"}
{"id":2513510946,"url":"http://farm4.staticflickr.com/3163/2513510946_fde04ef8d0.jpg","path":"f83/875/f838758d4e9a29a08fc4bbb867529ef4.jpg","date":"2008-05-04","year":2008,"month":5,"lon":175.24344,"lat":-37.73317,"tags":"birds,grass,nature,turkeys","S2CellId":"47c1c00000000000","result":4153,"accuracy":0.020239078,"title":"Turkeys+2","description":"Felt+like+a+turkey+taking+these+photos+in+the+rain"}
{"id":4603949864,"url":"http://farm2.staticflickr.com/1152/4603949864_27d2432ab8.jpg","path":"a8b/401/a8b40173e5e1f6fac75e4a3b291770.jpg","date":"2009-09-27","year":2009,"month":9,"lon":175.30278,"lat":-37.806915,"tags":"flowers,gardens,hamilton","S2CellId":"47e0c00000000000","result":4528,"accuracy":0.015086989,"title":"20090927_Hamilton+Gardens_038","description":"Hamilton+Gardens"}
{"id":159901784,"url":"http://farm1.staticflickr.com/47/159901784_28f8fcf036.jpg","path":"a6b/08b/a6b08b4ef53abbd5bb56b4e179a5829.jpg","date":"2006-06-04","year":2006,"month":6,"lon":175.46935,"lat":-37.887184,"tags":"1-5-fav,2006,branches,essjaynz,lakecambridge,photoshop,red,reflection,reflections,sarah+macmillan,tag1,tag2,tag3,taggedout,taken2006,trees,winter","S2CellId":"89c4c00000000000","result":9132,"accuracy":0.018396713,"title":"Grey+Day","description":"Lake+Cambridge+on+a+Grey+Day"}
{"id":4681656026,"url":"http://farm2.staticflickr.com/1289/4681656026_c1b2f99170.jpg","path":"275/796/2757963dd1dfa3959e5f3372819da29.jpg","date":"2010-06-08","year":2010,"month":6,"lon":175.28537,"lat":-37.783195,"tags":"%23project365,%23project365-08jun2010,8%2F365,advertising,beer,beer+advertising,bird,black,building,daily+shoot,daily+shot,photo+a+day,red,sign,tui,words,yeah+right","S2CellId":"48761b7000000000","result":5331,"accuracy":0.0123283835,"title":"8%2F365+-+Tui+tractor+ad"}
{"id":7731359596,"url":"http://farm8.staticflickr.com/7116/7731359596_7675bdd3dc.jpg","path":"ef5/2bb/ef52bbe452e35865388cb0331a2049.jpg","date":"2012-08-07","year":2012,"month":8,"lon":175.32202,"lat":-37.801662,"tags":"androidography,hudson,instagram+app,square,square+format","S2CellId":"12a4a2f6b0000000","result":733,"accuracy":0.0028549833,"title":"Candid"}
{"id":5125621990,"url":"http://farm5.staticflickr.com/4125/5125621990_80b943cfde.jpg","path":"7b3/ff5/7b3ff583269a99f42df14eeae23330d7.jpg","date":"2010-10-27","year":2010,"month":10,"lon":175.31577,"lat":-37.786606,"tags":"%23project365,%23project365-27oct2010,149%2F365,flowers,garden,uow,waikato","S2CellId":"48760dd000000000","result":5282,"accuracy":0.02597656,"title":"149%2F365+-+Bird+of+Paradise"}
{"id":1404949757,"url":"http://farm2.staticflickr.com/1179/1404949757_1a9511982d.jpg","path":"c2e/b56/c2eb56568a5becac43cf6ed76acf83f.jpg","date":"2007-09-19","year":2007,"month":9,"lon":175.25374,"lat":-37.786045,"tags":"1-5-fav,2007,essjaynz,feathers,featheryfriday,i500,ilovenature,interestingness6,kea,newzealand,parrot,pirate,sarah+macmillan,taken2007,talklikeapirateday","S2CellId":"80d9549000000000","result":7295,"accuracy":0.014219337,"title":"Happy+Talk+Like+A+Pirate+Day+-+Squawk%21","description":"A+Kea%2C+New+Zealand+Parrot+-+One+of+New+Zealand%27s+largest+birds+and+probably+too+big+to+be+carried+on+the+pirate%27s+shoulder.%0A%0AThey+amuse+tourists+with+their+cheeky+and+destructive+antics.+They+can+strip+a+car+of+its+window+surrounds+and+other+removables."}
{"id":5003502219,"url":"http://farm5.staticflickr.com/4087/5003502219_e0926a3f7b.jpg","path":"306/e47/306e472020beb032c73aaacdde46c8df.jpg","date":"2010-08-05","year":2010,"month":8,"lon":175.51917,"lat":-37.954334,"tags":"2010,anroir,new+zealand,new+zeland,nueva+zelanda,oceania,summer","S2CellId":"465a400000000000","result":2886,"accuracy":0.024997028,"title":"IMG_2580+-+Version+2"}
{"id":7333048174,"url":"http://farm9.staticflickr.com/8001/7333048174_e00e0951dd.jpg","path":"e5c/52c/e5c52c95c09cda18c3b8e3ee3b3b1a1.jpg","date":"2012-06-02","year":2012,"month":6,"lon":175.09166,"lat":-37.993336,"tags":"forest+park,gf1,lumix+g+14%2Ff2.5,new+zealand,north+island,pirongia,tramping","S2CellId":"355ab00000000000","result":2274,"accuracy":0.005601988,"title":"Boiling+water"}
{"id":7635656270,"url":"http://farm9.staticflickr.com/8285/7635656270_0307dbcace.jpg","path":"919/e54/919e5426528e8acb1aea63a47ad8af5.jpg","date":"2012-07-21","year":2012,"month":7,"lon":175.77324,"lat":-37.413033,"tags":"battery,coromandel,historic,new,site,victoria,waikino,zealand","S2CellId":"6019b00000000000","result":6548,"accuracy":0.018931177,"title":"Victoria+Battery%2C+Waikino"}
{"id":4410413604,"url":"http://farm5.staticflickr.com/4030/4410413604_f0f1138eb6.jpg","path":"2e5/9bb/2e59bbd9cb4d3cd605b629c95a92c8c.jpg","date":"2009-05-30","year":2009,"month":5,"lon":175.15271,"lat":-37.54529,"tags":"18-200mm+f%2F3.5-5.6g+ed+vr+ii,cloud,d90,day,hills,huntly,nikon,outisde","S2CellId":"12d5840000000000","result":920,"accuracy":0.036981594,"title":"DSC_0003","description":"Taking+the+back+roads+down+to+Hawkes+Bay.++Was+feeling+lousy+so+the+wife+was+driving.%0AMost+of+these+were+taken+on+the+move."}
{"id":5135186220,"url":"http://farm2.staticflickr.com/1380/5135186220_4fe1bd13e2.jpg","path":"e5a/d78/e5ad785cd9134d13d7ec24aa56844416.jpg","date":"2010-11-01","year":2010,"month":11,"lon":175.15184,"lat":-37.67561,"tags":"bird,bottlebrush,flowers,native,nature,new+zealand+native,tree,tui","S2CellId":"47d8f40000000000","result":4466,"accuracy":0.005643286,"title":"Show+off+Tui"}
{"id":11934808456,"url":"http://farm8.staticflickr.com/7351/11934808456_b96576fbc3.jpg","path":"ba6/5c6/ba65c6bbd54a6db3ee615a8c8dc6d23.jpg","date":"2014-01-07","year":2014,"month":1,"lon":175.90216,"lat":-37.281723,"tags":"2014,abaconda,accomodation,admiralty,aotearoa,attribution,batch,blue,bush,cc,clouds,coromandel,coromandel+peninsula,creative+common,ed+kruger,flowers,forest,free,free+new+zealand+photos,free+nz+photos,free+photo+of+new+zealand,grass,green,holiday,kirill+kruger,kiwi,landscape,milla+kruger,new+zealand,new+zealand+photo,new+zealand+photography,north+island,nz,park,photo+of+new+zealand,plants,qfse,rod+kruger,sea,sky,some+rights+reserved,summer,sun,sunny,travel,tree,vegetation,waikato,whiritoa","S2CellId":"6d6dc00000000000","result":6853,"accuracy":0.58743155,"title":"New+Zealand+Holiday+Home","description":"New+Zealand+Beachfront+Holiday+Home"}
{"id":12282321564,"url":"http://farm6.staticflickr.com/5524/12282321564_c0fcae8f66.jpg","path":"951/b49/951b49c335fcabb1e54b63864cd4cf89.jpg","date":"2014-02-03","year":2014,"month":2,"lon":175.29065,"lat":-37.816414,"tags":"hipstamatic,john+s+lens,rtv+shout%21+film","S2CellId":"88dd7ef000000000","result":8627,"accuracy":0.005432565,"title":"Unafraid+33%2F365+This+year+for+my+365+I%27m+shaking+Hipstamatic+for+random+lens%2Ffilm%2Fflash+combos..."}
{"id":4445098404,"url":"http://farm5.staticflickr.com/4037/4445098404_53340bfab4.jpg","path":"1df/f48/1dff4889e8fc046e4e632effc8e2e6d.jpg","date":"2010-01-24","year":2010,"month":1,"lon":175.08096,"lat":-37.355507,"tags":"18-200mm+f%2F3.5-5.6g+ed+vr+ii,cars,d90,day,hampton+downs,nikon,oldsmobile,outside,racing","S2CellId":"8869700000000000","result":8478,"accuracy":0.15957695,"title":"NZ+Festival+of+Motorsport"}
{"id":240275920,"url":"http://farm1.staticflickr.com/94/240275920_55aa62e0e8.jpg","path":"edd/fc8/eddfc86f26fcb5461b71d57e1ba4930.jpg","date":"2006-06-11","year":2006,"month":6,"lon":175.25374,"lat":-37.786045,"tags":"2006,creative_commons,essjaynz,lemur,madagascar,sarah+macmillan,stripes,tail,taken2006,tale","S2CellId":"47fb000000000000","result":4734,"accuracy":0.018481337,"title":"the+tail"}
{"id":5037908631,"url":"http://farm5.staticflickr.com/4109/5037908631_f5e176d18a.jpg","path":"ef6/4f3/ef64f3b2861b7d1a4e5de0ae32bd6d61.jpg","date":"2010-09-29","year":2010,"month":9,"lon":175.31577,"lat":-37.786606,"tags":"%23uowtim,elearning,steve+wheeler,technology,timbuckteeth,uow,web+2.0,workshop","S2CellId":"487baf0000000000","result":5580,"accuracy":0.06647081,"title":"Workshop+attendees","description":"Steve+Wheeler+workshop+at+the+University+of+Waikato%2C+29+Sept+2010"}
{"id":5437539005,"url":"http://farm6.staticflickr.com/5253/5437539005_4315162f84.jpg","path":"385/a35/385a3572d84fa2cfdc33f4471796742.jpg","date":"2011-02-12","year":2011,"month":2,"lon":175.15149,"lat":-37.676228,"tags":"canterbury,football,soccer,sport,waikato","S2CellId":"486108c000000000","result":4846,"accuracy":0.2004087,"title":"Waikato+FC+vs+Canterbury+United","description":"Waikato+%237+Jason+Hicks%0AWaikato+%2310+Daniel+Peat%0ACanterbury+%2319+Jeremy+Wild"}
{"id":5107052932,"url":"http://farm5.staticflickr.com/4092/5107052932_0889b34239.jpg","path":"bb5/aca/bb5acae29684d183c52dc25a18759d.jpg","date":"2010-10-23","year":2010,"month":10,"lon":175.14035,"lat":-37.66247,"tags":"bushwalk,hakarimata,nature,ngaruawahia,track,walking,water,water+works+track,waterfall","S2CellId":"5495f00000000000","result":6276,"accuracy":0.05546105,"title":"Waterworks+Track+-+Hakarimata","description":"Waterfall+just+before+the+dam+%28right+hand+side%29"}
{"id":110427774,"url":"http://farm1.staticflickr.com/45/110427774_fc545475a9.jpg","path":"377/333/37733363bd4565a3dc11bd91798e75f2.jpg","date":"2006-03-10","year":2006,"month":3,"lon":175.76134,"lat":-37.97749,"tags":"0x94806c,2006,alphatheme-g,bestviewedlarge,cows,essjaynz,golden,light,newzealand,sarah+macmillan,silhouette,sunset,tag1,tag2,tag3,taggedout,taken2006,tree","S2CellId":"8084100000000000","result":6905,"accuracy":0.22734787,"title":"shades+of+gold","description":"best+viewed+%3Ca+href%3D%22http%3A%2F%2Fflickr.com%2Fphoto_zoom.gne%3Fid%3D110427774%26size%3Dl%22%3Elarge%3C%2Fa%3E+to+see+the+young+bullocks"}
{"id":3592191011,"url":"http://farm4.staticflickr.com/3406/3592191011_1e345d2f3f.jpg","path":"632/fae/632fae3180e0f148f35e684dbcf03aa2.jpg","date":"2009-06-04","year":2009,"month":6,"lon":175.21825,"lat":-37.77165,"tags":"giraffe,hamilton+zoo,new+zealand","S2CellId":"48761ac400000000","result":5305,"accuracy":0.101722375,"title":"Before+the+feeding"}
{"id":7147560267,"url":"http://farm8.staticflickr.com/7198/7147560267_73136b6bd6.jpg","path":"4cf/136/4cf136403aaefeaf78e6e12870acc52.jpg","date":"2012-05-06","year":2012,"month":5,"lon":175.15228,"lat":-37.67579,"tags":"dark,full+moon,lunar,moon,nature,night,sky,super+moon","S2CellId":"842bc00000000000","result":7429,"accuracy":0.047018543,"title":"Super+moon+2012"}
