{"id":11675712555,"url":"http://farm8.staticflickr.com/7381/11675712555_4500468b86.jpg","path":"4e3/ec0/4e3ec04cd483f46b6fa167e4227649.jpg","date":"2014-01-01","year":2014,"month":1,"lon":27.290382,"lat":61.687267,"tags":"finland,fireworks,mikkeli,new+year","S2CellId":"12ce900000000000","result":891,"accuracy":0.06248564,"title":"Mikkelin+Kaupungin+ilotulitus"}
{"id":249175356,"url":"http://farm1.staticflickr.com/98/249175356_268ef8ce3a.jpg","path":"fbd/939/fbd9390e12e145886b57738f44a69.jpg","date":"2006-09-12","year":2006,"month":9,"lon":27.416382,"lat":61.283432,"tags":"ballooning,finland,gasballooning,gordon+bennett,vacations","S2CellId":"467c000000000000","result":2949,"accuracy":0.1100669,"title":"GordonBennett_0609_6_Packup_04"}
{"id":273528824,"url":"http://farm1.staticflickr.com/117/273528824_28fb3857a6.jpg","path":"fc4/7e3/fc47e3349238d4b7881e3718784072.jpg","date":"2006-09-12","year":2006,"month":9,"lon":27.416382,"lat":61.283432,"tags":"ballooning,gasballooning,gordon+bennett,vacations","S2CellId":"468e400000000000","result":2974,"accuracy":0.058359224,"title":"GordonBennett_0609_4_Landing_23"}
{"id":176414611,"url":"http://farm1.staticflickr.com/56/176414611_65f3214132.jpg","path":"9e9/4b2/9e94b217ab6ad4acd1a91ec54a94b171.jpg","date":"2006-06-24","year":2006,"month":6,"lon":27.001131,"lat":61.748432,"tags":"finland,hirvij%C3%A4rvi,juhannus,midsummers,suomi","S2CellId":"5384000000000000","result":6066,"accuracy":0.052409407,"title":"lake"}
{"id":249179454,"url":"http://farm1.staticflickr.com/84/249179454_20e01ab445.jpg","path":"758/374/7583749c7c753aa1f9a979c9a23c715c.jpg","date":"2006-09-13","year":2006,"month":9,"lon":27.416382,"lat":61.283432,"tags":"ballooning,finland,gasballooning,gordon+bennett,vacations","S2CellId":"536c000000000000","result":6045,"accuracy":0.020899203,"title":"GordonBennett_0609_6_Packup_23"}
{"id":4574480662,"url":"http://farm5.staticflickr.com/4007/4574480662_6193492fa3.jpg","path":"334/1ca/3341ca3c6572bb979becdde848775f8a.jpg","date":"2010-05-03","year":2010,"month":5,"lon":27.271606,"lat":61.69265,"tags":"eos300","S2CellId":"4691000000000000","result":2978,"accuracy":0.050944936,"title":"Rooftops","description":"Canon+EOS+300%0AKodak+ColorPlus+200"}
{"id":3657729730,"url":"http://farm4.staticflickr.com/3376/3657729730_3a8d3c24d5.jpg","path":"7d6/37b/7d637b7f1348cb01b98d61b32cabe5f.jpg","date":"2009-06-24","year":2009,"month":6,"lon":27.243946,"lat":61.70391,"tags":"centrum+ok,finland,jukola,orienteering,orientering","S2CellId":"808f940000000000","result":7049,"accuracy":0.04960914,"title":"A259290+007"}
{"id":526962759,"url":"http://farm2.staticflickr.com/1050/526962759_2bd4f57538.jpg","path":"4b8/bf4/4b8bf447ba9826b0cddd24fffe5a74c.jpg","date":"2006-08-15","year":2006,"month":8,"lon":27.89257,"lat":61.899193,"tags":"finland,tampere,tour,trip,turku","S2CellId":"5140000000000000","result":5964,"accuracy":0.05471547,"title":"IMG_0085.JPG"}
{"id":195930653,"url":"http://farm1.staticflickr.com/65/195930653_c935d06345.jpg","path":"e5d/3c5/e5d3c593b476cb8e5aef028b04aa0ef.jpg","date":"2006-07-23","year":2006,"month":7,"lon":27.270292,"lat":61.688637,"tags":"bluetagged,bt%3D0015a07b0d52,ctxflickr,cumulus,finland,hotel,mikkeli","S2CellId":"880fd2c000000000","result":8164,"accuracy":0.2618409,"title":"20060723T091116"}
{"id":176406750,"url":"http://farm1.staticflickr.com/53/176406750_e4ea5101ee.jpg","path":"318/fcd/318fcd7259de773508acdab5316517.jpg","date":"2006-06-23","year":2006,"month":6,"lon":27.001131,"lat":61.748432,"tags":"finland,hirvij%C3%A4rvi,juhannus,midsummers,suomi","S2CellId":"8819ad0000000000","result":8204,"accuracy":0.039814807,"title":"duck+visitor"}
{"id":526151898,"url":"http://farm2.staticflickr.com/1027/526151898_34bc4d1ee1.jpg","path":"80d/21b/80d21bcd22ab8ff48fc09f86d34864c.jpg","date":"2007-06-02","year":2007,"month":6,"lon":27.293108,"lat":61.69686,"tags":"bluetagged,bt%3D0015a07b0d52,ctxflickr,finland,jaana,jaiku,l%C3%A4hem%C3%A4enkatu,mikkeli,ylioppilasjuhla","S2CellId":"47b4c00000000000","result":4026,"accuracy":0.07235425,"title":"20070602T164818"}
{"id":9028415334,"url":"http://farm3.staticflickr.com/2870/9028415334_8b12c7bc48.jpg","path":"577/7af/5777af5d75cfccb6ecb01f37b4f7c3fc.jpg","date":"2013-06-12","year":2013,"month":6,"lon":27.274244,"lat":61.687786,"tags":"fi,finland,mikkeli,mikkelibilder,sentrum,sydre+savonia,torg","S2CellId":"6d318a3000000000","result":6816,"accuracy":0.05783219,"title":"20130612-IMG_2491.jpg","description":"Kveldstur+i+Mikkeli"}
{"id":434105778,"url":"http://farm1.staticflickr.com/161/434105778_5689e247b7.jpg","path":"929/ab1/929ab1bfa21dc1adb7cfd7764c64ee52.jpg","date":"2007-03-10","year":2007,"month":3,"lon":27.267466,"lat":61.686054,"tags":"ad,eduskuntavaalit,finland,mainos,mikkeli,nuijamiestenkatu,politiikka,vaalit,vasemmistoliitto","S2CellId":"465f840000000000","result":2912,"accuracy":0.005999561,"title":"IMG34109.+Vaalimainontaa","description":"Eduskuntavaalimainoksia+Mikkeliss%C3%A4+Nuijamiestenkadulla."}
{"id":9142188573,"url":"http://farm4.staticflickr.com/3700/9142188573_5f20273d06.jpg","path":"8e7/cf2/8e7cf2db199c28d48a4a48090bbe25.jpg","date":"2013-06-22","year":2013,"month":6,"lon":27.627148,"lat":61.349724,"tags":"finland,juhannus,k%C3%A4rpinranta,lake,purple,silhuette,summer,sunset,suomenniemi","S2CellId":"469c000000000000","result":3042,"accuracy":0.115113385,"title":"Midsummer+lake+view","description":"I+think+everyone+should+have+one+of+these."}
