{"id":2471520204,"url":"http://farm4.staticflickr.com/3077/2471520204_793c5e2a2a.jpg","path":"bed/e23/bede23583c827a3d31b668b4d248cc70.jpg","date":"2008-05-03","year":2008,"month":5,"lon":18.680964,"lat":60.116924,"tags":"sigma+10-20+f%2F4-5,www.firefish.se","S2CellId":"468b000000000000","result":2955,"accuracy":0.02677703}
{"id":8739320830,"url":"http://farm8.staticflickr.com/7285/8739320830_7d5cab74e8.jpg","path":"c41/7fb/c417fbedfe7855cc49a3c964c5fa2d1b.jpg","date":"2013-05-08","year":2013,"month":5,"lon":19.978638,"lat":60.046333,"tags":"%C3%A5land,%E2%80%9D,ahvenanmaa,dendrocopos+major,great+spotted+woodpecker,islands%E2%80%9D,k%C3%A4pytikka,lemland,n%C3%A5t%C3%B6","S2CellId":"89c3700000000000","result":9120,"accuracy":0.03955197,"title":"Dendrocopos+major+-+k%C3%A4pytikka","description":"2013.05.08+N%C3%A5t%C3%B6%2C++Lemland%2C++Finland"}
{"id":5090731126,"url":"http://farm5.staticflickr.com/4106/5090731126_a82fc55f46.jpg","path":"fce/fde/fcefde519699eb4ad168fa56712a5b.jpg","date":"2010-10-17","year":2010,"month":10,"lon":19.925423,"lat":60.090015,"tags":"archipelago,baltic,finland,silja+line","S2CellId":"89d3431000000000","result":9235,"accuracy":0.07783481,"title":"IMG_8219.JPG"}
{"id":2727634531,"url":"http://farm4.staticflickr.com/3012/2727634531_3f592719ae.jpg","path":"592/358/592358bdb2a043f78153a6dde09bdd5a.jpg","date":"2008-07-15","year":2008,"month":7,"lon":20.384745,"lat":60.031994,"tags":"%C3%A5land,ahvenanmaa,canon+eos+450d,degerby,ef-s+18-55mm+f%2F3.5-5.6+is,geodesy,gps,gps+station,outdoors,work","S2CellId":"468b000000000000","result":2955,"accuracy":0.09786029,"title":"Degerby+permanent+GPS+station"}
{"id":9539683688,"url":"http://farm8.staticflickr.com/7344/9539683688_b4e2110271.jpg","path":"847/0f9/8470f912d029bc9f203c26dd79e1cbc.jpg","date":"2013-08-06","year":2013,"month":8,"lon":20.823532,"lat":60.03656,"tags":"%C3%A5land,finland,folk+music,k%C3%B6kar,kyrkog%C3%A5rds%C3%B6,music+camp","S2CellId":"48cf000000000000","result":5786,"accuracy":0.0594577,"title":"DSC_0224"}
{"id":3281891046,"url":"http://farm4.staticflickr.com/3658/3281891046_d39dd62878.jpg","path":"17e/e6d/17ee6da42cf5faa19184e4aff2cf7376.jpg","date":"2009-02-15","year":2009,"month":2,"lon":19.937138,"lat":60.10298,"tags":"%D0%B0%D0%BB%D0%B0%D0%BD%D1%81%D0%BA%D0%B8%D0%B5,%D0%BB%D0%B5%D1%82%D0%BE,%D0%BC%D0%B0%D1%80%D0%B8%D0%B5%D1%85%D0%B0%D0%BC%D0%BD,%D0%BE%D1%81%D1%82%D1%80%D0%BE%D0%B2%D0%B0,%D1%88%D0%B2%D0%B5%D1%86%D0%B8%D1%8F,aland,islands,mariehamn,summer,sweden","S2CellId":"47b3100000000000","result":4017,"accuracy":0.01701771,"title":"%D0%90%D0%BB%D0%B0%D0%BD%D1%81%D0%BA%D0%B8%D0%B5+%D0%BE-%D0%B2%D0%B0%2C+%D0%A8%D0%B2%D0%B5%D1%86%D0%B8%D1%8F+%2F+Aland+islands%2C+Sweden"}
{"id":4790498467,"url":"http://farm5.staticflickr.com/4140/4790498467_974bf0bfa4.jpg","path":"fc4/57e/fc457ee0c1593834b8576040bbfb144.jpg","date":"2010-07-08","year":2010,"month":7,"lon":18.64543,"lat":60.137444,"tags":"beach,herr%C3%A4ng,ocean,sunset,sweden","S2CellId":"467c000000000000","result":2949,"accuracy":0.034239694,"title":"Another+Herr%C3%A4ng+sunset","description":"Another+picture+taken+at+the+beach+in+Herr%C3%A4ng%2C+Sweden."}
{"id":7320311846,"url":"http://farm9.staticflickr.com/8161/7320311846_a91a852eed.jpg","path":"425/d44/425d44ad6a09b3e16c3587c3fc157dd.jpg","date":"2012-06-02","year":2012,"month":6,"lon":19.942865,"lat":60.102192,"tags":"%C3%A5land,5d,among,canon,cards,challenge,chips,dealers,estonia,event,finland,friends,gambling,game,lightroom,live,mariehamn,paf,play,players,poker,sweden","S2CellId":"88e77e4000000000","result":8673,"accuracy":0.16145012,"title":"Paf+Poker+Challenge","description":"Day+two+of+Paf+Poker+Challenge+at+Alandica+in+Mariehamn%2C+%C3%85land%2C+Finland.+June+1-3+2012.+Photo+credit%3A+Rob+Watkins%2FPaf%0A%0ACome+and+visit+us+at%3A+%3Ca+href%3D%22http%3A%2F%2Fwww.paf.com%22+rel%3D%22nofollow%22%3Ewww.paf.com%3C%2Fa%3E"}
{"id":4753523516,"url":"http://farm5.staticflickr.com/4114/4753523516_a11fb5e6f5.jpg","path":"59e/434/59e434b4272f1778ef9565b6126a16b.jpg","date":"2010-07-01","year":2010,"month":7,"lon":19.946209,"lat":60.100185,"tags":"%C3%A5land,baltic+sea,clouds,pier,sea,yacht","S2CellId":"48865c0000000000","result":5688,"accuracy":0.028907016,"title":"Yachts"}
{"id":8680208009,"url":"http://farm9.staticflickr.com/8113/8680208009_b0a5583b69.jpg","path":"874/7fe/8747fe4d50b7ea82646747d1dd6e2eb.jpg","date":"2013-04-25","year":2013,"month":4,"lon":19.942513,"lat":60.099316,"tags":"%C3%A5land,arkipelag,challenge,event,finland,hotel,live,mariehamn,paf,poker,pokeri,suomi","S2CellId":"12c9100000000000","result":838,"accuracy":0.018178843,"title":"Paf+Poker+Challenge+2013%3A+Day+One","description":"Action+from+the+first+session+on+day+one+at+Paf+Poker+Challenge+2013+at+Hotel+Arkipelag+and+Paf+Casino+in+Marihamn%2C+%C3%85land.+April+25+2013.+Photograph%3A+Rob+Watkins%2FPaf"}
{"id":7314849860,"url":"http://farm9.staticflickr.com/8018/7314849860_0ee82b217c.jpg","path":"bd9/bab/bd9bab278b49c7a6c3b9ed57b2404c25.jpg","date":"2012-06-01","year":2012,"month":6,"lon":19.942865,"lat":60.102192,"tags":"%C3%A5land,5d,among,canon,cards,challenge,chips,dealers,estonia,event,finland,friends,gambling,game,lightroom,live,mariehamn,paf,play,players,poker,sweden","S2CellId":"52ea710000000000","result":6008,"accuracy":0.044198126,"title":"Paf+Poker+Challenge","description":"Boxing+star+Robert+Helenius+at+Paf+Poker+Challenge+at+Alandica+in+Mariehamn%2C+%C3%85land%2C+Finland.+June+1-3+2012.+Photo+credit%3A+Rob+Watkins%2FPaf%0A%0ACome+and+visit+us+at%3A+%3Ca+href%3D%22http%3A%2F%2Fwww.paf.com%22+rel%3D%22nofollow%22%3Ewww.paf.com%3C%2Fa%3E"}
{"id":3897323646,"url":"http://farm4.staticflickr.com/3495/3897323646_1bcbc593ba.jpg","path":"4c2/4ef/4c24ef7a357ab888cab527c54074999e.jpg","date":"2009-09-06","year":2009,"month":9,"lon":18.806812,"lat":60.09597,"tags":"2009,52+1%2F2+of+2009,cc,creative+commons,enbrabild,grisslehamn,kapsel,kh-67,kicki,kryptogam,kryptogamer,macro,makro,moss,mossa,roslagen,schweden,sk%C3%A4rg%C3%A5rd,sk%C3%A4rg%C3%A5rden,sol,solljus,solstr%C3%A5lar,spor,sporkapsel,sun,sunlight,svenska+amat%C3%B6rfotografer,sverige,sweden,uppland,v%C3%A4dd%C3%B6,week+%2336","S2CellId":"465a400000000000","result":2886,"accuracy":0.0047460957,"title":"Week+%2336%3A+Macro","description":"%3Ca+href%3D%22http%3A%2F%2Fwww.flickr.com%2Fgroups%2F52of2009%22%3E52%C2%BD+weeks+of+2009%3C%2Fa%3E%0A%0A%3Ca+href%3D%22http%3A%2F%2Fbighugelabs.com%2Fonblack.php%3Fid%3D3897323646%26size%3Dlarge%22+rel%3D%22nofollow%22%3EView+On+Black%3C%2Fa%3E"}
{"id":5845755376,"url":"http://farm3.staticflickr.com/2448/5845755376_9c7158b983.jpg","path":"de6/b4a/de6b4a8f1fbb273c8c0d7808fdd4b36.jpg","date":"2011-06-12","year":2011,"month":6,"lon":18.470915,"lat":60.345543,"tags":"barbed,cows,d7000,ear,grass,nikon,roslagen,sweden,tamronspaf1750mmf28diiild,wire","S2CellId":"80dbf40000000000","result":7322,"accuracy":0.013630268,"title":"0282","description":"Gr%C3%A4s%C3%B6%2C+taken+while+on+the+run+from+moscitos%0A%0A%0ASome+of+the+first+pictures+taken+with+my+Tamron+17-50+lens"}
{"id":7314833442,"url":"http://farm8.staticflickr.com/7072/7314833442_358bc430fd.jpg","path":"e05/133/e051330d5e2e9d915e6278855aed78.jpg","date":"2012-06-01","year":2012,"month":6,"lon":19.942865,"lat":60.102192,"tags":"%C3%A5land,5d,among,canon,cards,challenge,chips,dealers,estonia,event,finland,friends,gambling,game,lightroom,live,mariehamn,paf,play,players,poker,sweden","S2CellId":"6b91040000000000","result":6747,"accuracy":0.05405452,"title":"Paf+Poker+Challenge","description":"Swedish+TV+personality+Rickard+Olsson+during+Paf+Poker+Challenge+at+Alandica+in+Mariehamn%2C+%C3%85land%2C+Finland.+June+1-3+2012.+Photo+credit%3A+Rob+Watkins%2FPaf%0A%0ACome+and+visit+us+at%3A+%3Ca+href%3D%22http%3A%2F%2Fwww.paf.com%22+rel%3D%22nofollow%22%3Ewww.paf.com%3C%2Fa%3E"}
{"id":7858588586,"url":"http://farm8.staticflickr.com/7136/7858588586_e11a5f9e9f.jpg","path":"93a/420/93a420add4cdc7c175835355b27be3b.jpg","date":"2012-08-25","year":2012,"month":8,"lon":18.1805,"lat":60.401165,"tags":"forsmark,svezia,sweden","S2CellId":"4440000000000000","result":2748,"accuracy":0.03068737,"title":"Forsmark+1+and+2"}
{"id":4619679548,"url":"http://farm4.staticflickr.com/3358/4619679548_440779de19.jpg","path":"298/317/2983178650f02317e3933298a78bb96.jpg","date":"2010-05-15","year":2010,"month":5,"lon":19.927128,"lat":60.097954,"tags":"a%CC%8Acon,a%CC%8Acon4,geoff+ryman","S2CellId":"6b91040000000000","result":6747,"accuracy":0.049915347,"title":"Geoff+in+a+beautiful+shirt"}
{"id":8681739648,"url":"http://farm9.staticflickr.com/8523/8681739648_f2620a96f6.jpg","path":"ea8/a7d/ea8a7d9f21929f057f88b887fcc9d7f.jpg","date":"2013-04-25","year":2013,"month":4,"lon":19.942513,"lat":60.099316,"tags":"arkipelag,casino,challenge,event,hotel,live,mariehamn,paf,players,poker,ppc","S2CellId":"8740300000000000","result":7807,"accuracy":0.11621522,"title":"Paf+Poker+Challenge+2013%3A+Day+One","description":"The+Ladies+Event+begins.+Action+from+the+second+session+on+day+one+at+Paf+Poker+Challenge+2013+at+Hotel+Arkipelag+and+Paf+Casino+in+Marihamn%2C+%C3%85land.+April+25+2013.+Photograph%3A+Rob+Watkins%2FPaf"}
{"id":12840475203,"url":"http://farm8.staticflickr.com/7299/12840475203_d89054d117.jpg","path":"fe9/dc4/fe9dc4efe6b6991a6c269ea6d80f4.jpg","date":"2013-07-25","year":2013,"month":7,"lon":18.52063,"lat":62.972008,"tags":"calico,canon+ef+70-200+mm+f%2F2.8l+is+ii+usm,canon+eos+5d+mark+iii,cat,katt,mia,norrf%C3%A4llsviken,not+my+cat,sverige,sweden,v%C3%A4sternorrlands+l%C3%A4n","S2CellId":"48d3000000000000","result":5788,"accuracy":0.029724548,"title":"Calico+Cat","description":"X13811."}
{"id":2728462100,"url":"http://farm4.staticflickr.com/3001/2728462100_9b284ffc6f.jpg","path":"ddc/e8a/ddce8a4860e9ec1dd43a51116ee497a0.jpg","date":"2008-07-16","year":2008,"month":7,"lon":19.840279,"lat":60.391598,"tags":"%C3%A5land,ahvenanmaa,canon+eos+450d,ef-s+18-55mm+f%2F3.5-5.6+is,geology,geta,pirunpelto,rocks","S2CellId":"4440000000000000","result":2748,"accuracy":0.100195535,"title":"Pirunpelto","description":"%3Cem%3EPirunpelto%3C%2Fem%3E+%28meaning+%22the+Devil%27s+field%22%29+is+a+name+for+a+rocky+area+such+as+this.+They+are+usually+found+in+coastal+areas.+They+are+formed+when+the+sea+sorts+the+soil+on+the+bottom+so+that+rocks+of+fairly+uniform+size+remain+in+the+same+place.+Later+the+sea+recedes+because+of+land+uplift+and+the+rocks+remain.+The+rock+field+can+be+several+meters+deep+and+plants%2C+aside+from+lichen+and+moss%2C+do+not+grow+easily.+The+rock+fields+can+remain+barren+for+thousands+of+years.+%0A%0ASome+of+the+largest+rock+fields+in+Finland+are+on+%C3%85land.+This+one+was+just+one+of+several+impressive+geological+features+along+the+nature+trail+that+starts+at+Getaberget."}
{"id":4761468076,"url":"http://farm5.staticflickr.com/4114/4761468076_15c987c5c4.jpg","path":"5cf/b98/5cfb981015a7f2e7d9c2af8b33a71890.jpg","date":"2010-07-02","year":2010,"month":7,"lon":19.882416,"lat":60.02933,"tags":"%C3%A5land,granite,grass,kobbaklintar,storlandet","S2CellId":"464f900000000000","result":2827,"accuracy":0.15739334,"title":"Stones+are+full+of+life"}
{"id":7694095468,"url":"http://farm9.staticflickr.com/8294/7694095468_e8a34019f8.jpg","path":"4ae/641/4ae641d3f56a3e2d6cc937be686fba.jpg","date":"2012-07-28","year":2012,"month":7,"lon":19.950098,"lat":60.096542,"tags":"%C3%A5land,%C3%A5land+isles,ahvenanmaa,maarianhamina,mariehamn","S2CellId":"80d9549000000000","result":7295,"accuracy":0.006613361,"title":"Tail+of+a+peacock"}
{"id":697132108,"url":"http://farm2.staticflickr.com/1439/697132108_a1d182c5bf.jpg","path":"af7/a71/af7a7113c75cf88276392e2ccee8636.jpg","date":"2007-07-02","year":2007,"month":7,"lon":18.80812,"lat":60.10449,"tags":"mobilen","S2CellId":"46b3000000000000","result":3046,"accuracy":0.024217794,"title":"IMAGE_070.jpg"}
{"id":8626489422,"url":"http://farm9.staticflickr.com/8119/8626489422_bdf963c936.jpg","path":"bef/591/bef591a67934efb87cb6d2ecb81f29.jpg","date":"2013-04-06","year":2013,"month":4,"lon":20.235485,"lat":60.214493,"tags":"%C3%A5land,among,bingo,friends,let%27s+bingo,paf,play,play+among+friends","S2CellId":"46920f0000000000","result":3001,"accuracy":0.026126532,"title":"Paf+Let%27s+Bingo+2013","description":"A+sightseeing+tour+of+%C3%85land+for+the+140+Paf+friends+attending+Paf+Let%27s+Bingo+2013%2C+April+6+2013.+Photograph%3A+Rob+Watkins%2FPaf"}
{"id":871915268,"url":"http://farm2.staticflickr.com/1343/871915268_3eb1acce85.jpg","path":"57c/e1f/57ce1f4b3a1c02668c22af7ad4bd9.jpg","date":"2007-07-18","year":2007,"month":7,"lon":18.646244,"lat":60.12836,"tags":"2007,camp,dance,frankie+manning,herrang,lindy+hop,sweden,swing,week+3","S2CellId":"8833c00000000000","result":8303,"accuracy":0.020612812,"title":"Birthday+dance","description":"A+lucky+lady+got+a+birthday+dance+with+Chazz+Young+and+Frankie+Manning"}
{"id":8680629905,"url":"http://farm9.staticflickr.com/8263/8680629905_653966d0d7.jpg","path":"1fd/6d0/1fd6d0032534e3ffdf2c1d8f141db.jpg","date":"2013-04-25","year":2013,"month":4,"lon":19.942513,"lat":60.099316,"tags":"arkipelag,casino,challenge,event,hotel,live,mariehamn,paf,players,poker,ppc,ppc2013","S2CellId":"8875000000000000","result":8503,"accuracy":0.03871875,"title":"Paf+Poker+Challenge+2013%3A+Day+One","description":"The+Ladies+Event+begins.+Action+from+the+second+session+on+day+one+at+Paf+Poker+Challenge+2013+at+Hotel+Arkipelag+and+Paf+Casino+in+Marihamn%2C+%C3%85land.+April+25+2013.+Photograph%3A+Rob+Watkins%2FPaf"}
{"id":7635810022,"url":"http://farm8.staticflickr.com/7130/7635810022_c0179017b5.jpg","path":"ff3/293/ff329379bef6548f8138953f137069f2.jpg","date":"2012-07-24","year":2012,"month":7,"lon":18.647404,"lat":60.127956,"tags":"band,dance,herrang,hop,lindy,lindyhop,swing,swingdance","S2CellId":"07161c0000000000","result":88,"accuracy":0.04087011,"title":"Herr%C3%A4ng+Dance+Camp+2012+-+Week+4","description":"Monday+Night+with+Carling+Family"}
{"id":1031552490,"url":"http://farm2.staticflickr.com/1345/1031552490_853bd96b01.jpg","path":"63a/6b8/63a6b8158f28ab4166ebbcb5f2494034.jpg","date":"2007-08-01","year":2007,"month":8,"lon":18.781214,"lat":60.11329,"tags":"hobie+cat,sailing","S2CellId":"48718b0000000000","result":5052,"accuracy":0.09093482,"title":"Grisslehamn+053"}
{"id":1342061670,"url":"http://farm2.staticflickr.com/1077/1342061670_01b7123781.jpg","path":"d0b/b6f/d0bb6fce3e2ae11933fce968177b098.jpg","date":"2007-06-17","year":2007,"month":6,"lon":19.927225,"lat":60.131157,"tags":"%C3%A5land,sunrise","S2CellId":"12a6b00000000000","result":765,"accuracy":0.035827257,"title":"Sunrise+on+%C3%85land","description":"I+was+up+one+night+and+decided+to+watch+the+exact+sunrise.+It+was+nice."}
{"id":5574463178,"url":"http://farm6.staticflickr.com/5052/5574463178_419a55a7eb.jpg","path":"1b7/97c/1b797cb382d302efc1f30391a2d7b86.jpg","date":"2011-03-27","year":2011,"month":3,"lon":18.169691,"lat":60.178955,"tags":"cold,gimo,gimo+dam,gimo+damm,ice,uppland,winter","S2CellId":"46920f0000000000","result":3001,"accuracy":0.13017373,"title":"Gimo+Damm"}
{"id":10024245036,"url":"http://farm3.staticflickr.com/2871/10024245036_e391fdd4bd.jpg","path":"c57/939/c579398f26879a895c260b056a55a.jpg","date":"2013-07-24","year":2013,"month":7,"lon":18.280209,"lat":62.9961,"tags":"sverige,v%C3%A4sternorrlands+l%C3%A4n","S2CellId":"882b34bc00000000","result":8248,"accuracy":0.021245413,"title":"The+billiard+%40+Sals%C3%A5ker","description":"X13461."}
{"id":7494596034,"url":"http://farm9.staticflickr.com/8423/7494596034_73db47fec0.jpg","path":"468/797/4687972c6728f7155a22d4c368d977ef.jpg","date":"2012-07-03","year":2012,"month":7,"lon":19.543839,"lat":60.220406,"tags":"instagram+app,iphoneography,square,square+format,walden","S2CellId":"5488c00000000000","result":6153,"accuracy":0.04741789,"title":"%23sand+%23sea+%23beach"}
{"id":4798544047,"url":"http://farm5.staticflickr.com/4101/4798544047_7ea60f4096.jpg","path":"e42/439/e42439e1b477e21cac8d503b397fa161.jpg","date":"2010-07-12","year":2010,"month":7,"lon":19.77472,"lat":60.332554,"tags":"%C3%A5land,archipelago,camping,espholmen,finland,finstr%C3%B6m,geta,hammarland,kayak,northern,summer","S2CellId":"2300000000000000","result":1490,"accuracy":0.117136545,"title":"Camp+%26+Jonathan","description":"This+is+the+center+of+the+peninsula%2C+where+our+camp+was.The+one+grinning+in+the+middle+is+Jonathan%2C+ho+I+went+camping+with."}
{"id":712842579,"url":"http://farm2.staticflickr.com/1175/712842579_eb1cde2868.jpg","path":"bb1/810/bb1810f6986f317a7a8ae879d6188d99.jpg","date":"2007-07-03","year":2007,"month":7,"lon":18.4373,"lat":60.337933,"tags":"%C3%B6regrund,2007,flora,hotell,jul","S2CellId":"89d5400000000000","result":9263,"accuracy":0.010363015,"title":"Cheesecake"}
{"id":9449038833,"url":"http://farm6.staticflickr.com/5344/9449038833_b692ffb804.jpg","path":"872/c87/872c87433fc56154b2c310e5222f727b.jpg","date":"2013-08-06","year":2013,"month":8,"lon":18.805782,"lat":60.09819,"tags":"grisslehamn","S2CellId":"464cc00000000000","result":2821,"accuracy":0.0069991057}
{"id":9251237373,"url":"http://farm3.staticflickr.com/2806/9251237373_a40482864c.jpg","path":"824/eb8/824eb897d5e75c5f9c7f2c816f8c55.jpg","date":"2013-07-07","year":2013,"month":7,"lon":18.436333,"lat":60.3415,"tags":"ingalill","S2CellId":"4691000000000000","result":2978,"accuracy":0.11050611,"title":"Dax+att+kv%C3%A4llspaddla"}
{"id":6211878881,"url":"http://farm7.staticflickr.com/6219/6211878881_9b67f3cfe9.jpg","path":"c6d/fe0/c6dfe0baaf35edab54b47853231691bc.jpg","date":"2011-10-02","year":2011,"month":10,"lon":18.574104,"lat":60.202724,"tags":"places,raggar%C3%B6n,sverige,sweden,uppland","S2CellId":"46f5000000000000","result":3113,"accuracy":0.053046543,"title":"A+gray+sundayafternoon+in+Roslagen"}
{"id":7858469528,"url":"http://farm9.staticflickr.com/8444/7858469528_7a86d3c608.jpg","path":"121/3bd/1213bd8a2cc8c5a48fee13617cb53.jpg","date":"2012-08-25","year":2012,"month":8,"lon":18.153833,"lat":60.370167,"tags":"forsmark,svezia,sweden","S2CellId":"4659400000000000","result":2884,"accuracy":0.017078338,"title":"Forsmark"}
{"id":196817378,"url":"http://farm1.staticflickr.com/64/196817378_6541c3e456.jpg","path":"85d/183/85d183446a758c7e5d3b1385cca172d.jpg","date":"2006-07-19","year":2006,"month":7,"lon":18.437634,"lat":60.340923,"tags":"sweden","S2CellId":"89e3300000000000","result":9307,"accuracy":0.11550117,"title":"%C3%96regrund+Sunset"}
{"id":6009388162,"url":"http://farm7.staticflickr.com/6128/6009388162_cd451c56d8.jpg","path":"ed1/a20/ed1a2037f96c23e41e8761948f4feaea.jpg","date":"2011-07-30","year":2011,"month":7,"lon":20.169268,"lat":60.346573,"tags":"%C3%A5land,aland,finland,summer","S2CellId":"468b000000000000","result":2955,"accuracy":0.2153968,"title":"Sea+and+rocks"}
{"id":8105803258,"url":"http://farm9.staticflickr.com/8051/8105803258_31b5dfd228.jpg","path":"462/8ce/4628cec5744024fc98cba5a2c274765.jpg","date":"2012-10-20","year":2012,"month":10,"lon":19.942513,"lat":60.099316,"tags":"%C3%A5land,2012,among,arkipelag,betting,championship,finland,friends,gambling,live,mariehamn,paf,play","S2CellId":"808f770000000000","result":7015,"accuracy":0.0276592,"title":"Paf+Live+Betting+Championship","description":"Paf+friends+take+part+in+the+Paf+Live+Betting+Championship+at+Arkipelag%2C+Mariehamn%2C+%C3%85land%2C+Finland.+October+20+2012.+Photograph%3A+Rob+Watkins%2FPaf"}
{"id":871056763,"url":"http://farm2.staticflickr.com/1042/871056763_1891444273.jpg","path":"972/16a/97216a2b9ca38dbdd350df35c5d7572.jpg","date":"2007-07-19","year":2007,"month":7,"lon":18.646244,"lat":60.12836,"tags":"2007,bar+bedlam,camp,dance,herrang,lindy+hop,sweden,swing,week+3","S2CellId":"8819ad0000000000","result":8204,"accuracy":0.003869504,"title":"Bar+Bedlam"}
{"id":10645568726,"url":"http://farm4.staticflickr.com/3795/10645568726_feae4d991a.jpg","path":"726/46e/72646ea2b8caaf9346f0ac2bb8efba.jpg","date":"2013-07-16","year":2013,"month":7,"lon":18.643164,"lat":60.1368,"tags":"stockholm+county,sweden","S2CellId":"486ef00000000000","result":4977,"accuracy":0.011524477,"title":"2013_07_Herrang_446"}
{"id":9837330454,"url":"http://farm8.staticflickr.com/7359/9837330454_e552b4308e.jpg","path":"16d/fd6/16dfd6e3857ccc27d0b59cee76868e2.jpg","date":"2013-07-23","year":2013,"month":7,"lon":18.523582,"lat":62.97469,"tags":"b%C3%A5t,b%C3%A5thus,boat,canon+ef+70-200+mm+f%2F2.8l+is+ii+usm,canon+eos+5d+mark+iii,h%C3%B6ga+kusten,hav,norrf%C3%A4llsviken,sea,sj%C3%B6bod,sverige,sweden,v%C3%A4sternorrlands+l%C3%A4n","S2CellId":"463f000000000000","result":2783,"accuracy":0.08889079,"title":"Norrf%C3%A4llsviken","description":"X12971-73.+Vertorama"}
{"id":7281422182,"url":"http://farm8.staticflickr.com/7236/7281422182_7429fe548d.jpg","path":"c22/a81/c22a81b8a58e21060f73f66bc605d8d.jpg","date":"2012-05-26","year":2012,"month":5,"lon":18.073282,"lat":62.71855,"tags":"cold+war,cultural+heritage,d80,fortress,galge,h%C3%A4rn%C3%B6sand,hanger,hemliga+rum,hems%C3%B6,hems%C3%B6+f%C3%A4stning,heritage,history,kulturarv,nikon,nikon+d80,nuclear+war,secret,sfv,sigma,sigma+10-20mm,statens+fastighetsverk,sweden,war+history","S2CellId":"808fcb0000000000","result":7069,"accuracy":0.008173479,"title":"Hems%C3%B6+f%C3%A4stning","description":"Built+to+protect+320+men+from+nuclear+war+during+the+cold+war.+One+of+the+coolest+places+I+have+ever+visited.%0A%0A%3Ca+href%3D%22http%3A%2F%2Fwww.sfv.se%2Fcms%2Findex.html%22+rel%3D%22nofollow%22%3Ewww.sfv.se%2Fcms%2Findex.html%3C%2Fa%3E%0A%3Ca+href%3D%22http%3A%2F%2Fhemligarum.se%2F%22+rel%3D%22nofollow%22%3Ehemligarum.se%2F%3C%2Fa%3E%0A%3Ca+href%3D%22http%3A%2F%2Fwww.hemsofastning.se%2F%22+rel%3D%22nofollow%22%3Ewww.hemsofastning.se%2F%3C%2Fa%3E%0A%3Ca+href%3D%22http%3A%2F%2Fsv.wikipedia.org%2Fwiki%2FHems%25C3%25B6_f%25C3%25A4stning%22+rel%3D%22nofollow%22%3Esv.wikipedia.org%2Fwiki%2FHems%25C3%25B6_f%25C3%25A4stning%3C%2Fa%3E"}
