{"id":4700135988,"url":"http://farm5.staticflickr.com/4053/4700135988_45e4da38ac.jpg","path":"ae4/b2d/ae4b2d466035badf61ec23d975b1b315.jpg","date":"2010-05-27","year":2010,"month":5,"lon":120.89441,"lat":30.951996,"tags":"%E4%B8%8A%E6%B5%B7,%E8%A5%BF%E5%A1%98,shanghai","S2CellId":"3143000000000000","result":1758,"accuracy":0.047621865,"title":"2010-05-27+%E4%B8%8A%E6%B5%B7%E4%B8%96%E5%8D%9A%E8%A1%8C+Day6+%E8%A5%BF%E5%A1%98+%2811%29"}
{"id":493418859,"url":"http://farm1.staticflickr.com/203/493418859_c45aacf5e0.jpg","path":"645/5c6/6455c63aae837ec935be98887d481532.jpg","date":"2007-05-04","year":2007,"month":5,"lon":120.12245,"lat":30.249577,"tags":"tour","S2CellId":"344b000000000000","result":2104,"accuracy":0.5628103,"title":"%E7%85%A7%E7%89%87+181"}
{"id":11729650285,"url":"http://farm3.staticflickr.com/2806/11729650285_755ef80cc8.jpg","path":"757/62d/75762dd2a7c8b2e8a3f66f42a44e4724.jpg","date":"2014-01-03","year":2014,"month":1,"lon":120.104095,"lat":30.285149,"tags":"instagram+app,iphoneography,square,square+format,valencia","S2CellId":"89d5400000000000","result":9263,"accuracy":0.009358822,"title":"%E7%9B%B8%E4%BC%A0%E6%9F%90%E4%BC%9F%E4%BA%BA%E6%9C%80%E7%88%B1%E7%9A%84%E6%B9%98%E8%8F%9C%EF%BC%8C%E5%85%B6%E5%AE%9E%E4%B8%AB%E4%B8%89%E5%B9%B4%E8%87%AA%E7%84%B6%E7%81%BE%E5%AE%B3%E6%97%B6%E6%9C%9F%E9%83%BD%E5%90%83%E8%BF%9B%E5%8F%A3%E7%8E%A9%E6%84%8F%E5%84%BF%E3%80%82%23hunanfood"}
{"id":2097408135,"url":"http://farm3.staticflickr.com/2255/2097408135_2519325187.jpg","path":"7de/44f/7de44f42a2756957edd7a584815224.jpg","date":"2007-12-08","year":2007,"month":12,"lon":120.4735,"lat":30.753332,"tags":"blogbus,weiwuhui,wuzhen","S2CellId":"808fb74000000000","result":7058,"accuracy":0.04789008,"title":"blogbus%27+5th+birthday"}
{"id":397442685,"url":"http://farm1.staticflickr.com/150/397442685_cf53170678.jpg","path":"c8c/2ed/c8c2ed228827a813e8e5cef167d780c.jpg","date":"2007-02-21","year":2007,"month":2,"lon":120.154724,"lat":30.257437,"tags":"%E4%B8%AD%E5%9B%BD,%E6%9D%AD%E5%B7%9E,china,hangzhou","S2CellId":"35f0510000000000","result":2366,"accuracy":0.25513142,"title":"West+Lake+tourist+boat"}
{"id":5201363220,"url":"http://farm5.staticflickr.com/4086/5201363220_5d320fdb4b.jpg","path":"f69/d5a/f69d5a414b695dcfd84e2d3a4b8e3585.jpg","date":"2010-09-07","year":2010,"month":9,"lon":120.539246,"lat":30.793755,"tags":"china,xina","S2CellId":"bc50000000000000","result":9959,"accuracy":0.022837218,"title":"la+er%C3%B3tica+de+las+cosas","description":"Jarras+de+licor+de+arroz+destilado+en+Wuzhen+%28Zhejiang%2C+Xina%29.+M%C3%A1s+o+menos%2C+orujo."}
{"id":468066227,"url":"http://farm1.staticflickr.com/174/468066227_307c984de2.jpg","path":"4bd/f76/4bdf76eb98ce61444d0b71e5b1e585.jpg","date":"2007-04-15","year":2007,"month":4,"lon":120.53787,"lat":30.034622,"tags":"china,cooking,kettle,shaoxing,tea,tea+kettle,zhejiang","S2CellId":"3109514000000000","result":1694,"accuracy":0.01967454,"title":"Pot+%27o+Tea","description":"They+have+these+little+cauldren+things+with+tea+kettles+and+those+round+honey-comb+like+clay+bricks.+They+are+for+cooking%2C+i%27m+not+exactly+sure+how+you+use+them+but+they+are+all+ove+the+place%2C+even+in+the+hallway+and+stairwell+in+my+building."}
{"id":5624689136,"url":"http://farm6.staticflickr.com/5142/5624689136_90c5d2ddc2.jpg","path":"d1c/199/d1c19960eee9194e415b7530e9f2775.jpg","date":"2009-07-09","year":2009,"month":7,"lon":120.12934,"lat":30.251024,"tags":"%E4%B8%AD%E5%9C%8B,%E6%97%85%E9%81%8A,20090709_tsaiid,china,travel","S2CellId":"344b000000000000","result":2104,"accuracy":0.07399139,"title":"%E5%80%92%E5%BD%B1+%40+%E6%9B%B2%E9%99%A2%E9%A2%A8%E8%8D%B7"}
{"id":9925104974,"url":"http://farm3.staticflickr.com/2861/9925104974_b1334cc58e.jpg","path":"39a/3df/39a3df30c39b9d1e35c27025d42c6f7e.jpg","date":"2013-09-21","year":2013,"month":9,"lon":120.4855,"lat":30.748455,"tags":"flutez","S2CellId":"35b3400000000000","result":2354,"accuracy":0.5645422,"title":"DSC01683"}
{"id":260687916,"url":"http://farm1.staticflickr.com/110/260687916_6c349f088a.jpg","path":"d25/78c/d2578cff505d2bf85c8ae418f2caefc.jpg","date":"2006-10-04","year":2006,"month":10,"lon":120.13893,"lat":30.268852,"tags":"%E6%9D%AD%E5%B7%9E,%E6%9D%AD%E5%B7%9E%E5%B8%82%E8%A5%BF%E6%BA%AA%E5%8C%BA,+china,hangzhou","S2CellId":"3135abb000000000","result":1746,"accuracy":0.02724032,"title":"Hangzhou+CHINA","description":"just+out+of+my+kitchen+window.+2005"}
{"id":3840258872,"url":"http://farm3.staticflickr.com/2538/3840258872_a47d68bfc2.jpg","path":"ae3/c36/ae3c36a1fab655d7232e20731ec45916.jpg","date":"2009-08-17","year":2009,"month":8,"lon":120.13238,"lat":30.275291,"tags":"2009,china,hangzhou,travel","S2CellId":"80c8c5d000000000","result":7249,"accuracy":0.009045532,"title":"el20090817009","description":"My+service+appartment+at+the+Oakwood"}
{"id":7240164908,"url":"http://farm8.staticflickr.com/7092/7240164908_afe93f6e15.jpg","path":"c58/4e8/c584e8bc5c4e40d7cc4bcebecd7ccd9.jpg","date":"2012-05-18","year":2012,"month":5,"lon":120.16571,"lat":30.24839,"tags":"%E8%83%B6%E7%89%87,200,35sp,fuji,olympus","S2CellId":"346eb00000000000","result":2224,"accuracy":0.011314712,"title":"000023","description":"%E6%96%B0%E4%B9%B0%E7%9A%84+olympus+35SP+%E6%97%81%E8%BD%B4+%E8%AF%95%E6%8B%8D%E5%8D%B7"}
{"id":493409901,"url":"http://farm1.staticflickr.com/207/493409901_0f2c307501.jpg","path":"321/64a/32164a9cdd91b7ea806b4be81e6e4c48.jpg","date":"2007-05-04","year":2007,"month":5,"lon":120.12245,"lat":30.249577,"tags":"tour","S2CellId":"344b000000000000","result":2104,"accuracy":0.43232965,"title":"%E7%85%A7%E7%89%87+127"}
{"id":4310541892,"url":"http://farm3.staticflickr.com/2690/4310541892_172010d08a.jpg","path":"478/d45/478d45cbe9fc97ed62d653c36c8e1ca8.jpg","date":"2010-01-09","year":2010,"month":1,"lon":120.15916,"lat":30.242105,"tags":"china","S2CellId":"40f5000000000000","result":2715,"accuracy":0.098860614,"title":"100_4021","description":"%3F%3F%3F%3F%28%3F%3F%3F%29%2C+204%3F+S+Mountain+Rd"}
{"id":5942785319,"url":"http://farm7.staticflickr.com/6140/5942785319_c4c7e3211a.jpg","path":"257/382/25738221d8275bd5bbc4c3ad850152f.jpg","date":"2011-07-16","year":2011,"month":7,"lon":120.09765,"lat":30.243551,"tags":"%E9%A3%9E%E6%9D%A5%E5%B3%B0","S2CellId":"89b7b79100000000","result":8856,"accuracy":0.0073419902,"title":"P1080824.JPG"}
{"id":2730024377,"url":"http://farm4.staticflickr.com/3016/2730024377_9306384a82.jpg","path":"91d/719/91d719f6792aa3871224810d06fd28c.jpg","date":"2008-07-01","year":2008,"month":7,"lon":120.168884,"lat":30.251207,"tags":"china,hangzhou,kyle+long,kyle+taylor,west+lake","S2CellId":"344b000000000000","result":2104,"accuracy":0.1314967,"title":"Hangzhou+-+04.JPG"}
{"id":419682502,"url":"http://farm1.staticflickr.com/169/419682502_ee184f0d0b.jpg","path":"c67/c59/c67c59fed4279f9473c82bf7921782c.jpg","date":"2007-03-10","year":2007,"month":3,"lon":120.144936,"lat":30.247946,"tags":"%E8%8C%83%E5%AD%9F%E4%BA%9A%E6%9F%AF,jakob,jakob.montrasio.net,montrasio","S2CellId":"344b000000000000","result":2104,"accuracy":0.06493883,"title":"Hangzhou"}
{"id":3607798407,"url":"http://farm3.staticflickr.com/2463/3607798407_4fb9a01fc1.jpg","path":"9ba/036/9ba03668eb7f0fd3a4f1040c11d177.jpg","date":"2009-06-04","year":2009,"month":6,"lon":120.116,"lat":30.28407,"tags":"alibaba,hangzhou,taobao","S2CellId":"3541900000000000","result":2257,"accuracy":0.018247694,"title":"taobao"}
{"id":7299411892,"url":"http://farm8.staticflickr.com/7230/7299411892_488cf0eb0a.jpg","path":"7a7/9cf/7a79cf98ed9f6e27323dc6c585eba7fe.jpg","date":"2012-05-25","year":2012,"month":5,"lon":120.74026,"lat":30.761309,"tags":"%E4%B8%AD%E5%9C%8B,201205_dv_china,60d,canon,canon+eos+60d,china","S2CellId":"35b3400000000000","result":2354,"accuracy":0.76375383,"title":"IMG_9193"}
{"id":60777391,"url":"http://farm1.staticflickr.com/25/60777391_1cf2dcd571.jpg","path":"d9c/fa9/d9cfa96d5fcaf3a988b9d5a68ded8.jpg","date":"2005-11-05","year":2005,"month":11,"lon":120.8896,"lat":30.948906,"tags":"bridge,xitang","S2CellId":"35b3400000000000","result":2354,"accuracy":0.15363231,"title":"Bridge"}
{"id":7715785106,"url":"http://farm9.staticflickr.com/8431/7715785106_3e1b1d00db.jpg","path":"b9c/964/b9c9642570c79e9d8b4770804adc8d9f.jpg","date":"2012-07-21","year":2012,"month":7,"lon":120.89134,"lat":30.947811,"tags":"china,k-x,xitang","S2CellId":"398c000000000000","result":2482,"accuracy":0.074602336,"title":"Xitang+%28%E8%A5%BF%E5%A1%98%29"}
{"id":3077429182,"url":"http://farm4.staticflickr.com/3295/3077429182_14e8e93b1b.jpg","path":"949/e53/949e53348c70def0758a4ccb2120c846.jpg","date":"2008-11-19","year":2008,"month":11,"lon":120.120735,"lat":30.246017,"tags":"24-105mm,autumn,canon,canon+24-105mm+f%2F4l+is+usm,canon30d,china,f%2F4l,hangzhou,is,landscape,longjing,tea,tea+plants,travel,trees,usm","S2CellId":"8859f00000000000","result":8438,"accuracy":0.0792579,"title":"long+jing+tea+in+autumn"}
{"id":4255739621,"url":"http://farm3.staticflickr.com/2748/4255739621_c75dc18845.jpg","path":"531/aa2/531aa26edbe13991b0bfc087dda611e1.jpg","date":"2010-01-08","year":2010,"month":1,"lon":120.08212,"lat":30.15177,"tags":"35mm,analog,film","S2CellId":"465a400000000000","result":2886,"accuracy":0.005023134,"title":"CHRISMAS+IN+MY+ROOM","description":"%E5%9C%A3%E8%AF%9E%E8%8A%82%E8%BF%98%E6%B2%A1%E5%88%B0%0A%E4%B9%B0%E4%BA%868%E7%B1%B3%E7%9A%84%E5%BD%A9%E7%81%AF%E5%92%8C%E5%BE%88%E5%A4%9A%E6%8C%82%E9%A5%B0%0A%E8%8A%B1%E4%BA%86%E4%B8%80%E4%B8%8B%E5%8D%88%E7%BB%95%E5%88%B0%E5%B1%8B%E9%A1%B6%E4%B8%8A%0A%E6%83%B3%E7%BB%95%E6%88%90%E5%B9%B3%E9%9D%A2%E7%9A%84%E5%9C%A3%E8%AF%9E%E6%A0%91%E5%BD%A2%E7%8A%B6%0A%E4%BD%86%E6%98%AF%E8%BA%BA%E5%9C%A8%E5%BA%8A%E4%B8%8A%E7%9C%8B%E7%9A%84%E6%97%B6%E5%80%99%E6%80%BB%E8%A7%89%E5%BE%97%E5%83%8F%E5%86%85%E8%A3%A4%E5%9E%8B-+-%0A%E6%88%91%E6%80%95%E9%BB%91+%E5%B0%A4%E5%85%B6%E5%86%AC%E5%A4%A9+%E7%9D%A1%E8%A7%89%E7%9A%84%E6%97%B6%E5%80%99%E6%8F%92%E4%B8%8A%E7%94%B5%0A%E5%BC%80%E4%B8%80%E4%B8%AA%E9%80%9A%E5%AE%B5+%E7%9C%8B%E7%9D%80%E7%9C%8B%E7%9D%80+%E5%B0%B1%E7%9D%A1%E7%9D%80%E4%BA%86%0A%E9%98%BF%E6%B1%A4%E4%B8%8D%E7%9F%A5%E9%81%93-+-%E6%AF%8F%E4%B8%AA%E6%9C%88%E7%94%B5%E8%B4%B9%E5%B0%B1%E6%98%AF%E8%BF%99%E4%B9%88%E6%9D%A5%E7%9A%84%7E"}
{"id":384879102,"url":"http://farm1.staticflickr.com/188/384879102_9f9c67cda1.jpg","path":"215/103/21510321af4fc70737b7cf148c7fe.jpg","date":"2006-10-08","year":2006,"month":10,"lon":120.14047,"lat":30.241272,"tags":"%E4%B8%AD%E5%9B%BD,%E6%B5%99%E6%B1%9F,2006,china,chine,hangzhou,lac,lac+de+l%27ouest,lake,ouest,reflection,west,west+lake,zhejiang","S2CellId":"35f052f000000000","result":2371,"accuracy":0.07135037,"title":"...et+ses+reflexions"}
{"id":493413778,"url":"http://farm1.staticflickr.com/192/493413778_4f497bdc2a.jpg","path":"f04/61e/f0461ed5173b33c27439ad1048ebdbce.jpg","date":"2007-05-04","year":2007,"month":5,"lon":120.12245,"lat":30.249577,"tags":"tour","S2CellId":"36ef000000000000","result":2415,"accuracy":0.057224456,"title":"%E7%85%A7%E7%89%87+255"}
{"id":2463608299,"url":"http://farm4.staticflickr.com/3119/2463608299_0cfff5d1d8.jpg","path":"90d/3c7/90d3c73494a57f8eeb9c24307b74e8a.jpg","date":"2008-05-02","year":2008,"month":5,"lon":120.15621,"lat":30.25676,"tags":"%E6%9D%AD%E5%B7%9E,%E6%B5%99%E6%B1%9F,%E8%A5%BF%E6%B9%96,hangzhou,xihu,zhejiang","S2CellId":"344b000000000000","result":2104,"accuracy":0.3988015,"title":"DSC08086"}
{"id":4218385266,"url":"http://farm5.staticflickr.com/4009/4218385266_9dbc1a593c.jpg","path":"a19/bb0/a19bb020c1f785636aae3c936395c4.jpg","date":"2009-10-05","year":2009,"month":10,"lon":120.09018,"lat":30.853163,"tags":"%E4%B8%AD%E5%9B%BD,%E5%AE%89%E5%90%89%E5%8E%BF,%E5%AE%89%E5%90%89%E7%AB%B9%E5%8D%9A%E5%9B%AD,anji+bamboo+museum+garden,anji+county,butterfly,china,crushed","S2CellId":"94ce59f000000000","result":9723,"accuracy":0.0044188583}
{"id":4691985257,"url":"http://farm5.staticflickr.com/4040/4691985257_658cdeeaeb.jpg","path":"169/363/169363e01aa791a3318aee9a85f266.jpg","date":"2010-05-02","year":2010,"month":5,"lon":120.14013,"lat":30.246193,"tags":"china,hangzhou,sunrise,westlake","S2CellId":"344b000000000000","result":2104,"accuracy":0.11252104,"title":"Hangzhou+West+Lake+Sunrise"}
{"id":431018764,"url":"http://farm1.staticflickr.com/150/431018764_56b63eb6bf.jpg","path":"182/a62/182a623624dcb2fdf456f832e3b837.jpg","date":"2004-03-03","year":2004,"month":3,"lon":120.1355,"lat":30.247055,"tags":"%E6%9D%AD%E5%B7%9E,%E8%A5%BF%E6%B9%96,canon+s50,jerry+chen","S2CellId":"35f0534000000000","result":2372,"accuracy":0.4831865,"title":"0303_%E8%A5%BF%E6%B9%96%E9%BB%83%E6%98%8F%E8%A1%97%E6%99%AF"}
{"id":4309878061,"url":"http://farm5.staticflickr.com/4007/4309878061_37cfcee64e.jpg","path":"d42/cca/d42ccaba9a43ce2095beb0c5f033fbfc.jpg","date":"2010-01-12","year":2010,"month":1,"lon":120.14158,"lat":30.260355,"tags":"china","S2CellId":"35d0000000000000","result":2359,"accuracy":0.037173126,"title":"100_4277","description":"%3F%3F%3F%2C+Xihu"}
{"id":5595224398,"url":"http://farm6.staticflickr.com/5070/5595224398_d4f0ecea5a.jpg","path":"34b/831/34b831a4d18963f53897877d5a405874.jpg","date":"2011-03-27","year":2011,"month":3,"lon":120.15896,"lat":30.24221,"tags":"china,hangzhou,prc,zhejiang","S2CellId":"3663000000000000","result":2397,"accuracy":0.24548481,"title":"IMG_1620"}
{"id":8065551301,"url":"http://farm9.staticflickr.com/8455/8065551301_4c032f6111.jpg","path":"6e7/f4c/6e7f4c17bdb6e2e63435c8f4ebbc2565.jpg","date":"2012-07-21","year":2012,"month":7,"lon":120.89134,"lat":30.947823,"tags":"china,k-x,xitang","S2CellId":"35b3400000000000","result":2354,"accuracy":0.7539596,"title":"Xitang+%28%E8%A5%BF%E5%A1%98%29"}
{"id":5661200629,"url":"http://farm6.staticflickr.com/5262/5661200629_de1ce5da1a.jpg","path":"32c/092/32c092f36651a448aa9ea457ff13098.jpg","date":"2011-04-25","year":2011,"month":4,"lon":120.8745,"lat":30.950844,"tags":"%E8%A5%BF%E5%A1%98,xitang","S2CellId":"47d870b000000000","result":4419,"accuracy":0.097956814,"title":"%E8%A5%BF%E5%A1%98"}
{"id":564440931,"url":"http://farm2.staticflickr.com/1405/564440931_5adb9857cb.jpg","path":"a1e/033/a1e0338616a13f04845734064b8b8d6.jpg","date":"2007-02-06","year":2007,"month":2,"lon":120.140305,"lat":30.241865,"tags":"3d,anaglyph,china,east+lake,hangzhou,three+ponds+mirroring+the+moon","S2CellId":"878d000000000000","result":7909,"accuracy":0.35578704,"title":"Three+ponds+mirrorring+the+moon%2C+Hangzhou%2C+China","description":"Pavillon+at+%22Three+ponds+mirrorring+the+moon%22+in+Hangzhou%2C+China."}
{"id":5398018154,"url":"http://farm6.staticflickr.com/5097/5398018154_875d526ab6.jpg","path":"a33/04f/a3304fdea2c8651b8c7bab8e458fcf3.jpg","date":"2011-01-29","year":2011,"month":1,"lon":120.16022,"lat":30.26233,"tags":"8+vivionitier,d700+nikon+autorretrato+auto+retrato+autoportrait+portrait+strobist+flash+sb900+sb700+sb600+trigger+85mm+f1","S2CellId":"89c2f61000000000","result":9109,"accuracy":0.10270706,"title":"autorretrato3","description":"La+revista+de+este+mes+Digital+Camera+hay+una+fotos+de+una+chica%2C+hecha+con+gran+apertura+y+me+ha+entrado+ganas+de+probar+una%2C+y+este+es+el+resultado.+A+falta+de+modelo%2C+pues+autorretrato.+tripode%2C+3+flashes%2C+disparador%2C+portatil+y+listo"}
{"id":7715735966,"url":"http://farm9.staticflickr.com/8423/7715735966_559caaa784.jpg","path":"dad/a65/dada659b95a8c871db66f36932f4d11.jpg","date":"2012-07-21","year":2012,"month":7,"lon":120.88757,"lat":30.947405,"tags":"china,k-x,xitang","S2CellId":"35b3400000000000","result":2354,"accuracy":0.31357366,"title":"Xitang+%28%E8%A5%BF%E7%B3%96%29"}
{"id":10781509234,"url":"http://farm4.staticflickr.com/3796/10781509234_a8b5e635d4.jpg","path":"505/a92/505a9231255c60d3a7fde40d5499c11.jpg","date":"2013-11-09","year":2013,"month":11,"lon":120.13952,"lat":30.23154,"tags":"%E8%98%87%E5%A0%A4,%E8%A5%BF%E6%B9%96,astrid,baby,ilona,kids","S2CellId":"344b000000000000","result":2104,"accuracy":0.07382178,"title":"%E8%98%87%E5%A0%A4"}
{"id":4725592925,"url":"http://farm2.staticflickr.com/1246/4725592925_0ea7e1a3b9.jpg","path":"905/0b6/9050b6d5bdb742a0631da56f543f44f.jpg","date":"2010-04-04","year":2010,"month":4,"lon":120.14694,"lat":30.215239,"tags":"boardwalk,china,hangzhou,lake,scenery","S2CellId":"357cf00000000000","result":2322,"accuracy":0.098394215,"title":"403_1030128","description":"Teahouse+on+pond+at+Bagua+Tian%2C+a+Song+dynasty+emperor%27s+private+farm+or+a+mysterious+place+of+worship+depending+on+who+you+believe%2C+Hangzhou"}
{"id":469624173,"url":"http://farm1.staticflickr.com/193/469624173_f6a480e909.jpg","path":"3ad/414/3ad414f597f214e7ded34d9e811e83b.jpg","date":"2007-04-23","year":2007,"month":4,"lon":120.03113,"lat":30.892797,"tags":"%E5%A4%A7%E9%9B%84%E5%AF%B6%E6%AE%BF,%E6%9D%AD%E5%B7%9E,%E9%9D%88%E9%9A%B1%E5%AF%BA","S2CellId":"30c4000000000000","result":1620,"accuracy":0.12332832,"title":"%E4%B8%80%E5%BF%83%E5%90%91%E4%BD%9B"}
{"id":8796900060,"url":"http://farm8.staticflickr.com/7405/8796900060_c56fd0e58c.jpg","path":"fa4/b23/fa4b23457f992e59eb8552cd434b36f.jpg","date":"2010-03-13","year":2010,"month":3,"lon":120.42565,"lat":30.867716,"tags":"%E5%8F%A4%E9%8E%AE,%E6%97%85%E8%A1%8C,%E6%B1%9F%E5%8D%97","S2CellId":"35b3400000000000","result":2354,"accuracy":0.037828892,"title":"%E8%A1%97%E9%81%93%E8%88%87%E6%B2%B3%E6%B5%81+38"}
{"id":5744809901,"url":"http://farm3.staticflickr.com/2334/5744809901_9950bd4b98.jpg","path":"11c/b57/11cb57aefd631a712167f9789bfca7.jpg","date":"2011-04-11","year":2011,"month":4,"lon":120.9265,"lat":30.826834,"tags":"%E8%A5%BF%E5%A1%98%EF%BC%88%E6%B5%99%E6%B1%9F%E5%98%89%E5%96%84%EF%BC%89,iphoto+%E5%8E%9F%E5%A7%8B","S2CellId":"477eae3000000000","result":3462,"accuracy":0.0064133485,"title":"IMGP4642+2"}
{"id":1577185138,"url":"http://farm3.staticflickr.com/2240/1577185138_e0a4a6e2af.jpg","path":"484/f1d/484f1d537af4dbb32ce5559fe6ab98ab.jpg","date":"2007-10-15","year":2007,"month":10,"lon":120.153175,"lat":30.25484,"tags":"china,hangzhou,nikon+d80,west+lake","S2CellId":"35f052f000000000","result":2371,"accuracy":0.18960445,"title":"DSC_1336"}
{"id":2912971072,"url":"http://farm4.staticflickr.com/3060/2912971072_efb18dc447.jpg","path":"958/ea5/958ea5779540b0d890388fab29930d.jpg","date":"2008-09-30","year":2008,"month":9,"lon":120.07317,"lat":30.159988,"tags":"amateur+architecture+studio+wang+shu+architecture,china,hangzhou,regionalism,zhuangtang","S2CellId":"3468d40000000000","result":2165,"accuracy":0.38679695,"title":"P1+BRIDGE+TO+NOWHERE+3","description":"A%3A+Amateur+Architecture+Studio%0AB%3A+Xiangshan+Campus%2C+China+Academy+of+Art%2C+Phase+1%0AL%3A+Zhuangtang%2C+Hangzhou%2C+PRC%0AY%3A+2002"}
{"id":8065534886,"url":"http://farm9.staticflickr.com/8038/8065534886_8da3093f02.jpg","path":"348/be7/348be75e2cacf9854f0585f2abd4874.jpg","date":"2012-07-21","year":2012,"month":7,"lon":120.89086,"lat":30.947655,"tags":"china,k-x,xitang","S2CellId":"35b3400000000000","result":2354,"accuracy":0.21810444,"title":"Xitang+%28%E8%A5%BF%E5%A1%98%29"}
{"id":8796888806,"url":"http://farm9.staticflickr.com/8130/8796888806_f22727b0cc.jpg","path":"fda/43e/fda43e7b7e4d8fbe257d223b180ed82.jpg","date":"2010-03-13","year":2010,"month":3,"lon":120.42565,"lat":30.867716,"tags":"%E5%8F%A4%E9%8E%AE,%E6%97%85%E8%A1%8C,%E6%B1%9F%E5%8D%97","S2CellId":"35b3400000000000","result":2354,"accuracy":0.30088583,"title":"%E8%A1%97%E9%81%93%E8%88%87%E6%B2%B3%E6%B5%81+57"}
{"id":5352401450,"url":"http://farm6.staticflickr.com/5088/5352401450_344eaf0130.jpg","path":"94b/493/94b493adb1313cf6406dd3ab7be9386e.jpg","date":"2010-12-25","year":2010,"month":12,"lon":120.08142,"lat":30.22377,"tags":"%E6%9D%AD%E5%B7%9E,%E7%81%B5%E9%9A%90%E5%AF%BA,%E9%A6%99%E5%AE%A2","S2CellId":"3663000000000000","result":2397,"accuracy":0.10891332,"title":"%E7%81%B5%E9%9A%90%E9%9D%92%E7%83%9F","description":"%E7%81%B5%E9%9A%90%E5%AF%BA%E7%9A%84%E9%A6%99%E5%AE%A2"}
{"id":2303635490,"url":"http://farm4.staticflickr.com/3194/2303635490_72e24c553d.jpg","path":"13b/a69/13ba696d30927b801c20bc931fcba344.jpg","date":"2008-02-23","year":2008,"month":2,"lon":120.146484,"lat":30.262922,"tags":"%E5%B9%B4%E8%B4%A7,%E6%9D%AD%E5%B7%9E,china,food","S2CellId":"94ce59f000000000","result":9723,"accuracy":0.005676376,"title":"%E5%B9%B4%E8%B4%A7080223"}
{"id":3033439707,"url":"http://farm4.staticflickr.com/3055/3033439707_0b507a9304.jpg","path":"52f/2f7/52f2f7d3340eefa1ebf6f4027841b.jpg","date":"2008-11-06","year":2008,"month":11,"lon":120.16897,"lat":30.251875,"tags":"aida,backstage,china,hangzhou,musical,show,stage,tour","S2CellId":"346e767000000000","result":2218,"accuracy":0.0037700075,"title":"The+Hangzhou+International+Hotel"}
{"id":6464423867,"url":"http://farm8.staticflickr.com/7166/6464423867_c95e85b170.jpg","path":"a49/3a3/a493a3fe0d19b95d28bdf665ff1ec59.jpg","date":"2011-12-04","year":2011,"month":12,"lon":120.15271,"lat":30.242968,"tags":"animal","S2CellId":"4875f40000000000","result":5179,"accuracy":0.057818197,"title":"IMG_7812.jpg"}
{"id":10268720204,"url":"http://farm4.staticflickr.com/3716/10268720204_ef31999649.jpg","path":"cd9/dd2/cd9dd2579c53a0e2273d80c3bd2b8abc.jpg","date":"2013-10-13","year":2013,"month":10,"lon":120.16148,"lat":30.235224,"tags":"hangzhou","S2CellId":"35f052f000000000","result":2371,"accuracy":0.10970669,"title":"%E6%9D%AD%E5%B7%9E%E5%8D%97%E5%B1%B1%E7%BA%BF"}
{"id":5954231598,"url":"http://farm7.staticflickr.com/6025/5954231598_c05147b303.jpg","path":"211/a9b/211a9b9b52b1d91ba37040875898a.jpg","date":"2011-07-10","year":2011,"month":7,"lon":120.13481,"lat":30.257584,"tags":"%E6%A4%8D%E7%89%A9","S2CellId":"3468d40000000000","result":2165,"accuracy":0.28588223,"title":"%E8%A5%BF%E6%B9%96"}
{"id":8309187024,"url":"http://farm9.staticflickr.com/8075/8309187024_be46eb068d.jpg","path":"748/750/748750671acba8d570eeea4cd6fc6b5e.jpg","date":"2012-10-16","year":2012,"month":10,"lon":120.16502,"lat":30.2525,"tags":"asia,asian,baby,china,different,east,far+east,friendly,life,monk,old,people,street,street+photography,young","S2CellId":"35f0529000000000","result":2368,"accuracy":0.2633437,"title":"Bicycle"}
{"id":8249489994,"url":"http://farm9.staticflickr.com/8057/8249489994_0cc9b24058.jpg","path":"8b2/8d9/8b28d94dfd5762701c25a52ad3f6ab7e.jpg","date":"2012-03-23","year":2012,"month":3,"lon":120.170166,"lat":30.308332,"tags":"iphone4s","S2CellId":"0d1ed40000000000","result":247,"accuracy":0.0059430557,"title":"IMG_0084"}
{"id":8686110328,"url":"http://farm9.staticflickr.com/8262/8686110328_a09353a59d.jpg","path":"ac2/6a8/ac26a8b76ddca781d8f768f4ca39751.jpg","date":"2012-10-21","year":2012,"month":10,"lon":120.50117,"lat":30.9165,"tags":"automator,dropbox,iphone,wappwolf","S2CellId":"30cc000000000000","result":1621,"accuracy":0.12549183,"title":"iPhone+Dropbox"}
{"id":3787073562,"url":"http://farm3.staticflickr.com/2496/3787073562_8d79393584.jpg","path":"323/6c5/3236c56c3bd29fbb76ff7b96f1b08d2a.jpg","date":"2008-11-01","year":2008,"month":11,"lon":120.16897,"lat":30.251875,"tags":"china,hangzhou,ningbo","S2CellId":"3143000000000000","result":1758,"accuracy":0.027362991,"title":"Shanghai+to+Ningbo+to+Hangzhou"}
{"id":1577167498,"url":"http://farm3.staticflickr.com/2298/1577167498_60bf5e5d9f.jpg","path":"628/6da/6286da4c19bc0b826db841bef3f0c1.jpg","date":"2007-10-15","year":2007,"month":10,"lon":120.153175,"lat":30.25484,"tags":"china,hangzhou,nikon+d80,west+lake","S2CellId":"344b000000000000","result":2104,"accuracy":0.14674017,"title":"DSC_1328"}
{"id":2098396098,"url":"http://farm3.staticflickr.com/2078/2098396098_75cdcd0b79.jpg","path":"21e/c44/21ec44194b22d7a57d6c95a8358a2a63.jpg","date":"2007-12-08","year":2007,"month":12,"lon":120.4735,"lat":30.753332,"tags":"wuzhen","S2CellId":"47b3100000000000","result":4017,"accuracy":0.058189232,"title":"wuzhen"}
{"id":2184507505,"url":"http://farm3.staticflickr.com/2219/2184507505_235302a366.jpg","path":"a92/0c2/a920c26a2777efe6a2627f27fef2428a.jpg","date":"2007-05-20","year":2007,"month":5,"lon":120.09691,"lat":30.243027,"tags":"china,hangzhou,travel","S2CellId":"3442a9b000000000","result":2057,"accuracy":0.0512569,"title":"5%2F20%2F07+11%3A31+AM"}
{"id":5453077879,"url":"http://farm6.staticflickr.com/5017/5453077879_2ff9f1d7f9.jpg","path":"b14/3c5/b143c54a97b6b24fa953f585afd2be21.jpg","date":"2011-02-17","year":2011,"month":2,"lon":120.132324,"lat":30.253544,"tags":"boat,china,hangzhou,paddle,pagoda,scenery,sunset,water,west+lake,wooden+ferry","S2CellId":"344b000000000000","result":2104,"accuracy":0.79713964,"title":"West+Lake+Ferryman","description":"Hangzhou%2C+China"}
{"id":419698644,"url":"http://farm1.staticflickr.com/124/419698644_471677a31b.jpg","path":"7ee/94d/7ee94d49479fe13ab7fa72a4de4218.jpg","date":"2007-03-10","year":2007,"month":3,"lon":120.144936,"lat":30.247946,"tags":"%E8%8C%83%E5%AD%9F%E4%BA%9A%E6%9F%AF,hangzhou,jakob,jakob.montrasio.net,lake,lights,montrasio,night,pagoda,west","S2CellId":"344b000000000000","result":2104,"accuracy":0.034420326,"title":"Hangzhou%3A+West+lake+at+night"}
{"id":10787549386,"url":"http://farm8.staticflickr.com/7330/10787549386_5cd931bc2c.jpg","path":"a6c/33c/a6c33c8dc4eedd828d98d888db84a0c.jpg","date":"2013-11-10","year":2013,"month":11,"lon":120.14268,"lat":30.256119,"tags":"%E5%8C%97%E5%B1%B1%E8%B7%AF,%E8%A5%BF%E6%B9%96","S2CellId":"36ef000000000000","result":2415,"accuracy":0.06581376,"title":"%E5%8C%97%E5%B1%B1%E8%B7%AF"}
{"id":8291436571,"url":"http://farm9.staticflickr.com/8072/8291436571_e2b3e39d79.jpg","path":"b2f/982/b2f98243f1e353272297d2b5ea786ac.jpg","date":"2011-08-21","year":2011,"month":8,"lon":120.1638,"lat":30.252909,"tags":"china,hangzhou,zhejiang","S2CellId":"344b000000000000","result":2104,"accuracy":0.23432395,"title":"HGH0821-008.jpg"}
{"id":2031609156,"url":"http://farm3.staticflickr.com/2024/2031609156_454a127818.jpg","path":"f36/df6/f36df662d61dba558416f71d4ad840bc.jpg","date":"2006-10-01","year":2006,"month":10,"lon":120.125885,"lat":30.24157,"tags":"%E6%9D%AD%E5%B7%9E","S2CellId":"344b000000000000","result":2104,"accuracy":0.11786172,"title":"%E6%99%A8%E5%B9%95%E4%B8%AD%E8%8D%B7%E5%A1%98"}
{"id":8397377032,"url":"http://farm9.staticflickr.com/8499/8397377032_597117df1b.jpg","path":"2aa/be1/2aabe1e1b444be0664eabc77e55e28.jpg","date":"2013-01-20","year":2013,"month":1,"lon":120.096954,"lat":30.25867,"tags":"instagram+app,iphoneography,square,square+format","S2CellId":"35b5000000000000","result":2356,"accuracy":0.06122774,"title":"%23weather+%23instaweather+%23instaweatherpro++%23sky+%23outdoors+%23nature++%23instagood+%23photooftheday+%23instamood+%23picoftheday+%23instadaily+%23photo+%23instacool+%23instapic+%23picture+%23pic+%40instaplaceapp+%23place+%23earth+%23world+%23hangzhou+%23china+%23day+%23winter+%23skypainters+%23cn"}
{"id":440643127,"url":"http://farm1.staticflickr.com/186/440643127_c608663b64.jpg","path":"a2c/561/a2c561bc3cac885e1f4aa37ea5d1f219.jpg","date":"2007-03-08","year":2007,"month":3,"lon":120.49152,"lat":30.735933,"tags":"china,wuzhen","S2CellId":"35b3c00000000000","result":2355,"accuracy":0.52691245,"title":"Wuzhen+Water+County+Scenery"}
{"id":5745362820,"url":"http://farm4.staticflickr.com/3255/5745362820_55493d6e0d.jpg","path":"c68/9af/c689af6e84379140c9142e71998acff9.jpg","date":"2011-04-11","year":2011,"month":4,"lon":120.9265,"lat":30.826834,"tags":"%E8%A5%BF%E5%A1%98%EF%BC%88%E6%B5%99%E6%B1%9F%E5%98%89%E5%96%84%EF%BC%89,iphoto+%E5%8E%9F%E5%A7%8B","S2CellId":"35b3400000000000","result":2354,"accuracy":0.11740336,"title":"IMGP4673+2"}
{"id":63878871,"url":"http://farm1.staticflickr.com/25/63878871_6fc387fc9f.jpg","path":"cd7/8b3/cd78b32e457fb115ee64f1c7d885f5.jpg","date":"2005-11-16","year":2005,"month":11,"lon":120.15498,"lat":30.250393,"tags":"%E4%B8%AD%E5%9B%BD,alexandra+moss,ali+moss,china,hangzhou,lake","S2CellId":"344b000000000000","result":2104,"accuracy":0.8477207,"title":"West+Lake+-+Hangzhou"}
{"id":4522743093,"url":"http://farm5.staticflickr.com/4009/4522743093_827dca4280.jpg","path":"f84/3d5/f843d549362032ab6f36b1516695ad2e.jpg","date":"2010-04-03","year":2010,"month":4,"lon":120.160904,"lat":30.244831,"tags":"%E8%83%A1%E9%9B%AA%E5%B2%A9%E6%95%85%E5%B1%85,1872,anne+cattrell,anne+roberts,architecture,china,chinese,garden,hangzhou,house,hu,hu+xue-yan+house,lake,mansion,merchant,pagoda,pavillion,pondspider,reflections,water,xue-yan,zhejiang","S2CellId":"35b2705c00000000","result":2341,"accuracy":0.13952103,"title":"Lake+and+pavillion+at+the+Hu+Xue-yan+House+in+Hangzhou+2","description":"The+Hu+Xue-yan+House+was+a+great+find%21+It+isn%27t+in+the+Lonely+Planet+Guide+and+really+deserves+to+be.+Apparently+it+was+built+in+1872+by+a+rich+merchant+who+let+his+imagination+run+wild.+Part+of+it+seems+to+be+built+on+artificial+caves+and+there+are+numerous+small+passageways+and+corridors+running+through+it.+Bethan+thought+it+was+great+fun%21"}
{"id":3974633538,"url":"http://farm3.staticflickr.com/2472/3974633538_a3eb1d3d12.jpg","path":"449/480/449480b84913afd27c5f47a9986ea3.jpg","date":"2009-07-09","year":2009,"month":7,"lon":120.1548,"lat":30.248087,"tags":"%E4%B8%AD%E5%9C%8B,%E6%97%85%E9%81%8A,%E6%9D%AD%E5%B7%9E,%E6%B5%99%E6%B1%9F,%E8%A5%BF%E6%B9%96,20090709_tsaiid,af-s+dx+vr+zoom-nikkor+18-200mm+f%2F3.5-5.6g+if-ed,china,hangzhou,nikon+d80,travel,zhejiang","S2CellId":"344b000000000000","result":2104,"accuracy":0.51102424,"title":"%E9%87%91%E7%89%9B%E5%87%BA%E6%B0%B4+%40+%E8%A5%BF%E6%B9%96"}
{"id":245645069,"url":"http://farm1.staticflickr.com/98/245645069_fa5ecf61be.jpg","path":"b45/cfa/b45cfa738e68f718c359692fc785b462.jpg","date":"2006-09-17","year":2006,"month":9,"lon":120.168884,"lat":30.251207,"tags":"hangzhou","S2CellId":"30da3a9000000000","result":1630,"accuracy":0.09889807,"title":"Praying+Monk"}
{"id":2857980579,"url":"http://farm4.staticflickr.com/3292/2857980579_22313acbf8.jpg","path":"394/935/394935543cb8b72e3da0b1ec5041f0a6.jpg","date":"2008-09-14","year":2008,"month":9,"lon":120.56671,"lat":30.000881,"tags":"antique,architecture,asia,china,histo,historic,luxun,shaoxing,tourism,travel","S2CellId":"479e7c0000000000","result":3861,"accuracy":0.039569702,"title":"Lu+Xun%27s+Ancestral+Home"}
{"id":2137494175,"url":"http://farm3.staticflickr.com/2137/2137494175_06f916d6b8.jpg","path":"267/083/267083db2519adc26a4c77b14ea8ec93.jpg","date":"2007-12-06","year":2007,"month":12,"lon":120.12803,"lat":30.198997,"tags":"china,hangzhou","S2CellId":"357c9f0000000000","result":2307,"accuracy":0.12193117,"title":"35+-+A+LOT"}
{"id":8728958810,"url":"http://farm8.staticflickr.com/7401/8728958810_0a2e3c5161.jpg","path":"c15/948/c15948a46aeb663c121dfd31f08cd33f.jpg","date":"2013-04-28","year":2013,"month":4,"lon":120.08462,"lat":30.54121,"tags":"%E6%B5%99%E6%B1%9F,%E7%AB%B9,%E8%8E%AB%E5%B9%B2%E5%B1%B1,bamboo,green,moganshan","S2CellId":"6018450000000000","result":6446,"accuracy":0.010507914,"title":"DSC_0069a","description":"Bamboo+Green+%E7%AB%B9.%E7%BB%BF"}
{"id":10781656694,"url":"http://farm6.staticflickr.com/5483/10781656694_9f2057503d.jpg","path":"862/9fe/8629fe1e28461f4f9ac95ce4fe83ae76.jpg","date":"2013-11-09","year":2013,"month":11,"lon":120.1314,"lat":30.253662,"tags":"%E8%A5%BF%E6%B9%96","S2CellId":"344b000000000000","result":2104,"accuracy":0.7416415,"title":"%E8%A5%BF%E6%B9%96"}
{"id":1094859389,"url":"http://farm2.staticflickr.com/1288/1094859389_50dc835073.jpg","path":"33e/1e2/33e1e26968a916aa178ffa81bb7ed3.jpg","date":"2007-07-26","year":2007,"month":7,"lon":120.15258,"lat":30.246313,"tags":"china,hangzhou,westlake","S2CellId":"89b7b8c000000000","result":8889,"accuracy":0.06409409,"title":"DSCF1356.JPG"}
{"id":2463665181,"url":"http://farm4.staticflickr.com/3135/2463665181_8768de1331.jpg","path":"6d8/13f/6d813fde4344aeccf6246d8d81f940e2.jpg","date":"2008-05-02","year":2008,"month":5,"lon":120.15274,"lat":30.246098,"tags":"%E6%9D%AD%E5%B7%9E,%E6%B5%99%E6%B1%9F,%E6%B6%8C%E9%87%91%E9%97%A8,%E8%A5%BF%E6%B9%96,hangzhou,xihu,zhejiang","S2CellId":"135b400000000000","result":1184,"accuracy":0.10478216,"title":"DSC08106"}
{"id":1591843,"url":"http://farm1.staticflickr.com/2/1591843_6787597411.jpg","path":"87b/f1f/87bf1ff3f7fd499bfa0d54cf345e564.jpg","date":"2004-02-11","year":2004,"month":2,"lon":120.22888,"lat":30.177185,"tags":"butter,china,mermaid,statue,xiaoxian","S2CellId":"54c5000000000000","result":6306,"accuracy":0.043155003,"title":"mermaid","description":"A+butter+sculpture+at+City+Jane%27s+restaurant."}
{"id":361439680,"url":"http://farm1.staticflickr.com/131/361439680_faacbe5785.jpg","path":"fbc/ba1/fbcba15f73f1b3c59e9deb7c1b2ad99.jpg","date":"2007-01-01","year":2007,"month":1,"lon":120.15661,"lat":30.255213,"tags":"china,hang+zhou,travel,zhe+jiang","S2CellId":"8085808500000000","result":6941,"accuracy":0.083603755,"title":"DSCF0055"}
{"id":8187802728,"url":"http://farm9.staticflickr.com/8350/8187802728_4027477e8b.jpg","path":"bc7/0a2/bc70a24a4d495063de1fd844101c4b.jpg","date":"2012-10-21","year":2012,"month":10,"lon":120.1346,"lat":30.25385,"tags":"%E8%A5%BF%E6%B9%96,china,hangzhou,west+lake","S2CellId":"8084100000000000","result":6905,"accuracy":0.04968089,"title":"West+Lake+%E8%A5%BF%E6%B9%96+-+Gu+Shan+Park+%E5%AD%A4%E5%B1%B1%E5%85%AC%E5%9C%92","description":"West+Lake+%E8%A5%BF%E6%B9%96+-+Gu+Shan+Park+%E5%AD%A4%E5%B1%B1%E5%85%AC%E5%9C%92"}
{"id":440648843,"url":"http://farm1.staticflickr.com/188/440648843_1d9dd127aa.jpg","path":"524/381/524381dc5ce8bb24c16337552c36661.jpg","date":"2007-03-08","year":2007,"month":3,"lon":120.49152,"lat":30.735933,"tags":"china,wuzhen","S2CellId":"35b3c00000000000","result":2355,"accuracy":0.3395062,"title":"Wuzhen+Entrance"}
{"id":4742147161,"url":"http://farm5.staticflickr.com/4077/4742147161_076b439413.jpg","path":"5bb/1ae/5bb1aef4da345fc34713677798f859a4.jpg","date":"2010-05-29","year":2010,"month":5,"lon":120.141335,"lat":30.242905,"tags":"%E6%9D%AD%E5%B7%9E,%E8%A5%BF%E6%B9%96,hangzhou","S2CellId":"8620a5c000000000","result":7508,"accuracy":0.07529777,"title":"2010-05-29+Day8+%E6%9D%AD%E5%B7%9E","description":"%E5%A5%BD%E5%90%83%EF%BC%81%E6%9D%B1%E5%9D%A1%E8%82%89%E8%B6%85%E5%A5%BD%E5%90%83%EF%BC%81"}
{"id":2098382238,"url":"http://farm3.staticflickr.com/2152/2098382238_b6ccc7b088.jpg","path":"e3b/cbd/e3bcbd39ac5f5d9d2add3db9ef313375.jpg","date":"2007-12-08","year":2007,"month":12,"lon":120.4735,"lat":30.753332,"tags":"wuzhen","S2CellId":"35b3400000000000","result":2354,"accuracy":0.28412813,"title":"wuzhen"}
{"id":3918859876,"url":"http://farm4.staticflickr.com/3516/3918859876_4e5a2bc56e.jpg","path":"b3c/236/b3c236d9cefc325cded9b36816589f.jpg","date":"2009-09-11","year":2009,"month":9,"lon":120.24178,"lat":30.163889,"tags":"alibaba,hangzhou,xiaoshan","S2CellId":"3e45c40000000000","result":2588,"accuracy":0.038939536,"title":"alibaba"}
{"id":4827734171,"url":"http://farm5.staticflickr.com/4143/4827734171_45c63013cb.jpg","path":"4de/531/4de5315f1727add6e97b90c4107a8c98.jpg","date":"2010-06-29","year":2010,"month":6,"lon":120.158844,"lat":30.268557,"tags":"hangzhou,lake,promenade,walk,west","S2CellId":"89c2588d00000000","result":8968,"accuracy":0.16626965,"description":"West+Lake+promenade%2C+Hangzhou"}
{"id":8249575592,"url":"http://farm9.staticflickr.com/8063/8249575592_ab31eb02f2.jpg","path":"52b/265/52b265b327fcc9587be350d5aa4e29cb.jpg","date":"2012-03-26","year":2012,"month":3,"lon":120.1475,"lat":30.287666,"tags":"iphone4s","S2CellId":"6018894000000000","result":6464,"accuracy":0.015728673,"title":"IMG_0107"}
{"id":3506455691,"url":"http://farm4.staticflickr.com/3346/3506455691_d0a271d1b6.jpg","path":"e29/325/e2932504d6fefa0fab837de4f25751.jpg","date":"2009-04-29","year":2009,"month":4,"lon":120.11071,"lat":30.221678,"tags":"china,hangzhou,hills,landscape,scenery","S2CellId":"344b000000000000","result":2104,"accuracy":0.060361594,"title":"401_0492-pan","description":"View+from+the+patio+of+a+%22farmhouse+restaurant%22+near+Longjing+village+%28famous+for+its+tea+production%29%2C+showing+beautiful+hill+scenery+-+the+city+of+Hangzhou+is+visible+behind+the+hills"}
{"id":285466235,"url":"http://farm1.staticflickr.com/118/285466235_f079213049.jpg","path":"798/130/79813034db5ff6a73864da70df3211cf.jpg","date":"2006-10-01","year":2006,"month":10,"lon":120.0999,"lat":30.964409,"tags":"china+x+games,hkskateboarding,skateboarding,wuzhou,xfed","S2CellId":"808f7fd000000000","result":7036,"accuracy":0.07099902,"title":"Mark","description":"Mark+-+reppin%27+Hong+KONG"}
{"id":493396330,"url":"http://farm1.staticflickr.com/226/493396330_257969fcf6.jpg","path":"f9c/9f0/f9c9f09d64921228b0472cc67d9c6e23.jpg","date":"2007-05-04","year":2007,"month":5,"lon":120.12245,"lat":30.249577,"tags":"tour","S2CellId":"344b000000000000","result":2104,"accuracy":0.3705034,"title":"%E7%85%A7%E7%89%87+183"}
{"id":17313636,"url":"http://farm1.staticflickr.com/14/17313636_bb16ff1170.jpg","path":"160/2bf/1602bfb7dc42ec723f2666bb81248b.jpg","date":"2005-04-07","year":2005,"month":4,"lon":120.16588,"lat":30.250984,"tags":"%E4%B8%AD%E5%9B%BD,%E6%9D%AD%E5%B7%9E,buildings,china,hangzhou,sports,zucc","S2CellId":"357f000000000000","result":2324,"accuracy":0.065519966,"title":"View+from+the+balcony","description":"In+China%2C+you+know+you+teach+at+a+rich+school+when+the+campus+has+private%2C+pay-to-play+tennis+courts%2C+and+they%27re+packed."}
{"id":8250589323,"url":"http://farm9.staticflickr.com/8065/8250589323_e309527544.jpg","path":"ab3/0e1/ab30e14bf9999bf1a8f195256d51f4d.jpg","date":"2012-10-31","year":2012,"month":10,"lon":120.14816,"lat":30.2855,"tags":"food,iphone4s","S2CellId":"5f0b2c0000000000","result":6349,"accuracy":0.013624224,"title":"IMG_1144"}
{"id":3034352950,"url":"http://farm4.staticflickr.com/3242/3034352950_6f4e7765f1.jpg","path":"486/091/4860915230c1b4fd2cf8efb42a46806.jpg","date":"2008-11-07","year":2008,"month":11,"lon":120.15893,"lat":30.266888,"tags":"china,city,hangzhou","S2CellId":"39eb190000000000","result":2494,"accuracy":0.015276578,"title":"IMG_1071"}
{"id":2646137660,"url":"http://farm4.staticflickr.com/3065/2646137660_7b599ab886.jpg","path":"a75/9e8/a759e8c77d4ca73a692f0ee8aec742e.jpg","date":"2008-07-06","year":2008,"month":7,"lon":120.139275,"lat":30.250763,"tags":"china,green,hangzhou,qualitypixels,west+lake","S2CellId":"3442a9b000000000","result":2057,"accuracy":0.24717155,"title":"Welcoming+Dawn","description":"Lotus+on+West+Lake%2C+Hangzhou%2C+China"}
{"id":3973910511,"url":"http://farm3.staticflickr.com/2559/3973910511_823c2e11b3.jpg","path":"276/c2f/276c2f4ac95c47452fbaecb5280b3ee.jpg","date":"2009-07-09","year":2009,"month":7,"lon":120.14851,"lat":30.231392,"tags":"%E4%B8%AD%E5%9C%8B,%E6%97%85%E9%81%8A,%E6%9D%AD%E5%B7%9E,%E6%B5%99%E6%B1%9F,%E8%A5%BF%E6%B9%96,20090709_tsaiid,af-s+dx+vr+zoom-nikkor+18-200mm+f%2F3.5-5.6g+if-ed,china,hangzhou,nikon+d80,travel,zhejiang","S2CellId":"31da1bc000000000","result":1868,"accuracy":0.32116148,"title":"%E9%81%A0%E7%9C%BA%E8%A5%BF%E6%B9%96+%40+%E9%9B%B7%E5%B3%B0%E5%A1%94"}
{"id":8899146844,"url":"http://farm8.staticflickr.com/7422/8899146844_5ffbd7bb70.jpg","path":"3d5/394/3d539481617bba5d8c60826fede46c59.jpg","date":"2013-04-11","year":2013,"month":4,"lon":120.17,"lat":30.3085,"tags":"%E6%9C%BA%E9%A1%B6%E7%9B%92","S2CellId":"94ce59f000000000","result":9723,"accuracy":0.009083299,"title":"IMG_1630"}
{"id":2189540602,"url":"http://farm3.staticflickr.com/2008/2189540602_75c371a719.jpg","path":"e08/e96/e08e96749e3adddaf9891168d40c5b5.jpg","date":"2008-01-06","year":2008,"month":1,"lon":120.49456,"lat":30.741505,"tags":"canal,china,shanghai,water,watertown,wuzhen","S2CellId":"35b3400000000000","result":2354,"accuracy":0.8180121,"title":"WuZhen+Watertown","description":"WuZhen+is+one+of+the+numerous+watertowns+around+Shanghai+%28Suzhou+being+the+most+famous%29.+%0AThe+old+part+of+WuZhen+mainly+consists+of+two+streets+that+remaind+unchanged+since+some+decades+%28by+order+of+the+government%29.+WuZhen+gives+a+nice+impression+of+what+these+towns+might+have+looked+like."}
{"id":5815891884,"url":"http://farm6.staticflickr.com/5142/5815891884_8ab845748a.jpg","path":"3cb/761/3cb76161dce1bbbe52ee1ff1315e093.jpg","date":"2011-05-17","year":2011,"month":5,"lon":120.15507,"lat":30.27409,"tags":"14-42mm,gf2,hangzhou,micro+4%2F3,panasonic","S2CellId":"3724000000000000","result":2419,"accuracy":0.029295407,"title":"P1020678"}
{"id":3076477733,"url":"http://farm4.staticflickr.com/3166/3076477733_a45c16e557.jpg","path":"6bd/98a/6bd98a57f92ae4d77ae39d762f344.jpg","date":"2008-11-17","year":2008,"month":11,"lon":120.12657,"lat":30.238306,"tags":"24-105mm,canon,canon+24-105mm+f%2F4l+is+usm,canon30d,china,f%2F4l,hangzhou,is,travel,usm","S2CellId":"85c7000000000000","result":7447,"accuracy":0.034829684,"title":"knot+in+a+tree"}
{"id":5745092970,"url":"http://farm3.staticflickr.com/2269/5745092970_9ce7b7e5c1.jpg","path":"a43/b40/a43b40499de486834e8c86e3e5c882ce.jpg","date":"2011-04-08","year":2011,"month":4,"lon":120.561165,"lat":30.629665,"tags":"%E4%B9%8C%E9%95%87%EF%BC%88%E6%B5%99%E6%B1%9F%E6%A1%90%E4%B9%A1%EF%BC%89,iphoto+%E5%8E%9F%E5%A7%8B","S2CellId":"39eb190000000000","result":2494,"accuracy":0.013012891,"title":"IMGP3602+2"}
{"id":344459943,"url":"http://farm1.staticflickr.com/135/344459943_763a4d480c.jpg","path":"32a/7ec/32a7ec76ace06b1608c1bb3d896d0d7.jpg","date":"2006-10-07","year":2006,"month":10,"lon":120.130516,"lat":30.23445,"tags":"%E4%B8%AD%E5%9B%BD,%E6%9D%AD%E5%B7%9E,%E6%B5%99%E6%B1%9F,%E6%B5%99%E6%B1%9F%E7%9C%81,china,chine,hangzhou,lake,west,westlake,zhejiang","S2CellId":"3467e70000000000","result":2121,"accuracy":0.033280764,"title":"clic+clac..."}
{"id":4815704422,"url":"http://farm5.staticflickr.com/4076/4815704422_e158e112d8.jpg","path":"bb4/b9c/bb4b9cf6973c532ff6b417436e6b6c.jpg","date":"2010-07-19","year":2010,"month":7,"lon":120.13893,"lat":30.246313,"tags":"china,hangzhou,ping,pong","S2CellId":"31da3cc000000000","result":1877,"accuracy":0.022298284,"title":"Ping_Pong_Hooligans-3"}
{"id":8796872640,"url":"http://farm8.staticflickr.com/7322/8796872640_1a0e2a6dcb.jpg","path":"257/e25/257e2586d28a40e928d2967425bb7b9.jpg","date":"2010-03-13","year":2010,"month":3,"lon":120.42565,"lat":30.867716,"tags":"%E5%8F%A4%E9%8E%AE,%E6%97%85%E8%A1%8C,%E6%B1%9F%E5%8D%97","S2CellId":"3724000000000000","result":2419,"accuracy":0.07145132,"title":"%E7%B4%B0%E7%AF%80+26"}
{"id":281455889,"url":"http://farm1.staticflickr.com/88/281455889_623f26571e.jpg","path":"b55/ea3/b55ea376e4d4bf472235432c8230a928.jpg","date":"2006-10-28","year":2006,"month":10,"lon":120.17232,"lat":30.255878,"tags":"2006,cbc,cbc2006,cnbloggercon,hangzhou","S2CellId":"6b91590000000000","result":6755,"accuracy":0.020740723,"title":"PA280058"}
{"id":4466502744,"url":"http://farm3.staticflickr.com/2736/4466502744_fa9e873e3b.jpg","path":"2d7/19e/2d719ed092b8461fb77491a944645f52.jpg","date":"2010-03-18","year":2010,"month":3,"lon":120.16777,"lat":30.273893,"tags":"arbres,parcs,reflets,rues+de+shanghai","S2CellId":"35f0534000000000","result":2372,"accuracy":0.058272965,"title":"dans+la+rue","description":"fraises+%2C+kiwis+%2C+poires+%2C+arbouses+etc+....+enrob%C3%A9s+dans+un+caramel+."}
{"id":8918864138,"url":"http://farm9.staticflickr.com/8398/8918864138_f8f6697710.jpg","path":"294/e4d/294e4d67ce7c3c5ac8a6bf7f5a5883d.jpg","date":"2013-06-01","year":2013,"month":6,"lon":120.75393,"lat":30.752329,"tags":"%E5%98%89%E5%85%B4,%E7%BB%BF%E9%81%93","S2CellId":"35f052f000000000","result":2371,"accuracy":0.17265745,"title":"%E5%98%89%E5%85%B4%E5%8D%97%E6%B9%96%E6%9C%88%E6%B2%B3%E8%A1%97"}
{"id":6543035563,"url":"http://farm8.staticflickr.com/7157/6543035563_6ce2895099.jpg","path":"466/a26/466a26c132e89f2dcf512cedddb90f0.jpg","date":"2011-11-18","year":2011,"month":11,"lon":120.13012,"lat":30.23356,"tags":"%E4%B8%BB%E7%BC%96%E8%AF%B4%E6%88%91%E8%BF%99%E8%BE%91%E7%85%A7%E7%89%87%E4%B8%8D%E9%94%99%E5%B0%B1%E6%98%AF%E7%BC%BA%E5%B0%91%E4%BA%BA%E7%89%A9%E4%BA%A4%E6%B5%81%E5%81%B6%E9%9D%9E%E5%B8%B8%E8%B5%9E%E5%90%8C%E5%A4%AA%E5%AF%A1%E6%B7%A1%E7%9A%84%E5%8E%9F%E5%9B%A0%E5%B0%B1%E6%98%AF%E6%B2%A1%E6%9C%89%E4%BA%BA%E5%BE%88%E6%AD%BB%E7%9C%8B%E4%B8%8A%E5%8E%BB%E6%9C%89%E6%9C%A8%E6%9C%89,2011,china,hangzhou,nov,raemin,travel,xixi+national+wetland+park","S2CellId":"3724000000000000","result":2419,"accuracy":0.23922262,"description":"Xixi+National+Wetland+Park%2C+Hangzhou."}
{"id":4675116538,"url":"http://farm5.staticflickr.com/4029/4675116538_c1ce6eb593.jpg","path":"6e3/813/6e3813e4854d22de342297fd3dab8fc.jpg","date":"2010-05-31","year":2010,"month":5,"lon":120.12039,"lat":30.247501,"tags":"afar,flying,from,hangzhou,lingyin+temple,peak,stone+buddha","S2CellId":"3afc000000000000","result":2528,"accuracy":0.0755864,"title":"Esoteric+%22Treasure+God%22","description":"Esoteric+%22Treasure+God%22+%28%E5%AE%9D%E8%94%B5%E7%A5%9E%29%2C+Yuan+Period."}
{"id":3633437361,"url":"http://farm4.staticflickr.com/3355/3633437361_1f3a614ccb.jpg","path":"e69/2a0/e692a01d58692e3c384491c0e716d0.jpg","date":"2009-05-24","year":2009,"month":5,"lon":120.15747,"lat":30.268557,"tags":"beauty,china,fall,hangzhou,lake,nature,orange,water,waterfall,west,west+lake,zhejiang","S2CellId":"3bcc000000000000","result":2564,"accuracy":0.010766273,"title":"West+Lake+Waterfall","description":"A+waterfall+in+Hangzhou%27s+famed+West+Lake"}
{"id":2620733615,"url":"http://farm4.staticflickr.com/3152/2620733615_8a91c892b9.jpg","path":"c91/d52/c91d5213a08d65402d6711d2ad16a42.jpg","date":"2008-03-18","year":2008,"month":3,"lon":120.16777,"lat":30.252838,"tags":"arrodillada,budista,china,hangzhou,irene,templo","S2CellId":"3650000000000000","result":2395,"accuracy":0.06920356,"title":"p3183236"}
{"id":5077110553,"url":"http://farm5.staticflickr.com/4104/5077110553_3589fb7587.jpg","path":"7e1/8cb/7e18cbf9c4741489196a5d7660ffdce5.jpg","date":"2010-10-12","year":2010,"month":10,"lon":120.13045,"lat":30.253298,"tags":"af-s+dx+vr+zoom-nikkor+18-200mm+f%2F3.5-5.6g+if-ed","S2CellId":"809f000000000000","result":7130,"accuracy":0.013222305}
{"id":8187789586,"url":"http://farm9.staticflickr.com/8479/8187789586_75a1a3beba.jpg","path":"1ab/882/1ab882a8931993203d1d9d45307c9b1e.jpg","date":"2012-10-17","year":2012,"month":10,"lon":120.13598,"lat":30.252583,"tags":"%E6%A5%BC%E5%A4%96%E6%A5%BC,%E8%A5%BF%E6%B9%96,china,food,hangzhou,lou+wai+lou,restaurant,west+lake","S2CellId":"60188b9000000000","result":6478,"accuracy":0.020827146,"title":"Lou+Wai+Lou+%E6%A5%BC%E5%A4%96%E6%A5%BC+-+Chopped+Garlic+Pea+Sprout+%E8%92%9C%E8%93%89%E8%B1%86%E8%8B%97","description":"Lou+Wai+Lou+%E6%A5%BC%E5%A4%96%E6%A5%BC+-+Chopped+Garlic+Pea+Sprout+%E8%92%9C%E8%93%89%E8%B1%86%E8%8B%97"}
{"id":8065577783,"url":"http://farm9.staticflickr.com/8454/8065577783_3d361232d5.jpg","path":"c5f/65a/c5f65ab9d38d3f62d025535f42f322b3.jpg","date":"2012-07-21","year":2012,"month":7,"lon":120.89134,"lat":30.947868,"tags":"china,k-x,xitang","S2CellId":"0dafee5000000000","result":627,"accuracy":0.12840693,"title":"Xitang+%28%E8%A5%BF%E5%A1%98%29"}
{"id":3680638871,"url":"http://farm3.staticflickr.com/2456/3680638871_459dee8b35.jpg","path":"b95/62a/b9562a83844c355c99f32e58b04be85.jpg","date":"2009-06-27","year":2009,"month":6,"lon":120.14,"lat":30.2469,"tags":"70-300,china,hang+zhou,nikon+d90,sigma+apo,summer,travel,west+lake","S2CellId":"35f052f000000000","result":2371,"accuracy":0.19986597,"title":"Sightseeing+boat"}
{"id":4753633705,"url":"http://farm5.staticflickr.com/4098/4753633705_2e1c6995bd.jpg","path":"ac4/39e/ac439e0f9b093d776adc1b93e925d9e.jpg","date":"2010-07-02","year":2010,"month":7,"lon":120.077415,"lat":30.152012,"tags":"35mm,analog,china+academy+of+art,film,graduetion+design+show,minolta+x-700","S2CellId":"3469170000000000","result":2173,"accuracy":0.020433422,"title":"%E7%8E%8B%E5%AD%90%E6%99%8B%E5%A4%AB%E5%A6%87%7E%7E%7E","description":"%E5%9C%A8%E6%89%80%E6%9C%89%E7%9A%84%E5%87%BA%E5%8F%8C%E5%85%A5%E5%AF%B9%E9%87%8C%E9%9D%A2%0A%E6%88%91%E6%9C%80%E7%9C%8B%E5%A5%BD%E4%BD%A0%E4%BB%AC%7E%EF%BC%81"}
{"id":5946619860,"url":"http://farm7.staticflickr.com/6021/5946619860_bc48f13c9a.jpg","path":"829/086/829086e7dad34af4aa48964d24dfa87.jpg","date":"2011-07-17","year":2011,"month":7,"lon":120.1467,"lat":30.214344,"tags":"%E5%85%AB%E5%8D%A6%E7%94%B0,%E5%90%91%E6%97%A5%E8%91%B5,%E5%A5%B6%E6%98%945,%E6%9D%AD%E5%B7%9E,%E7%89%9B%E5%A4%B4%E5%B3%B0,%E7%B4%A2%E5%B0%BC,nex-5,sony","S2CellId":"3404005400000000","result":1984,"accuracy":0.0041533764,"title":"DSC09795"}
{"id":2098337256,"url":"http://farm3.staticflickr.com/2271/2098337256_a8caaa0ae0.jpg","path":"be2/1bb/be21bb3a5eaff632019787ce61ae5a1.jpg","date":"2007-12-08","year":2007,"month":12,"lon":120.4735,"lat":30.753332,"tags":"wuzhen","S2CellId":"3724000000000000","result":2419,"accuracy":0.18311338,"title":"wuzhen"}
{"id":297878879,"url":"http://farm1.staticflickr.com/99/297878879_1e885041c5.jpg","path":"dcd/1c4/dcd1c4fc29708cb07cbf96aa3013d334.jpg","date":"2006-11-11","year":2006,"month":11,"lon":120.88651,"lat":30.951038,"tags":"%E4%B8%AD%E5%9B%BD,%E4%B8%AD%E5%9C%8B,%E5%98%89%E5%96%84%E5%8E%BF,%E6%B5%99%E6%B1%9F%E7%9C%81,%E8%A5%BF%E5%A1%98,arch,asia,bridge,canal,china,circle,dog,east+asia,holiday,jiashan,people,photo,photo+tour,rainbow+bridge,tour,trip,vacation,water,water+town,x%C4%ABt%C3%A1ng,xitang,zhejiang","S2CellId":"132f604900000000","result":1078,"accuracy":0.056809407,"title":"bridging+the+canal","description":"An+old+style+bridge+circle+bridge+on+one+if+the+side+canals+in+the+water+town.+I+had+some+vertigo+on+the+tops+of+these+bridges+as+there+were+only+very+low+sides.%0A%0AChina+Shanghai+Watertown+IMG_2796"}
{"id":5954230330,"url":"http://farm7.staticflickr.com/6004/5954230330_d65ab1164e.jpg","path":"eff/fc7/efffc754451afb2fc589931bbde51e8.jpg","date":"2011-07-10","year":2011,"month":7,"lon":120.13481,"lat":30.257584,"tags":"%E6%A4%8D%E7%89%A9","S2CellId":"88d0a631cabb5071","result":8563,"accuracy":0.013739511,"title":"%E9%87%91%E8%BE%B9%E5%A4%A7%E8%8A%B1%E5%85%AD%E9%81%93%E6%9C%A8"}
