{"id":4722677705,"url":"http://farm2.staticflickr.com/1061/4722677705_3f53d43341.jpg","path":"a73/bc7/a73bc7df34c685fd0b6c51895526a2.jpg","date":"2010-05-29","year":2010,"month":5,"lon":-71.753,"lat":45.10128,"tags":"2010,50d,canada,canon,cantons-de-l%27est,coaticook,dixville,eastern+townships,eos+50d,estrie,gorges+coaticook,lac+wallace,lake+wallace,lennoxville,martinville,mus%C3%A9e+uplands,qu%C3%A9bec,quebec,sainte-edwidge,sainte-edwidge-de-clifton,sainte-herm%C3%A9n%C3%A9gilde,summer,uplands,uplands+museum","S2CellId":"4645400000000000","result":2809,"accuracy":0.043278653,"title":"Farm"}
{"id":4870595922,"url":"http://farm5.staticflickr.com/4074/4870595922_aafa54b706.jpg","path":"691/619/691619e16ae9d78785ddea63ea11a78.jpg","date":"2010-07-31","year":2010,"month":7,"lon":-71.27689,"lat":45.527637,"tags":"%C3%A9t%C3%A9,2010,canon,canon+eos+50d,chapel,chapelle,clouds,colline,croix,cross,dudswell,eos+50d,hill,mont+m%C3%A9gantic,montagne,montagnes+blanches,mount+megantic,mountain,notre-dame-des-bois,observatoire,observatory,summer,white+mountains","S2CellId":"4c90000000000000","result":5830,"accuracy":0.08102177,"title":"Decay"}
{"id":4901851706,"url":"http://farm5.staticflickr.com/4078/4901851706_28f25ef703.jpg","path":"b41/ef0/b41ef0651b5de5a66919e4bb9df04a3e.jpg","date":"2010-08-07","year":2010,"month":8,"lon":-71.893715,"lat":45.40443,"tags":"%C3%A9t%C3%A9,2010,black+and+white,canada,canon,canon+eos+50d,eos+50d,qu%C3%A9bec,quebec,rivi%C3%A8re+magog,rue+alexandre,rue+ball,rue+wellington,sherbrooke,summer","S2CellId":"873f000000000000","result":7805,"accuracy":0.014202205,"title":"Frontenac%2FDufferin"}
{"id":5101225342,"url":"http://farm5.staticflickr.com/4133/5101225342_6336132139.jpg","path":"2ea/e5c/2eae5ccf1019349adaa36b7fd057f576.jpg","date":"2010-10-20","year":2010,"month":10,"lon":-71.81093,"lat":45.145714,"tags":"eastern+townships,mount+orford","S2CellId":"873f000000000000","result":7805,"accuracy":0.005297407}
{"id":5989629240,"url":"http://farm7.staticflickr.com/6145/5989629240_bc0cb4b5be.jpg","path":"e2a/391/e2a391743fc53eee2dfa6d725f55abc5.jpg","date":"2011-07-29","year":2011,"month":7,"lon":-71.92516,"lat":45.086834,"tags":"country+road,gsxr,motorcycle,roadtrip,suzuki","S2CellId":"45d4000000000000","result":2755,"accuracy":0.039422818,"title":"The+approach+to+Baldwin+Mills+at+dusk+-+wouldn%27t+want+to+be+anywhere+else+right+now."}
{"id":9827075803,"url":"http://farm3.staticflickr.com/2893/9827075803_5561d30ce6.jpg","path":"74c/c7c/74cc7cbaba6d6cf2767842e55ec14e.jpg","date":"2013-08-27","year":2013,"month":8,"lon":-71.15152,"lat":45.45773,"tags":"gimp+exposure-blend","S2CellId":"4711000000000000","result":3193,"accuracy":0.09942523,"title":"IMG_1390+hd"}
{"id":10136357465,"url":"http://farm6.staticflickr.com/5514/10136357465_6994194ba9.jpg","path":"656/8e5/6568e51efc4da9aea6654ae5ebb9dff.jpg","date":"2013-09-21","year":2013,"month":9,"lon":-71.974525,"lat":45.276817,"tags":"boat,canada,clouds,hatley,lake,north,quebec,sky","S2CellId":"4763000000000000","result":3311,"accuracy":0.2800327,"title":"North+Hatley","description":"about+me+%3A+%3Ca+href%3D%22http%3A%2F%2Fq.ennev.com%2Fa%22+rel%3D%22nofollow%22%3Eq.ennev.com%2Fa%3C%2Fa%3E"}
{"id":3076174887,"url":"http://farm4.staticflickr.com/3197/3076174887_f212c846e9.jpg","path":"1a8/0f7/1a80f7ddc38c2ed5285e26f630598a72.jpg","date":"2008-09-01","year":2008,"month":9,"lon":-71.68802,"lat":45.571754,"tags":"bishopton,canada,dudswell,eastern+townships,estrie,marbleton,quebec,summer","S2CellId":"469c000000000000","result":3042,"accuracy":0.046404682,"title":"Lookout+View+over+Marbleton","description":"A+zoomed+in+look+at+Marbleton+from+the+lookout+in+the+previous+photo."}
{"id":9864601346,"url":"http://farm3.staticflickr.com/2878/9864601346_a736e950e4.jpg","path":"37d/4be/37d4be5a8c7c9552d36ecc9a495e824.jpg","date":"2013-08-27","year":2013,"month":8,"lon":-71.11736,"lat":45.447655,"tags":"gimp+exposure-blend","S2CellId":"54c7000000000000","result":6307,"accuracy":0.18403493,"title":"IMG_1439+hd"}
{"id":8347874763,"url":"http://farm9.staticflickr.com/8045/8347874763_222a9c6fe2.jpg","path":"c69/615/c69615b5d0a8c574c52bdacd9798ec.jpg","date":"2012-12-02","year":2012,"month":12,"lon":-71.673,"lat":45.140835,"tags":"canada,cows,estrie,qc,qu%C3%A9bec,st-herm%C3%A9n%C3%A9gilde,vaches","S2CellId":"48d3000000000000","result":5788,"accuracy":0.02634517,"title":"St-Herm%C3%A9m%C3%A9gilde%2C+QC"}
{"id":2732677422,"url":"http://farm4.staticflickr.com/3174/2732677422_af8d28eda9.jpg","path":"ecd/362/ecd362ffefc345d85e4c4b4e816b269f.jpg","date":"2007-12-08","year":2007,"month":12,"lon":-71.89016,"lat":45.404884,"tags":"canada,qu%C3%A9bec,sherbrooke","S2CellId":"8740300000000000","result":7807,"accuracy":0.034974307,"title":"Sherbrooke+%2811%29"}
{"id":11933736156,"url":"http://farm4.staticflickr.com/3829/11933736156_968a9e0ded.jpg","path":"49f/ad1/49fad1e9bf7a0772d324affd0cc9257.jpg","date":"2013-12-28","year":2013,"month":12,"lon":-71.99676,"lat":45.265343,"tags":"canada,k-5,k-5+ii,north+hatley,pentax,pentax+k-05+ii,pentax+k-5+ii,quebec,snow,square,tree,trees,winter","S2CellId":"4787400000000000","result":3613,"accuracy":0.006612962,"title":"Winter+Scene","description":".%0A%0AAbout+me%3A+%3Ca+href%3D%22http%3A%2F%2Fq.ennev.com%2Fpa%22+rel%3D%22nofollow%22%3Eq.ennev.com%2Fpa%3C%2Fa%3E"}
{"id":8612138038,"url":"http://farm9.staticflickr.com/8100/8612138038_1969f7825e.jpg","path":"575/69a/57569af95c03cd8cd68ac883656b599.jpg","date":"2010-10-02","year":2010,"month":10,"lon":-71.150055,"lat":45.456276,"tags":"oiseau,quebec","S2CellId":"88d0a631cabb5071","result":8563,"accuracy":0.009270341,"title":"M%C3%A9sangeai+du+Canada"}
{"id":4784209473,"url":"http://farm5.staticflickr.com/4080/4784209473_8fff4de166.jpg","path":"343/aa1/343aa1dcd52fb5dd8b66bd38b5cc84ca.jpg","date":"2010-07-02","year":2010,"month":7,"lon":-71.89103,"lat":45.40086,"tags":"cantons+de+l%27est,eastern+townships,qu%C3%A9bec,sherbrooke","S2CellId":"4cb29d0000000000","result":5845,"accuracy":0.17291433,"title":"Sherbrooke+13","description":"Looking+downhill+to+Downtown+and+hospital+complex+beyond"}
{"id":5994019839,"url":"http://farm7.staticflickr.com/6018/5994019839_6e0c57a373.jpg","path":"778/0b8/7780b83366525379612f359b89e684e.jpg","date":"2011-07-28","year":2011,"month":7,"lon":-71.479195,"lat":45.943333,"tags":"anne,senterre,st-jacques-le-majeur-de-wolfestown","S2CellId":"46ed000000000000","result":3093,"accuracy":0.013588044,"title":"Anne+%C3%A0+l%27oeuvre%21","description":"Elle+a+ador%C3%A9+son+exp%C3%A9rience+de+%22chasse+%C3%A0+la+grenouille%22+%21"}
{"id":401084461,"url":"http://farm1.staticflickr.com/150/401084461_fdfbb5560b.jpg","path":"52f/aa7/52faa724bf7362344de57f9aeddda0a8.jpg","date":"2007-02-24","year":2007,"month":2,"lon":-71.26213,"lat":45.444836,"tags":"cabin+life,nature","S2CellId":"5ff8400000000000","result":6373,"accuracy":0.008308377,"title":"Modeling+Cat","description":"I+asked+him+three+times+to+come+by.+He+did."}
{"id":2670673692,"url":"http://farm4.staticflickr.com/3163/2670673692_da859172d1.jpg","path":"d9c/760/d9c7604a9199f918db6fe6a3ca961b.jpg","date":"2008-07-14","year":2008,"month":7,"lon":-71.71875,"lat":45.444717,"tags":"alpha-dslr-a200,golddragon,minoltaamount,sony-dslr,sonyalphalearningcenter","S2CellId":"548f749000000000","result":6168,"accuracy":0.14443283,"title":"SonyDSLR+July+14+2008+130","description":"Lake+Front+Magog+Canada%0A%0A%0AExposure%3A++0.077+sec+%281%2F13%29%0AAperture%3A+f%2F5.6%0AFocal+Length%3A+35+mm%0AISO+Speed%3A+100%0AExposure+Bias%3A+3%2F10+EV%0AFlash%3A+Flash+did+not+fire"}
{"id":9426255127,"url":"http://farm8.staticflickr.com/7364/9426255127_16bcdeb07f.jpg","path":"c47/53e/c4753ee2c5f9ba88fd355361d086f11.jpg","date":"2013-08-02","year":2013,"month":8,"lon":-71.89453,"lat":45.404236,"tags":"canada,prime+minister+stephen+harper,stephen+harper","S2CellId":"89c6e40000000000","result":9175,"accuracy":0.112608485,"title":"PM+Harper+attends+the+opening+ceremony+of+the+2013+Canada+Games"}
{"id":4652824701,"url":"http://farm5.staticflickr.com/4027/4652824701_906fdf7f3c.jpg","path":"958/a4c/958a4c40fb9c2ad3628c37e642d8e459.jpg","date":"2010-05-22","year":2010,"month":5,"lon":-71.97323,"lat":45.275986,"tags":"%C3%A9t%C3%A9,2010,canada,lac,lac+massawippi,lake,lake+massawippi,massawippi,north+hatley,quebec,summer","S2CellId":"5140000000000000","result":5964,"accuracy":0.090370655,"title":"North+Hatley"}
{"id":4870607948,"url":"http://farm5.staticflickr.com/4080/4870607948_7e36044433.jpg","path":"a51/f58/a51f581e33bc1c235821b374c331dba.jpg","date":"2010-07-31","year":2010,"month":7,"lon":-71.07811,"lat":45.394352,"tags":"%C3%A9t%C3%A9,2010,canon,canon+eos+50d,chapel,chapelle,clouds,colline,croix,cross,dudswell,eos+50d,hill,mont+m%C3%A9gantic,montagne,montagnes+blanches,mount+megantic,mountain,notre-dame-des-bois,observatoire,observatory,summer,white+mountains","S2CellId":"89e2b00000000000","result":9300,"accuracy":0.048014242,"title":"Notre-Dame-des-Bois"}
{"id":385925041,"url":"http://farm1.staticflickr.com/166/385925041_0d2ee68478.jpg","path":"aef/5ce/aef5ce54222e54e992f06d19d8536d.jpg","date":"2007-02-10","year":2007,"month":2,"lon":-71.25749,"lat":45.47241,"tags":"cabin+life,winter","S2CellId":"4d54000000000000","result":5954,"accuracy":0.027422244,"title":"Being+noticed+in+a+crowd"}
{"id":4653509626,"url":"http://farm5.staticflickr.com/4066/4653509626_3ac6fd9d4f.jpg","path":"b36/e70/b36e709b59606dcfe52721c1e66dde25.jpg","date":"2010-05-22","year":2010,"month":5,"lon":-71.97737,"lat":45.270576,"tags":"%C3%A9t%C3%A9,2010,canada,lac,lac+massawippi,lake,lake+massawippi,massawippi,north+hatley,quebec,summer","S2CellId":"6d31890000000000","result":6814,"accuracy":0.013827885,"title":"North+Hatley"}
